PWSID,PWS Name,Approximate Address,Postal,Primacy Agency,EPA Region,PWS Type,Population Served Count,Cities Served,Counties Served,# of Facilities,# of Violations,# of Site Visits,Longitude,Latitude,DisplayX,DisplayY,Xmin,Xmax,Ymin,Ymax
AL0000438,MIDLAND CITY WATER DEPARTMENT,"36350, Midland City, Alabama",36350,Alabama,Region 4,Community water system,2880,MIDLAND CITY,Dale,9,2,29,-85.495567,31.312617,-85.495567,31.312617,-85.677567,-85.313567,31.130617,31.494617
AL0001306,MITCHELL WATER SYSTEM INC,"35407, Tuscaloosa, Alabama",35407,Alabama,Region 4,Community water system,9000,TUSCALOOSA,Tuscaloosa,9,1,29,-87.495272,33.168841,-87.495272,33.168841,-87.500272,-87.490272,33.163841,33.173841
AL0001006,MT. VERNON (TOWN OF),"36560, Mount Vernon, Alabama",36560,Alabama,Region 4,Community water system,2475,,Mobile,6,30,32,-88.010062,31.089341,-88.010062,31.089341,-88.186062,-87.834062,30.913341,31.265341
AL0000131,CALHOUN COUNTY WATER & FIRE PR AUTHORITY,"36250, Alexandria, Alabama",36250,Alabama,Region 4,Community water system,30756,ALEXANDRIA,Calhoun,44,23,31,-85.897464,33.760476,-85.897464,33.760476,-85.965464,-85.829464,33.692476,33.828476
AL0000852,LOWNDESBORO WATER AUTHORITY,"36752, Burkville, Alabama",36752,Alabama,Region 4,Community water system,840,LOWNDESBORO,Lowndes,10,5,28,-86.536306,32.257399,-86.536306,32.257399,-86.818306,-86.254306,31.975399,32.539399
AL0001411,HALEYVILLE WATER WORKS & SEWER BOARD,"35565, Haleyville, Alabama",35565,Alabama,Region 4,Community water system,11949,HALEYVILLE,Winston,8,0,29,-87.618221,34.226623,-87.618221,34.226623,-87.812221,-87.424221,34.032623,34.420623
AL0000949,SWEARENGIN WATER SYSTEM,"35747, Grant, Alabama",35747,Alabama,Region 4,Community water system,2142,GRANT,Marshall,9,4,22,-86.255534,34.521977,-86.255534,34.521977,-86.467534,-86.043534,34.309977,34.733977
AL0000463,DALLAS COUNTY WATER & SEWER AUTHORITY,"36702, Selma, Alabama",36702,Alabama,Region 4,Community water system,5292,SELMA,Dallas,9,3,35,-87.022232,32.41179,-87.022232,32.41179,-87.027232,-87.017232,32.40679,32.41679
AL0000482,NORTH DALLAS WATER AUTHORITY,"36701, Valley Grande, Alabama",36701,Alabama,Region 4,Community water system,8316,SELMA,Dallas,20,2,42,-87.028199,32.41012,-87.028199,32.41012,-87.414199,-86.642199,32.02412,32.79612
AL0001229,"WATER WORKS, INC.","35022, Bessemer, Alabama",35022,Alabama,Region 4,Community water system,534,TALLADEGA,Talladega,4,16,30,-86.984052,33.374625,-86.984052,33.374625,-87.133052,-86.835052,33.225625,33.523625
AL0001258,SYLACAUGA UTILITIES BOARD,"301 N Elm Ave, Sylacauga, Alabama, 35150",35150,Alabama,Region 4,Community water system,22611,SYLACAUGA,Talladega,37,31,50,-86.257941,33.171714,-86.257941,33.171714,-86.267941,-86.247941,33.161714,33.181714
AL0000622,GENEVA WATER WORKS,"36340, Geneva, Alabama",36340,Alabama,Region 4,Community water system,5850,GENEVA,Geneva,30,5,33,-85.870947,31.037721,-85.870947,31.037721,-85.996947,-85.744947,30.911721,31.163721
AL0000993,KUSHLA WATER DISTRICT,"36613, Mobile, Alabama",36613,Alabama,Region 4,Community water system,5136,EIGHT MILE,Mobile,17,4,24,-88.13109,30.767393,-88.13109,30.767393,-88.25909,-88.00309,30.639393,30.895393
AL0001139,HURTSBORO WATER & SEWER BOARD,"36860, Hurtsboro, Alabama",36860,Alabama,Region 4,Community water system,1251,HURTSBORO,Russell,8,4,28,-85.416742,32.279889,-85.416742,32.279889,-85.594742,-85.238742,32.101889,32.457889
AL0001783,BLOUNT COUNTY WATER,"18 Arena Dr, Cleveland, Alabama, 35049",35049,Alabama,Region 4,Community water system,17139,CLEVELAND,Blount,29,63,20,-86.587887,33.982644,-86.587887,33.982644,-86.597887,-86.577887,33.972644,33.992644
AL0000794,WEST LAUDERDALE CO WATER & FPA,"35633, Florence, Alabama",35633,Alabama,Region 4,Community water system,14244,FLORENCE,Lauderdale,18,3,30,-87.683361,34.846566,-87.683361,34.846566,-87.955361,-87.411361,34.574566,35.118566
AL0000023,NORTH BALDWIN UTILITIES,"36507, Bay Minette, Alabama",36507,Alabama,Region 4,Community water system,15795,BAY MINETTE,Baldwin,34,44,36,-87.776211,30.882697,-87.776211,30.882697,-88.032211,-87.520211,30.626697,31.138697
AL0000885,MADISON WATER WORKS & SEWER,"35758, Triana, Alabama",35758,Alabama,Region 4,Community water system,39051,MADISON,Madison,31,6,42,-86.753396,34.687871,-86.753396,34.687871,-86.826396,-86.680396,34.614871,34.760871
AL0000295,ELBA WATER WORKS,"36323, Elba, Alabama",36323,Alabama,Region 4,Community water system,6042,ELBA,Coffee,19,1,30,-86.071229,31.414323,-86.071229,31.414323,-86.266229,-85.876229,31.219323,31.609323
AL0001285,RAY COMMUNITY WATER & FIRE PRO AUTHORITY,"35010, Alexander City, Alabama",35010,Alabama,Region 4,Community water system,1296,ALEXANDER CITY,Coosa,5,7,26,-85.949656,32.943136,-85.949656,32.943136,-86.196656,-85.702656,32.696136,33.190136
AL0001791,EVERGREEN ESTATES,"36111, Montgomery, Alabama",36111,Alabama,Region 4,Community water system,1884,MONTGOMERY,Montgomery,2,4,10,-86.285493,32.331536,-86.285493,32.331536,-86.334493,-86.236493,32.282536,32.380536
AL0001393,PINE HILL WATER DEPARTMENT,"50 Dunn St, Pine Hill, Alabama, 36769",36769,Alabama,Region 4,Community water system,2475,PINE HILL,Wilcox,5,1,46,-87.586947,31.980363,-87.586947,31.980363,-87.596947,-87.576947,31.970363,31.990363
AL0001172,WILTON WATER WORKS,"35187, Wilton, Alabama",35187,Alabama,Region 4,Community water system,2862,WILTON,Shelby,10,22,43,-86.884258,33.075557,-86.884258,33.075557,-86.889258,-86.879258,33.070557,33.080557
AL0001092,WEST MORGAN-EAST LAWRENCE WATER AUTHORIT,"35609, Decatur, Alabama",35609,Alabama,Region 4,Community water system,26130,DECATUR,Morgan,15,1,26,-86.979801,34.6074,-86.979801,34.6074,-86.984801,-86.974801,34.6024,34.6124
AL0000504,PONDEROSA BIBLE CAMP,"35984, Mentone, Alabama",35984,Alabama,Region 4,Transient non-community system,65,MENTONE,DeKalb,7,24,25,-85.586953,34.576609,-85.586953,34.576609,-85.778953,-85.394953,34.384609,34.768609
AL0000860,FRANKLIN WATER SYSTEM,"1660 Al Highway 49, Franklin, Alabama, 36083",36083,Alabama,Region 4,Community water system,150,TUSKEGEE,Macon,3,10,23,-85.805724,32.466262,-85.805724,32.466262,-85.815724,-85.795724,32.456262,32.476262
AL0001086,HARTSELLE UTILITY BOARD,"35640, Hartselle, Alabama",35640,Alabama,Region 4,Community water system,20418,HARTSELLE,Morgan,13,20,44,-86.93497,34.443635,-86.93497,34.443635,-87.09697,-86.77297,34.281635,34.605635
AL0000066,SOUTHPORT CAMPGROUNDS,"36547, Gulf Shores, Alabama",36547,Alabama,Region 4,Transient non-community system,60,ELBERTA,Baldwin,4,11,19,-87.690221,30.27411,-87.690221,30.27411,-87.695221,-87.685221,30.26911,30.27911
AL0001070,MONTGOMERY WATER WORKS,"36102, Montgomery, Alabama",36102,Alabama,Region 4,Community water system,240840,MONTGOMERY,Montgomery,93,23,62,-86.312532,32.37464,-86.312532,32.37464,-86.317532,-86.307532,32.36964,32.37964
AL0001422,NORTHEAST ALABAMA WATER SYSTEM,"35968, Fort Payne, Alabama",35968,Alabama,Region 4,Community water system,37500,FORT PAYNE,DeKalb,57,66,32,-85.757573,34.440719,-85.757573,34.440719,-85.925573,-85.589573,34.272719,34.608719
AL0000441,OZARK UTILITIES BOARD,"36361, Ozark, Alabama",36361,Alabama,Region 4,Community water system,19200,OZARK,Dale,26,23,104,-85.646401,31.455853,-85.646401,31.455853,-85.651401,-85.641401,31.450853,31.460853
AL0000921,BRILLIANT WATER WORKS,"35548, Brilliant, Alabama",35548,Alabama,Region 4,Community water system,1605,BRILLIANT,Marion,8,0,48,-87.758081,34.025072,-87.758081,34.025072,-87.913081,-87.603081,33.870072,34.180072
AL0000626,MALVERN WATER DEPARTMENT,"36349, Malvern, Alabama",36349,Alabama,Region 4,Community water system,1680,MALVERN,Geneva,9,1,22,-85.556587,31.162095,-85.556587,31.162095,-85.564587,-85.548587,31.154095,31.170095
AL0000298,"JACK WATER SYSTEM, INC","36346, Jack, Alabama",36346,Alabama,Region 4,Community water system,1305,JACK,Coffee,5,7,38,-85.933737,31.551476,-85.933737,31.551476,-86.023737,-85.843737,31.461476,31.641476
AL0000439,NEWTON WATER WORKS BOARD,"36352, Newton, Alabama",36352,Alabama,Region 4,Community water system,2190,NEWTON,Dale,7,3,30,-85.572289,31.233195,-85.572289,31.233195,-85.713289,-85.431289,31.092195,31.374195
AL0000076,"WHITE HOUSE WATER SYSTEM, INC.","36507, Bay Minette, Alabama",36507,Alabama,Region 4,Community water system,5163,BAY MINETTE,Baldwin,3,5,24,-87.776211,30.882697,-87.776211,30.882697,-88.032211,-87.520211,30.626697,31.138697
AL0000384,SANFORD WATER SYSTEM,"36420, Carolina, Alabama",36420,Alabama,Region 4,Community water system,501,ANDALUSIA,Covington,3,4,20,-86.477427,31.308451,-86.477427,31.308451,-86.889427,-86.065427,30.896451,31.720451
AL0000408,JOHNSONS CROSSING WATER SYSTEM,"35056, Cullman, Alabama",35056,Alabama,Region 4,Community water system,2943,CULLMAN,Cullman,3,4,25,-86.847829,34.170341,-86.847829,34.170341,-86.852829,-86.842829,34.165341,34.175341
AL0001781,"TATE & LYLE SUCRALOSE, INC. WATER SYSTEM","36553, McIntosh, Alabama",36553,Alabama,Region 4,Non-Transient non-community system,80,MCINTOSH,Washington,6,8,13,-87.999706,31.249815,-87.999706,31.249815,-88.222706,-87.776706,31.026815,31.472815
AL0000311,CHEROKEE WATER & GAS DEPARTMENT,"35616, Cherokee, Alabama",35616,Alabama,Region 4,Community water system,2250,CHEROKEE,Colbert,4,15,40,-87.968255,34.759596,-87.968255,34.759596,-88.211255,-87.725255,34.516596,35.002596
AL0001343,OAKMAN WATER WORKS,"35579, Oakman, Alabama",35579,Alabama,Region 4,Community water system,3414,OAKMAN,Walker,12,5,28,-87.38615,33.718262,-87.38615,33.718262,-87.63615,-87.13615,33.468262,33.968262
AL0000677,COTTONWOOD WATER WORKS,"36320, Cottonwood, Alabama",36320,Alabama,Region 4,Community water system,3462,COTTONWOOD,Houston,12,6,43,-85.302987,31.054426,-85.302987,31.054426,-85.445987,-85.159987,30.911426,31.197426
AL0000029,DAPHNE (UTILITIES BOARD OF THE CITY OF),"36526, Daphne, Alabama",36526,Alabama,Region 4,Community water system,25968,DAPHNE,Baldwin,32,4,78,-87.908823,30.643116,-87.908823,30.643116,-88.026823,-87.790823,30.525116,30.761116
AL0000387,DOZIER WATER WORKS,"36028, Dozier, Alabama",36028,Alabama,Region 4,Community water system,597,DOZIER,Crenshaw,6,6,25,-86.365355,31.497508,-86.365355,31.497508,-86.526355,-86.204355,31.336508,31.658508
AL0000270,MILLERVILLE WATER & FIRE PRO AUTHORITY,"334 School House Rd, Ashland, Alabama, 36251",36251,Alabama,Region 4,Community water system,1500,MILLERVILLE,Clay,3,5,23,-85.931391,33.189019,-85.931391,33.189019,-85.941391,-85.921391,33.179019,33.199019
AL0001002,MOBILE COUNTY WATER & FIRE PRO AUTHORITY,"36590, Theodore, Alabama",36590,Alabama,Region 4,Community water system,35949,THEODORE,Mobile,26,80,40,-88.170341,30.570041,-88.170341,30.570041,-88.175341,-88.165341,30.565041,30.575041
AL0001566,WEST BANK DAMSITE/W F GEORGE LAKE,"36373, Shorterville, Alabama",36373,Alabama,Region 4,Transient non-community system,30,SHORTERVILLE,Henry,7,3,17,-85.097449,31.565692,-85.097449,31.565692,-85.238449,-84.956449,31.424692,31.706692
AL0001755,HOUSTON COUNTY WATER AUTHORITY,"1699 Ross Clark Cir, Dothan, Alabama, 36301",36301,Alabama,Region 4,Community water system,4050,DOTHAN,Houston,7,5,22,-85.375275,31.194889,-85.375275,31.194889,-85.385275,-85.365275,31.184889,31.204889
AL0000540,HOLTVILLE WATER SYSTEM,"36022, Deatsville, Alabama",36022,Alabama,Region 4,Community water system,7566,DEATSVILLE,Elmore,22,4,50,-86.311678,32.644548,-86.311678,32.644548,-86.536678,-86.086678,32.419548,32.869548
AL0000563,HUXFORD WATER & FIRE PROTECTION AUTH,"36502, Mc Cullough, Alabama",36502,Alabama,Region 4,Community water system,420,HUXFORD,Escambia,5,5,25,-87.488361,31.02825,-87.488361,31.02825,-87.800361,-87.176361,30.71625,31.34025
AL0000081,BLUE SPRINGS WATER WORKS,"36017, Clio, Alabama",36017,Alabama,Region 4,Community water system,600,CLIO,Barbour,8,5,33,-85.613025,31.708794,-85.613025,31.708794,-85.810025,-85.416025,31.511794,31.905794
AL0000689,KINSEY WATER SYSTEM,"36301, Dothan, Alabama",36301,Alabama,Region 4,Community water system,2010,DOTHAN,Houston,6,1,36,-85.391564,31.216738,-85.391564,31.216738,-85.542564,-85.240564,31.065738,31.367738
AL0001267,CAMP ALAMISCO,"36853, Dadeville, Alabama",36853,Alabama,Region 4,Transient non-community system,70,DADEVILLE,Tallapoosa,8,17,21,-85.759316,32.831211,-85.759316,32.831211,-85.978316,-85.540316,32.612211,33.050211
AL0000914,LINDEN UTILITIES BOARD,"36748, Linden, Alabama",36748,Alabama,Region 4,Community water system,4521,LINDEN,Marengo,16,9,27,-87.794479,32.301125,-87.794479,32.301125,-88.020479,-87.568479,32.075125,32.527125
AL0001643,TOTH FIELD,"36362, Fort Rucker, Alabama",36362,Alabama,Region 4,Transient non-community system,30,,Houston,4,1,17,-85.727105,31.324716,-85.727105,31.324716,-85.890105,-85.564105,31.161716,31.487716
AL0000751,IRONDALE WATER SYSTEM,"101 20th St S, Irondale, Alabama, 35210",35210,Alabama,Region 4,Community water system,8492,IRONDALE,Jefferson,13,21,35,-86.706829,33.53811,-86.706311,33.53843,-86.707829,-86.705829,33.53711,33.53911
AL0000388,GLENWOOD WATER WORKS,"36034, Glenwood, Alabama",36034,Alabama,Region 4,Community water system,387,GLENWOOD,Crenshaw,3,63,29,-86.057611,31.610991,-86.057611,31.610991,-86.197611,-85.917611,31.470991,31.750991
AL0000708,WEBB WATER SYSTEM,"36376, Webb, Alabama",36376,Alabama,Region 4,Community water system,1761,WEBB,Houston,8,3,37,-85.277338,31.261438,-85.277338,31.261438,-85.353338,-85.201338,31.185438,31.337438
AL0000539,MILLBROOK UTILITIES,"36054, Millbrook, Alabama",36054,Alabama,Region 4,Community water system,4503,MILLBROOK,Elmore,8,2,72,-86.378093,32.525457,-86.378093,32.525457,-86.492093,-86.264093,32.411457,32.639457
AL0000572,ATTALLA WATER WORKS BOARD,"35954, Attalla, Alabama",35954,Alabama,Region 4,Community water system,7725,ATTALLA,Etowah,14,3,41,-86.088082,34.024051,-86.088082,34.024051,-86.286082,-85.890082,33.826051,34.222051
AL0000100,BLOUNTSVILLE UTILITIES BOARD,"35031, Blountsville, Alabama",35031,Alabama,Region 4,Community water system,4266,BLOUNTSVILLE,Blount,10,5,31,-86.594238,34.084265,-86.594238,34.084265,-86.764238,-86.424238,33.914265,34.254265
AL0001056,URIAH WATER SYSTEM INC.,"36480, Uriah, Alabama",36480,Alabama,Region 4,Community water system,3162,URIAH,Monroe,10,100,36,-87.502317,31.306508,-87.502317,31.306508,-87.784317,-87.220317,31.024508,31.588508
AL0001769,"BLUE HOLE WATER COMPANY, INC., THE","35079, Hayden, Alabama",35079,Alabama,Region 4,Community water system,369,,Blount,2,8,15,-86.754936,33.888242,-86.754936,33.888242,-86.962936,-86.546936,33.680242,34.096242
AL0001071,PINE LEVEL WATER AUTHORITY,"36065, Pine Level, Alabama",36065,Alabama,Region 4,Community water system,2745,PINE LEVEL,Montgomery,10,8,29,-86.053498,32.063602,-86.053498,32.063602,-86.074498,-86.032498,32.042602,32.084602
AL0000232,BUTLER WATER SYSTEM,"36904, Butler, Alabama",36904,Alabama,Region 4,Community water system,4395,BUTLER,Choctaw,8,7,42,-88.220802,32.094078,-88.220802,32.094078,-88.463802,-87.977802,31.851078,32.337078
AL0001424,EAST LAUDERDALE COUNTY WATER AUTHORITY,"35652, Rogersville, Alabama",35652,Alabama,Region 4,Community water system,9252,ROGERSVILLE,Lauderdale,11,0,27,-87.289818,34.824831,-87.289818,34.824831,-87.432818,-87.146818,34.681831,34.967831
AL0001784,WASHINGTON COUNTY WATER AUTHORITY,"36518, Chatom, Alabama",36518,Alabama,Region 4,Community water system,2478,CHATOM,Washington,11,7,13,-88.150378,31.474849,-88.150378,31.474849,-88.453378,-87.847378,31.171849,31.777849
AL0000581,HOKES BLUFF WATER BOARD,"35903, Hokes Bluff, Alabama",35903,Alabama,Region 4,Community water system,5196,HOKES BLUFF,Etowah,7,1,26,-85.967159,33.999365,-85.967159,33.999365,-86.165159,-85.769159,33.801365,34.197365
AL0000789,ROGERSVILLE WATER BOARD,"35652, Rogersville, Alabama",35652,Alabama,Region 4,Community water system,4830,ROGERSVILLE,Lauderdale,12,2,30,-87.289818,34.824831,-87.289818,34.824831,-87.432818,-87.146818,34.681831,34.967831
AL0000580,HIGHLAND WATER AUTHORITY,"35904, Gadsden, Alabama",35904,Alabama,Region 4,Community water system,5271,GADSDEN,Etowah,15,1,27,-86.040702,34.023331,-86.040702,34.023331,-86.203702,-85.877702,33.860331,34.186331
AL0000223,PEACH QUEEN KOA CAMPGROUNDS WATER SYSTEM,"35085, Jemison, Alabama",35085,Alabama,Region 4,Transient non-community system,10,JEMISON,Chilton,4,5,27,-86.747694,32.959022,-86.747694,32.959022,-86.902694,-86.592694,32.804022,33.114022
AL0001261,TALLADEGA-SHELBY WATER TREATMENT PLANT,"200 W College St, Columbiana, Alabama, 35051",35051,Alabama,Region 4,Community water system,32,ALPINE,Talladega,3,5,31,-86.610415,33.179284,-86.610415,33.179284,-86.620415,-86.600415,33.169284,33.189284
AL0000277,EDWARDSVILLE WATER & FIRE PRO AUTHORITY,"36261, Edwardsville, Alabama",36261,Alabama,Region 4,Community water system,525,EDWARDSVILLE,Cleburne,3,1,22,-85.51054,33.707435,-85.51054,33.707435,-85.51554,-85.50554,33.702435,33.712435
AL0001513,MID-CENTRAL WATER AUTHORITY,"36446, Fulton, Alabama",36446,Alabama,Region 4,Community water system,2331,FULTON,Clarke,8,1,24,-87.726915,31.788531,-87.726915,31.788531,-87.952915,-87.500915,31.562531,32.014531
AL0000053,"ORANGE BEACH WATER, SEWER AND F.P.A.","36561, Orange Beach, Alabama",36561,Alabama,Region 4,Community water system,13548,ORANGE BEACH,Baldwin,24,23,36,-87.598351,30.266772,-87.598351,30.266772,-87.740351,-87.456351,30.124772,30.408772
AL0001274,DAVISTON WATER SYSTEM (TOWN OF),"36256, New Site, Alabama",36256,Alabama,Region 4,Community water system,630,DAVISTON,Tallapoosa,3,8,26,-85.801488,33.02151,-85.801488,33.02151,-86.009488,-85.593488,32.81351,33.22951
AL0000929,TWIN WATER AUTHORITY,"6081 AL-253, Twin, Alabama, 35563",35563,Alabama,Region 4,Community water system,804,GUIN,Marion,5,8,37,-87.857562,34.003301,-87.857971,34.00339,-87.858562,-87.856562,34.002301,34.004301
AL0000833,LIMESTONE COUNTY WATER SYSTEM,"35612, Athens, Alabama",35612,Alabama,Region 4,Community water system,58500,ATHENS,Limestone,27,39,48,-86.982379,34.805182,-86.982379,34.805182,-86.987379,-86.977379,34.800182,34.810182
AL0001219,WOLF CREEK WATER AUTHORITY,"35125, Pell City, Alabama",35125,Alabama,Region 4,Community water system,966,RIVERSIDE,St. Clair,4,0,25,-86.283778,33.590221,-86.283778,33.590221,-86.447778,-86.119778,33.426221,33.754221
AL0000321,MUSCLE SHOALS UTILITY BOARD,"35661, Muscle Shoals, Alabama",35661,Alabama,Region 4,Community water system,18303,MUSCLE SHOALS,Colbert,8,19,29,-87.651582,34.752545,-87.651582,34.752545,-87.882582,-87.420582,34.521545,34.983545
AL0001084,DECATUR (MUNICIPAL UTILITIES BOARD OF),"35603, Decatur, Alabama",35603,Alabama,Region 4,Community water system,77100,DECATUR,Morgan,16,1,59,-86.987568,34.552486,-86.987568,34.552486,-87.150568,-86.824568,34.389486,34.715486
AL0000741,BROOKSIDE WATER WORKS,"35036, Brookside, Alabama",35036,Alabama,Region 4,Community water system,2550,BROOKSIDE,Jefferson,4,3,22,-86.915331,33.6408,-86.915331,33.6408,-86.920331,-86.910331,33.6358,33.6458
AL0000561,FREEMANVILLE WATER SYSTEM,"36502, Mc Cullough, Alabama",36502,Alabama,Region 4,Community water system,3384,ATMORE,Escambia,9,1,27,-87.488361,31.02825,-87.488361,31.02825,-87.800361,-87.176361,30.71625,31.34025
AL0001671,SHELBY COUNTY WATER SYSTEM,"200 W College St, Columbiana, Alabama, 35051",35051,Alabama,Region 4,Community water system,32337,COLUMBIANA,Shelby,24,5,26,-86.610415,33.179284,-86.610415,33.179284,-86.620415,-86.600415,33.169284,33.189284
AL0000645,GREENSBORO UTILITIES DEPARTMENT,"36744, Greensboro, Alabama",36744,Alabama,Region 4,Community water system,4500,GREENSBORO,Hale,12,0,27,-87.593537,32.707832,-87.593537,32.707832,-87.813537,-87.373537,32.487832,32.927832
AL0001363,MCINTOSH WATER & FIRE PRO AUTHORITY,"36553, McIntosh, Alabama",36553,Alabama,Region 4,Community water system,2847,MCINTOSH,Washington,12,22,25,-87.999706,31.249815,-87.999706,31.249815,-88.222706,-87.776706,31.026815,31.472815
AL0000352,KELLYTON WATER SYSTEM,"35089, Kellyton, Alabama",35089,Alabama,Region 4,Community water system,2010,KELLYTON,Coosa,5,1,20,-86.032721,32.97499,-86.032721,32.97499,-86.181721,-85.883721,32.82599,33.12399
AL0001004,"MCB WATER AUTHORITY, INC.","36512, Bucks, Alabama",36512,Alabama,Region 4,Community water system,693,BUCKS,Mobile,7,18,26,-88.024311,31.009631,-88.024311,31.009631,-88.033311,-88.015311,31.000631,31.018631
AL0000713,BRIDGEPORT UTILITIES BOARD,"35740, Bridgeport, Alabama",35740,Alabama,Region 4,Community water system,6000,BRIDGEPORT,Jackson,7,2,42,-85.722398,34.95193,-85.722398,34.95193,-85.825398,-85.619398,34.84893,35.05493
AL0000484,ORRVILLE WATER DEPARTMENT (TOWN OF),"36767, Orrville, Alabama",36767,Alabama,Region 4,Community water system,435,ORRVILLE,Dallas,5,8,28,-87.246234,32.300295,-87.246234,32.300295,-87.416234,-87.076234,32.130295,32.470295
AL0000824,ATHENS UTILITIES,"35902, Gadsden, Alabama",35902,Alabama,Region 4,Community water system,27534,ATHENS,Limestone,11,22,32,-86.009182,34.013501,-86.009182,34.013501,-86.014182,-86.004182,34.008501,34.018501
AL0000610,RUSSELLVILLE WATER WORKS,"35209, Homewood, Alabama",35209,Alabama,Region 4,Community water system,14325,RUSSELLVILLE,Franklin,16,2,95,-86.792791,33.482771,-86.792791,33.482771,-86.848791,-86.736791,33.426771,33.538771
AL0001748,JACKSON COUNTY WATER AUTHORITY,"14676 US Highway 72, Scottsboro, Alabama, 35768",35768,Alabama,Region 4,Community water system,6426,SCOTTSBORO,Jackson,13,2,16,-86.166437,34.621744,-86.166437,34.621744,-86.176437,-86.156437,34.611744,34.631744
AL0001302,FOSTERS-RALPH WATER AUTHORITY,"35480, Ralph, Alabama",35480,Alabama,Region 4,Community water system,5985,RALPH,Tuscaloosa,11,1,24,-87.765453,33.050302,-87.765453,33.050302,-87.867453,-87.663453,32.948302,33.152302
AL0001633,HIGH BLUFF AAF,"36362, Fort Rucker, Alabama",36362,Alabama,Region 4,Transient non-community system,30,,Geneva,4,1,18,-85.727105,31.324716,-85.727105,31.324716,-85.890105,-85.564105,31.161716,31.487716
AL0000121,"COASTAL FOREST PRODUCTS, LLC","36015, Chapman, Alabama",36015,Alabama,Region 4,Non-Transient non-community system,300,CHAPMAN,Butler,6,3,26,-86.696398,31.675122,-86.696398,31.675122,-86.701398,-86.691398,31.670122,31.680122
AL0001642,TAC-X AAF,"36362, Fort Rucker, Alabama",36362,Alabama,Region 4,Transient non-community system,25,,Geneva,4,0,10,-85.727105,31.324716,-85.727105,31.324716,-85.890105,-85.564105,31.161716,31.487716
AL0001337,KANSAS WATER SYSTEM,"35573, Kansas, Alabama",35573,Alabama,Region 4,Community water system,360,KANSAS,Walker,4,0,32,-87.550278,33.901743,-87.550278,33.901743,-87.555278,-87.545278,33.896743,33.906743
AL0001630,ECH AAF,"36362, Fort Rucker, Alabama",36362,Alabama,Region 4,Transient non-community system,30,,Dale,4,1,18,-85.727105,31.324716,-85.727105,31.324716,-85.890105,-85.564105,31.161716,31.487716
AL0001628,ALLEN AAF,"36362, Fort Rucker, Alabama",36362,Alabama,Region 4,Transient non-community system,30,,Houston,4,1,18,-85.727105,31.324716,-85.727105,31.324716,-85.890105,-85.564105,31.161716,31.487716
AL0000017,PRATTVILLE (WATER WORKS BOARD OF),"36068, Prattville, Alabama",36068,Alabama,Region 4,Community water system,39603,PRATTVILLE,Autauga,61,5,51,-86.425605,32.462236,-86.425605,32.462236,-86.430605,-86.420605,32.457236,32.467236
AL0000629,SLOCOMB WATER WORKS AND SEWER BOARD,"36375, Slocomb, Alabama",36375,Alabama,Region 4,Community water system,3600,SLOCOMB,Geneva,12,47,28,-85.593836,31.111044,-85.593836,31.111044,-85.782836,-85.404836,30.922044,31.300044
AL0001685,TALLADEGA COUNTY WATER SYSTEM,"35161, Talladega, Alabama",35161,Alabama,Region 4,Community water system,2874,TALLADEGA,Talladega,5,1,21,-86.102691,33.43451,-86.102691,33.43451,-86.107691,-86.097691,33.42951,33.43951
AL0001326,CORDOVA WATER WORKS & GAS BOARD,"35550, Cordova, Alabama",35550,Alabama,Region 4,Community water system,4158,CORDOVA,Walker,8,1,27,-87.183588,33.759229,-87.183588,33.759229,-87.298588,-87.068588,33.644229,33.874229
AL0000816,OPELIKA UTILITIES,"4055 Water St, Opelika, Alabama, 36801",36801,Alabama,Region 4,Community water system,37572,OPELIKA,Lee,17,6,66,-85.436159,32.664817,-85.433291,32.66652,-85.437159,-85.435159,32.663817,32.665817
AL0001800,LAKE THOLOCCO RECREATION AREA - AMERICAN,"36362, Fort Rucker, Alabama",36362,Alabama,Region 4,Transient non-community system,25,FORT RUCKER,Dale,22,2,5,-85.727105,31.324716,-85.727105,31.324716,-85.890105,-85.564105,31.161716,31.487716
AL0000319,LEIGHTON (WSB OF THE TOWN OF),"35646, Leighton, Alabama",35646,Alabama,Region 4,Community water system,1206,LEIGHTON,Colbert,8,8,26,-87.588793,34.62417,-87.588793,34.62417,-87.751793,-87.425793,34.46117,34.78717
AL0001085,FALKVILLE WATER WORKS,"35622, Falkville, Alabama",35622,Alabama,Region 4,Community water system,1680,FALKVILLE,Morgan,6,4,26,-86.905597,34.36892,-86.905597,34.36892,-87.066597,-86.744597,34.20792,34.52992
AL0001491,FARLEY NUCLEAR PLANT,"35243, Mountain Brk, Alabama",35243,Alabama,Region 4,Non-Transient non-community system,1000,BIRMINGHAM,Houston,12,4,27,-86.725322,33.43538,-86.725322,33.43538,-86.777322,-86.673322,33.38338,33.48738
AL0000244,PENNINGTON (UTILITIES BOARD OF),"36916, Pennington, Alabama",36916,Alabama,Region 4,Community water system,1206,PENNINGTON,Choctaw,9,12,34,-88.051031,32.211315,-88.051031,32.211315,-88.174031,-87.928031,32.088315,32.334315
AL0000139,CAMP COTTAQUILLA GSA,"105 Heatherbrooke Park Dr, Birmingham, Alabama, 35242",35242,Alabama,Region 4,Transient non-community system,160,ANNISTON,Calhoun,3,13,24,-86.699809,33.425404,-86.699961,33.42502,-86.700809,-86.698809,33.424404,33.426404
AL0000198,LAD MARINA & CAMPGROUND,"690 CR-199, Cedar Bluff, Alabama, 35959",35959,Alabama,Region 4,Transient non-community system,25,CEDAR BLUFF,Cherokee,4,22,21,-85.483829,34.20815,-85.483829,34.20815,-85.493829,-85.473829,34.19815,34.21815
AL0000368,HEATH WATER SYSTEM,"36421, Andalusia, Alabama",36421,Alabama,Region 4,Community water system,450,ANDALUSIA,Covington,2,2,23,-86.463152,31.324931,-86.463152,31.324931,-86.783152,-86.143152,31.004931,31.644931
AL0000091,BRENT UTILITIES BOARD,"36034, Glenwood, Alabama",36034,Alabama,Region 4,Community water system,5850,BRENT,Bibb,23,3,38,-86.057611,31.610991,-86.057611,31.610991,-86.197611,-85.917611,31.470991,31.750991
AL0000934,ARAB WATER WORKS BOARD,"35016, Arab, Alabama",35016,Alabama,Region 4,Community water system,35151,ARAB,Marshall,17,1,73,-86.501252,34.315628,-86.501252,34.315628,-86.602252,-86.400252,34.214628,34.416628
AL0000594,FAYETTE CO. WATER COORD. & F. P. A.,"35555, Fayette, Alabama",35555,Alabama,Region 4,Community water system,7623,FAYETTE,Fayette,16,0,26,-87.829514,33.689756,-87.829514,33.689756,-88.074514,-87.584514,33.444756,33.934756
AL0000617,CAMP VICTORY,"36477, Samson, Alabama",36477,Alabama,Region 4,Transient non-community system,170,SAMSON,Geneva,11,9,26,-86.048927,31.113091,-86.048927,31.113091,-86.206927,-85.890927,30.955091,31.271091
AL0000035,FAIRHOPE WATER SYSTEM (CITY OF),"36533, Fairhope, Alabama",36533,Alabama,Region 4,Community water system,38754,FAIRHOPE,Baldwin,25,110,43,-87.900192,30.523176,-87.900192,30.523176,-87.905192,-87.895192,30.518176,30.528176
AL0001204,PELL CITY WATER WORKS,"35125, Pell City, Alabama",35125,Alabama,Region 4,Community water system,15150,PELL CITY,St. Clair,15,21,26,-86.283778,33.590221,-86.283778,33.590221,-86.447778,-86.119778,33.426221,33.754221
AL0000259,MID CLARKE WATER SYSTEM,"36451, Allen, Alabama",36451,Alabama,Region 4,Community water system,1530,GROVE HILL,Clarke,3,6,20,-87.772548,31.705123,-87.772548,31.705123,-87.946548,-87.598548,31.531123,31.879123
AL0000577,GADSDEN WATER WORKS AND SEWER BOARD,"35902, Gadsden, Alabama",35902,Alabama,Region 4,Community water system,46551,GADSDEN,Etowah,31,26,33,-86.009182,34.013501,-86.009182,34.013501,-86.014182,-86.004182,34.008501,34.018501
AL0001365,BASF CORPORATION,"36553, McIntosh, Alabama",36553,Alabama,Region 4,Non-Transient non-community system,800,MCINTOSH,Washington,10,0,29,-87.999706,31.249815,-87.999706,31.249815,-88.222706,-87.776706,31.026815,31.472815
AL0001208,RAGLAND (THE WW BOARD OF THE TOWN OF),"35131, Ragland, Alabama",35131,Alabama,Region 4,Community water system,3303,RAGLAND,St. Clair,15,1,26,-86.149616,33.748065,-86.149616,33.748065,-86.351616,-85.947616,33.546065,33.950065
AL0000122,NECTAR WATER SYSTEM,"35049, Nectar, Alabama",35049,Alabama,Region 4,Community water system,2952,CLEVELAND,Blount,9,69,31,-86.585036,33.992782,-86.585036,33.992782,-86.695036,-86.475036,33.882782,34.102782
AL0000128,MCKENZIE WATER BOARD,"36456, Mc Kenzie, Alabama",36456,Alabama,Region 4,Community water system,1170,MCKENZIE,Butler,8,2,29,-86.716792,31.542106,-86.716792,31.542106,-87.004792,-86.428792,31.254106,31.830106
AL0000341,LYEFFION WATER AND FIRE PRO AUTHORITY,"36401, Evergreen, Alabama",36401,Alabama,Region 4,Community water system,1419,EVERGREEN,Conecuh,5,26,27,-86.953511,31.434511,-86.953511,31.434511,-87.250511,-86.656511,31.137511,31.731511
AL0001074,"RAMER WATER COMPANY, INC.","36069, Ramer, Alabama",36069,Alabama,Region 4,Community water system,1515,RAMER,Montgomery,9,69,31,-86.200449,32.101591,-86.200449,32.101591,-86.404449,-85.996449,31.897591,32.305591
AL0000570,RIVERVIEW WATER WORKS,"36427, Brewton, Alabama",36427,Alabama,Region 4,Community water system,618,EAST BREWTON,Escambia,9,82,38,-87.072062,31.10401,-87.072062,31.10401,-87.077062,-87.067062,31.09901,31.10901
AL0000058,WILDERNESS RV PARK,"36567, Robertsdale, Alabama",36567,Alabama,Region 4,Transient non-community system,25,ROBERTSDALE,Baldwin,6,23,33,-87.710892,30.554733,-87.710892,30.554733,-88.028892,-87.392892,30.236733,30.872733
AL0001199,MARGARET WATER WORKS,"35112, Margaret, Alabama",35112,Alabama,Region 4,Community water system,3723,MARGARET,St. Clair,7,2,20,-86.475276,33.685765,-86.475276,33.685765,-86.480276,-86.470276,33.680765,33.690765
AL0000098,ALLGOOD WATER WORKS (TOWN OF),"35013, Allgood, Alabama",35013,Alabama,Region 4,Community water system,728,ALLGOOD,Blount,8,2,39,-86.508692,33.914607,-86.508692,33.914607,-86.513692,-86.503692,33.909607,33.919607
AL0000229,THORSBY WATER WORKS BOARD,"35171, Thorsby, Alabama",35171,Alabama,Region 4,Community water system,3465,THORSBY,Chilton,17,2,33,-86.715766,32.916448,-86.715766,32.916448,-86.802766,-86.628766,32.829448,33.003448
AL0000436,LEVEL PLAINS WATER SYSTEM,"36322, Level Plains, Alabama",36322,Alabama,Region 4,Community water system,3630,DALEVILLE,Dale,12,1,34,-85.708228,31.314145,-85.708228,31.314145,-85.879228,-85.537228,31.143145,31.485145
AL0001022,SATSUMA WATER WORKS,"36572, Satsuma, Alabama",36572,Alabama,Region 4,Community water system,6078,SATSUMA,Mobile,9,3,30,-88.038951,30.867255,-88.038951,30.867255,-88.094951,-87.982951,30.811255,30.923255
AL0001202,NORTHWEST ST CLAIR WATER SYSTEM,"35987, Steele, Alabama",35987,Alabama,Region 4,Community water system,2706,ASHVILLE,St. Clair,5,2,24,-86.202878,33.938494,-86.202878,33.938494,-86.341878,-86.063878,33.799494,34.077494
AL0000087,WEST BARBOUR COUNTY WATER AUTHORITY,"36048, Louisville, Alabama",36048,Alabama,Region 4,Community water system,1407,CLAYTON,Barbour,9,3,28,-85.55771,31.780371,-85.55771,31.780371,-85.72271,-85.39271,31.615371,31.945371
AL0001136,"MEADWESTVACO COATED BOARD, LLC","36868, Phenix City, Alabama",36868,Alabama,Region 4,Non-Transient non-community system,700,PHENIX CITY,Russell,7,3,27,-85.004292,32.47156,-85.004292,32.47156,-85.009292,-84.999292,32.46656,32.47656
AL0001265,ALEXANDER CITY WATER DEPARTMENT,"O St, Alexander City, Alabama, 35010",35010,Alabama,Region 4,Community water system,27000,ALEXANDER CITY,Tallapoosa,14,5,38,-85.946651,32.958021,-85.946651,32.958021,-85.951651,-85.941651,32.953021,32.963021
AL0001672,REMLAP-PINE MTN WATER AUTHORITY,"35133, Remlap, Alabama",35133,Alabama,Region 4,Community water system,2406,REMLAP,Blount,7,3,16,-86.631677,33.77631,-86.631677,33.77631,-86.797677,-86.465677,33.61031,33.94231
AL0001351,SUMITON WATER WORKS BOARD,"35148, Sumiton, Alabama",35148,Alabama,Region 4,Community water system,6159,SUMITON,Walker,12,6,42,-87.047157,33.753901,-87.047157,33.753901,-87.081157,-87.013157,33.719901,33.787901
AL0000404,GARDEN CITY WATER DEPARTMENT,"1st Ave S, Garden City, Alabama, 35070",35070,Alabama,Region 4,Community water system,852,GARDEN CITY,Cullman,7,5,27,-86.749044,34.012271,-86.749044,34.012271,-86.751044,-86.747044,34.010271,34.014271
AL0000237,GILBERTOWN (UTILITIES BOARD OF TOWN OF),"36908, Gilbertown, Alabama",36908,Alabama,Region 4,Community water system,6300,GILBERTOWN,Choctaw,20,3,68,-88.316845,31.87521,-88.316845,31.87521,-88.473845,-88.159845,31.71821,32.03221
AL0000957,BAYOU LA BATRE UTILITIES,"36509, Bayou La Batre, Alabama",36509,Alabama,Region 4,Community water system,8118,BAYOU LA BATRE,Mobile,11,6,27,-88.246968,30.402286,-88.246968,30.402286,-88.329968,-88.163968,30.319286,30.485286
AL0000314,COLBERT COUNTY RURAL WATER SYSTEM,"35674, Tuscumbia, Alabama",35674,Alabama,Region 4,Community water system,10731,TUSCUMBIA,Colbert,23,7,31,-87.697127,34.730115,-87.697127,34.730115,-87.959127,-87.435127,34.468115,34.992115
AL0000846,FORT DEPOSIT WATER & SEWER BOARD,"36032, Fort Deposit, Alabama",36032,Alabama,Region 4,Community water system,2280,FORT DEPOSIT,Lowndes,7,1,33,-86.575521,31.986047,-86.575521,31.986047,-86.781521,-86.369521,31.780047,32.192047
AL0000862,NOTASULGA WATER SYSTEM,"36866, Notasulga, Alabama",36866,Alabama,Region 4,Community water system,2565,NOTASULGA,Macon,7,4,23,-85.674013,32.542634,-85.674013,32.542634,-85.827013,-85.521013,32.389634,32.695634
AL0001211,SPRINGVILLE WATER WORKS,"35146, Springville, Alabama",35146,Alabama,Region 4,Community water system,5946,SPRINGVILLE,St. Clair,14,3,28,-86.473775,33.777166,-86.473775,33.777166,-86.647775,-86.299775,33.603166,33.951166
AL0000104,PINE BLUFF WATER  AUTHORITY,"35097, Locust Fork, Alabama",35097,Alabama,Region 4,Community water system,6099,LOCUST FORK,Blount,12,4,28,-86.619191,33.905245,-86.619191,33.905245,-86.657191,-86.581191,33.867245,33.943245
AL0000753,LEEDS WATER BOARD,"35094, Leeds, Alabama",35094,Alabama,Region 4,Community water system,17355,LEEDS,Jefferson,24,3,43,-86.556001,33.546927,-86.556001,33.546927,-86.659001,-86.453001,33.443927,33.649927
AL0001171,WILSONVILLE WATER WORKS,"35186, Wilsonville, Alabama",35186,Alabama,Region 4,Community water system,2460,WILSONVILLE,Shelby,11,0,27,-86.482276,33.236176,-86.482276,33.236176,-86.586276,-86.378276,33.132176,33.340176
AL0001228,CHILDERSBURG WATER & SEWER  BOARD,"35044, Coosa Pines, Alabama",35044,Alabama,Region 4,Community water system,9693,CHILDERSBURG,Talladega,21,1,30,-86.352442,33.27406,-86.352442,33.27406,-86.475442,-86.229442,33.15106,33.39706
AL0001507,BUTLER COUNTY WATER AUTHORITY,"36037, Greenville, Alabama",36037,Alabama,Region 4,Community water system,13395,GREENVILLE,Butler,33,6,37,-86.621261,31.824736,-86.621261,31.824736,-86.910261,-86.332261,31.535736,32.113736
AL0000685,GORDON WATER WORKS,"36343, Gordon, Alabama",36343,Alabama,Region 4,Community water system,480,GORDON,Houston,5,2,28,-85.075898,31.02283,-85.075898,31.02283,-85.302898,-84.848898,30.79583,31.24983
AL0000283,RANBURNE WATER & SEWER DEPARTMENT,"36273, Ranburne, Alabama",36273,Alabama,Region 4,Community water system,1791,RANBURNE,Cleburne,7,13,25,-85.345186,33.525489,-85.345186,33.525489,-85.456186,-85.234186,33.414489,33.636489
AL0000001,AUTAUGA CO WATER AUTHORITY,"36068, Prattville, Alabama",36068,Alabama,Region 4,Community water system,7218,PRATTVILLE,Autauga,24,2,38,-86.425605,32.462236,-86.425605,32.462236,-86.430605,-86.420605,32.457236,32.467236
AL0000924,GUIN WATER & SEWER BOARD,"35563, Guin, Alabama",35563,Alabama,Region 4,Community water system,4260,GUIN,Marion,9,45,49,-87.911751,33.967026,-87.911751,33.967026,-88.036751,-87.786751,33.842026,34.092026
AL0000102,HAYDEN WATER WORKS,"35079, Hayden, Alabama",35079,Alabama,Region 4,Community water system,2418,HAYDEN,Blount,6,12,36,-86.754936,33.888242,-86.754936,33.888242,-86.962936,-86.546936,33.680242,34.096242
AL0000133,ANNISTON WATER & SEWER BOARD,"36202, Anniston, Alabama",36202,Alabama,Region 4,Community water system,60000,ANNISTON,Calhoun,30,0,37,-85.825822,33.65877,-85.825822,33.65877,-85.830822,-85.820822,33.65377,33.66377
AL0000296,ENTERPRISE WATER WORKS,"36330, Enterprise, Alabama",36330,Alabama,Region 4,Community water system,38500,ENTERPRISE,Coffee,55,64,39,-85.820262,31.328201,-85.820262,31.328201,-86.006262,-85.634262,31.142201,31.514201
AL0001490,"PERDIDO BAY WATER, SEWER & FPA","36530, Elberta, Alabama",36530,Alabama,Region 4,Community water system,8145,ELBERTA,Baldwin,11,2,42,-87.598397,30.412624,-87.598397,30.412624,-87.733397,-87.463397,30.277624,30.547624
AL0001362,LEROY WATER AUTHORITY,"36548, Leroy, Alabama",36548,Alabama,Region 4,Community water system,1632,LEROY,Washington,7,0,29,-87.958342,31.507016,-87.958342,31.507016,-88.061342,-87.855342,31.404016,31.610016
AL0000831,SWAN CREEK COMMUNITY,"35671, Tanner, Alabama",35671,Alabama,Region 4,Community water system,840,TANNER,Limestone,17,8,32,-86.962605,34.72845,-86.962605,34.72845,-87.111605,-86.813605,34.57945,34.87745
AL0000926,HAMILTON WATER WORKS & SEWER BOARD,"736 Military St S, Hamilton, Alabama, 35570",35570,Alabama,Region 4,Community water system,9909,HAMILTON,Marion,32,2,38,-87.990314,34.133914,-87.991141,34.13382,-87.991314,-87.989314,34.132914,34.134914
AL0000983,GRAND BAY WATER WORKS BOARD,"36541, Grand Bay, Alabama",36541,Alabama,Region 4,Community water system,9735,GRAND BAY,Mobile,14,1,29,-88.347102,30.474591,-88.347102,30.474591,-88.488102,-88.206102,30.333591,30.615591
AL0001767,AKRON WATER SYSTEM,"35441, Stewart, Alabama",35441,Alabama,Region 4,Community water system,570,AKRON,Hale,3,18,13,-87.740441,32.878311,-87.740441,32.878311,-87.882441,-87.598441,32.736311,33.020311
AL0000566,MCCALL WATER SYSTEM INC,"36426, Brewton, Alabama",36426,Alabama,Region 4,Community water system,7311,BREWTON,Escambia,17,5,96,-87.068407,31.121048,-87.068407,31.121048,-87.375407,-86.761407,30.814048,31.428048
AL0000110,"TYSON, INC. (BLOUNT CO.)","67240 Main St, Blountsville, Alabama, 35031",35031,Alabama,Region 4,Non-Transient non-community system,670,BLOUNTSVILLE,Blount,7,5,75,-86.584498,34.057556,-86.584498,34.057556,-86.594498,-86.574498,34.047556,34.067556
AL0000878,HARVEST-MONROVIA WATER SYSTEM,"38477, Prospect, Tennessee",38477,Alabama,Region 4,Community water system,32109,HARVEST,Madison,25,1,116,-87.000484,35.027675,-87.000484,35.027675,-87.152484,-86.848484,34.875675,35.179675
AL0001360,FRUITDALE WATER SYSTEM,"36539, Fruitdale, Alabama",36539,Alabama,Region 4,Community water system,3057,CHATOM,Washington,7,6,26,-88.409996,31.34288,-88.409996,31.34288,-88.512996,-88.306996,31.23988,31.44588
AL0001366,ST STEPHENS WATER SYSTEM,"36569, Saint Stephens, Alabama",36569,Alabama,Region 4,Community water system,735,,Washington,9,1,85,-88.042484,31.52012,-88.042484,31.52012,-88.174484,-87.910484,31.38812,31.65212
AL0001078,SNOWDOUN WATER SYSTEM INC,"36105, Montgomery, Alabama",36105,Alabama,Region 4,Community water system,2506,"MONTGOMERY, SNOWDOUN",Montgomery,10,1,26,-86.270982,32.161419,-86.270982,32.161419,-86.461982,-86.079982,31.970419,32.352419
AL0001151,COLUMBIANA WATER WORKS,"35085, Jemison, Alabama",35085,Alabama,Region 4,Community water system,10881,COLUMBIANA,Shelby,21,26,27,-86.747694,32.959022,-86.747694,32.959022,-86.902694,-86.592694,32.804022,33.114022
AL0001391,PINE APPLE WATER WORKS,"36768, Snow Hill, Alabama",36768,Alabama,Region 4,Community water system,369,"GEORGIANA, PINE APPLE",Wilcox,6,10,55,-86.990791,31.869221,-86.990791,31.869221,-87.217791,-86.763791,31.642221,32.096221
AL0001367,WAGARVILLE WATER SYSTEM,"36585, Wagarville, Alabama",36585,Alabama,Region 4,Community water system,480,WAGARVILLE,Washington,5,1,38,-88.032591,31.438402,-88.032591,31.438402,-88.174591,-87.890591,31.296402,31.580402
AL0000116,MIDWAY WATER WORKS,"32868 Highway 82, Midway, Alabama, 36053",36053,Alabama,Region 4,Community water system,1050,"CLAYTON, MIDWAY",Bullock,7,5,39,-85.521417,32.078573,-85.521417,32.078573,-85.531417,-85.511417,32.068573,32.088573
AL0000245,HOLLINS WATER AUTHORITY,"35082, Sylacauga, Alabama",35082,Alabama,Region 4,Community water system,1302,HOLLINS,Clay,4,4,20,-86.148156,33.115467,-86.148156,33.115467,-86.150156,-86.146156,33.113467,33.117467
AL0000022,BALDWIN BAPTIST CAMP,"36530, Elberta, Alabama",36530,Alabama,Region 4,Transient non-community system,200,ELBERTA,Baldwin,7,4,25,-87.598397,30.412624,-87.598397,30.412624,-87.733397,-87.463397,30.277624,30.547624
AL0000254,FULTON (UTILITIES BOARD OF THE TOWN OF),"36446, Fulton, Alabama",36446,Alabama,Region 4,Community water system,510,FULTON,Clarke,6,5,23,-87.726915,31.788531,-87.726915,31.788531,-87.952915,-87.500915,31.562531,32.014531
AL0000596,"BERRY WATER DEPARTMENT, TOWN OF","35546, Berry, Alabama",35546,Alabama,Region 4,Community water system,4320,BERRY,Fayette,11,20,58,-87.604516,33.659297,-87.604516,33.659297,-87.817516,-87.391516,33.446297,33.872297
AL0000606,PHIL CAMPBELL WATER WORKS,"35581, Phil Campbell, Alabama",35581,Alabama,Region 4,Community water system,7245,PHIL CAMPBELL,Franklin,10,0,24,-87.709351,34.350087,-87.709351,34.350087,-87.900351,-87.518351,34.159087,34.541087
AL0000615,BLACK WATER WORKS,"36314, Black, Alabama",36314,Alabama,Region 4,Community water system,390,BLACK,Geneva,5,77,30,-85.743589,31.012696,-85.743589,31.012696,-85.843589,-85.643589,30.912696,31.112696
AL0000967,SOUTH ALABAMA UTILITIES WATER SYSTEM,"36522, Citronelle, Alabama",36522,Alabama,Region 4,Community water system,39249,CITRONELLE,Mobile,73,2,32,-88.238261,31.097095,-88.238261,31.097095,-88.431261,-88.045261,30.904095,31.290095
AL0001506,MYRTLEWOOD WATER SYSTEM,"36763, Myrtlewood, Alabama",36763,Alabama,Region 4,Community water system,3000,MYRTLEWOOD,Marengo,19,2,46,-87.949127,32.250189,-87.949127,32.250189,-87.954127,-87.944127,32.245189,32.255189
AL0001428,FORKLAND WATER SYSTEM,"36740, Forkland, Alabama",36740,Alabama,Region 4,Community water system,1137,FORKLAND,Greene,4,39,31,-87.877801,32.656146,-87.877801,32.656146,-88.080801,-87.674801,32.453146,32.859146
AL0000363,FLORALA WATER WORKS & SEWER BOARD,"36442, Florala, Alabama",36442,Alabama,Region 4,Community water system,3204,FLORALA,Covington,7,48,29,-86.331733,31.009237,-86.331733,31.009237,-86.539733,-86.123733,30.801237,31.217237
AL0000726,PISGAH WATER WORKS,"35765, Pisgah, Alabama",35765,Alabama,Region 4,Community water system,1350,PISGAH,Jackson,5,3,26,-85.845516,34.684045,-85.845516,34.684045,-85.994516,-85.696516,34.535045,34.833045
AL0000804,AUBURN WATER WORKS,"1501 W Samford Ave, Auburn, Alabama, 36832",36832,Alabama,Region 4,Community water system,60003,AUBURN,Lee,21,54,87,-85.510301,32.600683,-85.510281,32.59968,-85.511301,-85.509301,32.599683,32.601683
AL0000671,ASHFORD WATER WORKS,"36312, Ashford, Alabama",36312,Alabama,Region 4,Community water system,2934,ASHFORD,Houston,12,72,36,-85.235211,31.184511,-85.235211,31.184511,-85.360211,-85.110211,31.059511,31.309511
AL0001753,TIBBIE WATER & FIRE PROTECTION AUTHORITY,"36583, Tibbie, Alabama",36583,Alabama,Region 4,Community water system,1326,TIBBIE,Washington,7,4,13,-88.223117,31.353929,-88.223117,31.353929,-88.383117,-88.063117,31.193929,31.513929
AL0001149,BETHEL WATER SYSTEM,"35186, Wilsonville, Alabama",35186,Alabama,Region 4,Community water system,3951,WILSONVILLE,Shelby,3,2,27,-86.482276,33.236176,-86.482276,33.236176,-86.586276,-86.378276,33.132176,33.340176
AL0001248,"COOSA PINES RECREATION ASSOC., INC.","35160, Talladega, Alabama",35160,Alabama,Region 4,Transient non-community system,25,TALLADEGA,Talladega,5,4,22,-86.100082,33.439831,-86.100082,33.439831,-86.508082,-85.692082,33.031831,33.847831
AL0001283,NEW SITE WATER SYSTEM,"12791 Highway 22 E, New Site, Alabama, 36256",36256,Alabama,Region 4,Community water system,1644,NEWSITE,Tallapoosa,8,1,24,-85.778775,33.035233,-85.778775,33.035233,-85.788775,-85.768775,33.025233,33.045233
AL0001127,ROANOKE (THE UTIL. BD. OF THE CITY OF),"36274, Roanoke, Alabama",36274,Alabama,Region 4,Community water system,7575,ROANOKE,Randolph,9,2,47,-85.368199,33.153617,-85.368199,33.153617,-85.525199,-85.211199,32.996617,33.310617
AL0001088,NE MORGAN CO WATER AND SEWER AUTHORITY,"35670, Somerville, Alabama",35670,Alabama,Region 4,Community water system,22038,SOMERVILLE,Morgan,14,6,33,-86.797871,34.469198,-86.797871,34.469198,-87.017871,-86.577871,34.249198,34.689198
AL0001358,CHATOM UTILITIES BOARD,"36518, Chatom, Alabama",36518,Alabama,Region 4,Community water system,2064,CHATOM,Washington,14,64,25,-88.150378,31.474849,-88.150378,31.474849,-88.453378,-87.847378,31.171849,31.777849
AL0001110,BRUNDIDGE WATER DEPARTMENT,"36010, Brundidge, Alabama",36010,Alabama,Region 4,Community water system,3795,BRUNDIDGE,Pike,13,6,28,-85.815422,31.720671,-85.815422,31.720671,-85.991422,-85.639422,31.544671,31.896671
AL0001073,PINTLALA WATER & FIRE PRO AUTHORITY,"36043, Hope Hull, Alabama",36043,Alabama,Region 4,Community water system,5253,HOPE HULL,Montgomery,12,6,39,-86.5035,32.208737,-86.5035,32.208737,-86.6905,-86.3165,32.021737,32.395737
AL0001434,COOK SPRINGS WATER AUTHORITY,"35128, Pell City, Alabama",35128,Alabama,Region 4,Community water system,4171,,St. Clair,9,2,23,-86.274431,33.56645,-86.274431,33.56645,-86.490431,-86.058431,33.35045,33.78245
AL0001100,UNIONTOWN UTILITIES BOARD,"36786, Uniontown, Alabama",36786,Alabama,Region 4,Community water system,3894,UNIONTOWN,Perry,9,40,32,-87.515072,32.451471,-87.515072,32.451471,-87.659072,-87.371072,32.307471,32.595471
AL0000219,JEMISON WATER WORKS,"35085, Jemison, Alabama",35085,Alabama,Region 4,Community water system,4065,JEMISON,Chilton,11,30,30,-86.747694,32.959022,-86.747694,32.959022,-86.902694,-86.592694,32.804022,33.114022
AL0000221,MAPLESVILLE WATER WORKS,"36750, Maplesville, Alabama",36750,Alabama,Region 4,Community water system,1062,MAPLESVILLE,Chilton,4,3,23,-86.766858,32.78172,-86.766858,32.78172,-86.945858,-86.587858,32.60272,32.96072
AL0000004,ALABAMA DOT/I-10 AL/FL WELCOME CENTER,"36507, Bay Minette, Alabama",36507,Alabama,Region 4,Transient non-community system,500,BAY MINETTE,Baldwin,6,3,24,-87.776211,30.882697,-87.776211,30.882697,-88.032211,-87.520211,30.626697,31.138697
AL0000533,ECLECTIC WATER WORKS & SEWER BOARD,"36024, Eclectic, Alabama",36024,Alabama,Region 4,Community water system,4404,ECLECTIC,Elmore,13,7,27,-85.940673,32.698889,-85.940673,32.698889,-86.115673,-85.765673,32.523889,32.873889
AL0000258,MCVAY WATER SYSTEM,"36545, Walker Spgs, Alabama",36545,Alabama,Region 4,Community water system,1482,JACKSON,Clarke,4,0,24,-87.892974,31.515786,-87.892974,31.515786,-88.222974,-87.562974,31.185786,31.845786
AL0000443,PINCKARD WATER DEPARTMENT,"36371, Pinckard, Alabama",36371,Alabama,Region 4,Community water system,1410,PINCKARD,Dale,8,2,33,-85.548022,31.311962,-85.548022,31.311962,-85.553022,-85.543022,31.306962,31.316962
AL0000180,BEULAH UTILITIES DISTRICT,"36801, Opelika, Alabama",36801,Alabama,Region 4,Community water system,10464,,Lee,7,0,24,-85.429655,32.634926,-85.429655,32.634926,-85.565655,-85.293655,32.498926,32.770926
AL0000502,JCG FOODS OF ALABAMA LLC,"35961, Collinsville, Alabama",35961,Alabama,Region 4,Non-Transient non-community system,860,COLLINSVILLE,DeKalb,7,28,30,-85.859032,34.267631,-85.859032,34.267631,-86.019032,-85.699032,34.107631,34.427631
AL0000188,CENTRE WATER & SEWER BOARD,"130 S River St, Centre, Alabama, 35960",35960,Alabama,Region 4,Community water system,6012,CENTRE,Cherokee,6,1,108,-85.679293,34.151796,-85.679293,34.151796,-85.689293,-85.669293,34.141796,34.161796
AL0000416,ARITON WATER WORKS,"36311, Ariton, Alabama",36311,Alabama,Region 4,Community water system,1350,ARITON,Dale,15,5,39,-85.714248,31.600465,-85.714248,31.600465,-85.900248,-85.528248,31.414465,31.786465
AL0000025,BELFOREST WATER SYSTEM,"36526, Daphne, Alabama",36526,Alabama,Region 4,Community water system,3843,DAPHNE,Baldwin,9,47,33,-87.908823,30.643116,-87.908823,30.643116,-88.026823,-87.790823,30.525116,30.761116
AL0000394,CULLMAN COUNTY WATER DEPARTMENT,"35055, Dodge City, Alabama",35055,Alabama,Region 4,Community water system,47658,,Cullman,27,7,30,-86.843952,34.175911,-86.843952,34.175911,-87.071952,-86.615952,33.947911,34.403911
AL0001702,HILLTOP RV PARK,"30512, Blairsville, Georgia",30512,Alabama,Region 4,Transient non-community system,80,ROBERTSDALE,Baldwin,5,5,20,-83.957772,34.873441,-83.957772,34.873441,-84.171772,-83.743772,34.659441,35.087441
AL0001541,HACKNEYVILLE WATER & FIRE PRO AUTHORITY,"35011, Alex City, Alabama",35011,Alabama,Region 4,Community water system,1155,ALEXANDER CITY,Tallapoosa,5,1,23,-85.952952,32.938851,-85.952952,32.938851,-85.957952,-85.947952,32.933851,32.943851
AL0001245,LINCOLN (CITY OF),"35096, Lincoln, Alabama",35096,Alabama,Region 4,Community water system,10020,LINCOLN,Talladega,16,63,41,-86.162139,33.60277,-86.162139,33.60277,-86.308139,-86.016139,33.45677,33.74877
AL0000763,WARRIOR RIVER WATER AUTHORITY,"Lock 17 Rd, Bessemer, Alabama, 35023",35023,Alabama,Region 4,Community water system,34500,BESSEMER,Jefferson,33,2,83,-87.113522,33.453602,-87.113522,33.453602,-87.141522,-87.085522,33.425602,33.481602
AL0001091,TRINITY WATER WORKS SYSTEM,"35673, Trinity, Alabama",35673,Alabama,Region 4,Community water system,2475,TRINITY,Morgan,5,2,24,-87.164009,34.548406,-87.164009,34.548406,-87.277009,-87.051009,34.435406,34.661406
AL0000595,BELK WATER SYSTEM,"35545, Belk, Alabama",35545,Alabama,Region 4,Community water system,861,BELK,Fayette,7,2,29,-87.932354,33.645421,-87.932354,33.645421,-87.937354,-87.927354,33.640421,33.650421
AL0000013,"MARBURY WATER SYSTEM, INC.","36051, Marbury, Alabama",36051,Alabama,Region 4,Community water system,7320,MARBURY,Autauga,26,2,41,-86.487266,32.71283,-86.487266,32.71283,-86.614266,-86.360266,32.58583,32.83983
AL0001124,TROY UTILITIES (CITY OF),"36081, Troy, Alabama",36081,Alabama,Region 4,Community water system,19665,TROY,Pike,22,3,39,-85.966108,31.806115,-85.966108,31.806115,-86.222108,-85.710108,31.550115,32.062115
AL0001106,PICKENS COUNTY WATER & F. P. AUTHORITY,"35447, Pickensville, Alabama",35447,Alabama,Region 4,Community water system,13209,,Pickens,31,4,39,-88.094171,33.258731,-88.094171,33.258731,-88.328171,-87.860171,33.024731,33.492731
AL0000375,OPP UTILITIES BOARD,"36467, Onycha, Alabama",36467,Alabama,Region 4,Community water system,9975,OPP,Covington,18,6,30,-86.258321,31.280767,-86.258321,31.280767,-86.432321,-86.084321,31.106767,31.454767
AL0000040,"HUBBARD LANDING, INC","36579, Stockton, Alabama",36579,Alabama,Region 4,Transient non-community system,15,STOCKTON,Baldwin,7,4,25,-87.866331,31.06003,-87.866331,31.06003,-88.118331,-87.614331,30.80803,31.31203
AL0001105,GORDO WTR GAS & SEWER BOARD,"35466, Gordo, Alabama",35466,Alabama,Region 4,Community water system,3630,GORDO,Pickens,9,4,30,-87.906191,33.320024,-87.906191,33.320024,-88.165191,-87.647191,33.061024,33.579024
AL0001378,SYCAMORE WATER AND SEWER AUTHORITY,"35149, Sycamore, Alabama",35149,Alabama,Region 4,Community water system,1800,SYCAMORE,Talladega,6,10,27,-86.204745,33.254323,-86.204745,33.254323,-86.233745,-86.175745,33.225323,33.283323
AL0001799,"LAKE MITCHELL WATER, INCORPORATED","35242, Birmingham, Alabama",35242,Alabama,Region 4,Community water system,300,ROCKFORD,Coosa,2,2,2,-86.699307,33.427334,-86.699307,33.427334,-86.820307,-86.578307,33.306334,33.548334
AL0000578,GLENCOE WATER WORKS BOARD,"35905, Gadsden, Alabama",35905,Alabama,Region 4,Community water system,6450,GLENCOE,Etowah,14,25,34,-85.934326,33.959521,-85.934326,33.959521,-86.127326,-85.741326,33.766521,34.152521
AL0000101,CLEVELAND WATER WORKS,"35049, Nectar, Alabama",35049,Alabama,Region 4,Community water system,3384,CLEVELAND,Blount,13,22,35,-86.585036,33.992782,-86.585036,33.992782,-86.695036,-86.475036,33.882782,34.102782
AL0000919,THOMASTON WATER WORKS & GAS BOARD,"154 Main St, Thomaston, Alabama, 36783",36783,Alabama,Region 4,Community water system,1068,THOMASTON,Marengo,10,8,38,-87.624096,32.266152,-87.624096,32.266152,-87.634096,-87.614096,32.256152,32.276152
AL0001108,BANKS WATER SYSTEM,"36005, Banks, Alabama",36005,Alabama,Region 4,Community water system,2550,BANKS,Pike,7,6,25,-85.720497,31.866254,-85.720497,31.866254,-85.900497,-85.540497,31.686254,32.046254
AL0000337,CASTLEBERRY WATER SYSTEM,"36432, Castleberry, Alabama",36432,Alabama,Region 4,Community water system,1086,CASTLEBERRY,Conecuh,4,71,35,-87.024134,31.293205,-87.024134,31.293205,-87.242134,-86.806134,31.075205,31.511205
AL0000123,GEORGIANA WATER WORKS & SEWER BOARD,"36033, Georgiana, Alabama",36033,Alabama,Region 4,Community water system,2793,GEORGIANA,Butler,9,3,37,-86.733958,31.640235,-86.733958,31.640235,-87.002958,-86.464958,31.371235,31.909235
AL0000140,CAMP LEE,"70 Camp Lee Main Rd, Anniston, Alabama, 36207",36207,Alabama,Region 4,Transient non-community system,25,ANNISTON,Calhoun,5,35,23,-85.75271,33.649723,-85.75271,33.649723,-85.76271,-85.74271,33.639723,33.659723
AL0000092,CENTREVILLE WATER & SEWER,"35042, Centreville, Alabama",35042,Alabama,Region 4,Community water system,5646,CENTREVILLE,Bibb,20,22,34,-87.141391,32.94485,-87.141391,32.94485,-87.365391,-86.917391,32.72085,33.16885
AL0001510,TURNERVILLE WATER & FIRE PRO DISTRICT,"36571, Saraland, Alabama",36571,Alabama,Region 4,Community water system,4053,SARALAND,Mobile,14,0,25,-88.071247,30.817786,-88.071247,30.817786,-88.192247,-87.950247,30.696786,30.938786
AL0001357,FRANKVILLE WATER & FIRE PRO AUTHORITY,"36538, Frankville, Alabama",36538,Alabama,Region 4,Community water system,939,FRANKVILLE,Washington,5,8,21,-88.14062,31.644083,-88.14062,31.644083,-88.22262,-88.05862,31.562083,31.726083
AL0000729,SCOTTSBORO WATER WORKS,"35768, Hytop, Alabama",35768,Alabama,Region 4,Community water system,21900,SCOTTSBORO,Jackson,18,2,93,-86.033461,34.667517,-86.033461,34.667517,-86.355461,-85.711461,34.345517,34.989517
AL0000772,SULLIGENT (CITY OF),"35586, Sulligent, Alabama",35586,Alabama,Region 4,Community water system,2631,SULLIGENT,Lamar,13,3,30,-88.133536,33.895196,-88.133536,33.895196,-88.389536,-87.877536,33.639196,34.151196
AL0001368,DEER PARK-VINEGAR BEND WATER & FPA,"36529, Deer Park, Alabama",36529,Alabama,Region 4,Community water system,1377,DEER PARK,Washington,7,1,27,-88.28454,31.264907,-88.28454,31.264907,-88.43454,-88.13454,31.114907,31.414907
AL0001423,GREENHILL WATER & FIRE PRO AUTHORITY,"35634, Florence, Alabama",35634,Alabama,Region 4,Community water system,7710,FLORENCE,Lauderdale,11,2,57,-87.565214,34.83861,-87.565214,34.83861,-87.730214,-87.400214,34.67361,35.00361
AL0001402,ADDISON WATER WORKS,"35540, Arley, Alabama",35540,Alabama,Region 4,Community water system,2544,ADDISON,Winston,12,45,26,-87.18096,34.203713,-87.18096,34.203713,-87.36296,-86.99896,34.021713,34.385713
AL0001403,ARLEY WATER WORKS,"35541, Arley, Alabama",35541,Alabama,Region 4,Community water system,7872,ARLEY - 3600,Winston,10,3,35,-87.21307,34.077281,-87.21307,34.077281,-87.33307,-87.09307,33.957281,34.197281
AL0000266,CLAY COUNTY WATER AUTHORITY,"36251, Ashland, Alabama",36251,Alabama,Region 4,Community water system,1650,LINEVILLE,Clay,7,4,42,-85.839419,33.273132,-85.839419,33.273132,-86.008419,-85.670419,33.104132,33.442132
AL0000327,SHEFFIELD UTILITIES DEPARTMENT,"35660, Sheffield, Alabama",35660,Alabama,Region 4,Community water system,14574,SHEFFIELD,Colbert,13,0,35,-87.695872,34.76471,-87.695872,34.76471,-87.740872,-87.650872,34.71971,34.80971
AL0000664,HEADLAND WATER WORKS,"36345, Headland, Alabama",36345,Alabama,Region 4,Community water system,5700,HEADLAND,Henry,12,1,33,-85.341712,31.35254,-85.341712,31.35254,-85.496712,-85.186712,31.19754,31.50754
AL0001047,FRISCO CITY WATER SYSTEM,"36445, Frisco City, Alabama",36445,Alabama,Region 4,Community water system,2100,FRISCO CITY,Monroe,8,134,23,-87.405199,31.433896,-87.405199,31.433896,-87.621199,-87.189199,31.217896,31.649896
AL0001364,MILLRY WATER WORKS,"36558, Millry, Alabama",36558,Alabama,Region 4,Community water system,2214,MILLRY,Washington,12,36,27,-88.389916,31.589494,-88.389916,31.589494,-88.662916,-88.116916,31.316494,31.862494
AL0000108,SNEAD WATER WORKS,"87169 US Highway 278, Snead, Alabama, 35952",35952,Alabama,Region 4,Community water system,5262,,Blount,12,6,24,-86.394309,34.119137,-86.394309,34.119137,-86.404309,-86.384309,34.109137,34.129137
AL0000161,OHATCHEE WATER SYSTEM,"36271, Ohatchee, Alabama",36271,Alabama,Region 4,Community water system,1425,OHATCHEE,Calhoun,5,3,23,-86.041805,33.823129,-86.041805,33.823129,-86.191805,-85.891805,33.673129,33.973129
AL0001426,SOUTHWEST ALABAMA WATER AUTHORITY,"36471, Peterman, Alabama",36471,Alabama,Region 4,Community water system,4995,PETERMAN,Monroe,15,5,82,-87.261502,31.581698,-87.261502,31.581698,-87.405502,-87.117502,31.437698,31.725698
AL0000943,GUNTERSVILLE WATER WORKS & SEWER BOARD,"705 Blount Ave, Guntersville, Alabama, 35976",35976,Alabama,Region 4,Community water system,12750,GUNTERSVILLE,Marshall,26,2,45,-86.295266,34.354923,-86.294881,34.35476,-86.296266,-86.294266,34.353923,34.355923
AL0000523,VALLEY HEAD WATER WORKS BOARD,"35989, Valley Head, Alabama",35989,Alabama,Region 4,Community water system,2937,VALLEY HEAD,DeKalb,10,2,30,-85.614596,34.564857,-85.614596,34.564857,-85.776596,-85.452596,34.402857,34.726857
AL0000583,TILLISON BEND WATER AUTHORITY,"35903, Hokes Bluff, Alabama",35903,Alabama,Region 4,Community water system,1035,GADSDEN,Etowah,2,10,26,-85.967159,33.999365,-85.967159,33.999365,-86.165159,-85.769159,33.801365,34.197365
AL0001222,SUMTER COUNTY WATER AUTHORITY,"35470, Coatopa, Alabama",35470,Alabama,Region 4,Community water system,10200,LIVINGSTON,Sumter,20,5,41,-88.03496,32.504748,-88.03496,32.504748,-88.39096,-87.67896,32.148748,32.860748
AL0000125,GREENVILLE WATER WORKS,"36037, Greenville, Alabama",36037,Alabama,Region 4,Community water system,9290,GREENVILLE,Butler,18,1,41,-86.621261,31.824736,-86.621261,31.824736,-86.910261,-86.332261,31.535736,32.113736
AL0000028,"PARK CITY WATER AUTHORITY, INC","36526, Daphne, Alabama",36526,Alabama,Region 4,Community water system,810,DAPHNE,Baldwin,2,4,24,-87.908823,30.643116,-87.908823,30.643116,-88.026823,-87.790823,30.525116,30.761116
AL0000174,EAST ALABAMA WATER & FIRE PRO DISTRICT,"36854, Valley, Alabama",36854,Alabama,Region 4,Community water system,18000,,Chambers,14,1,24,-85.174239,32.820355,-85.174239,32.820355,-85.330239,-85.018239,32.664355,32.976355
AL0000203,BIG OAK CAMPGROUND,"35959, Cedar Bluff, Alabama",35959,Alabama,Region 4,Transient non-community system,30,CEDAR BLUFF,Cherokee,4,17,20,-85.606036,34.220102,-85.606036,34.220102,-85.779036,-85.433036,34.047102,34.393102
AL0000149,HOBSON CITY WATER SYSTEM,"715 Martin Luther King Dr, Hobson City, Alabama, 36201",36201,Alabama,Region 4,Community water system,741,HOBSON CITY,Calhoun,5,9,28,-85.844739,33.620476,-85.844739,33.620476,-85.854739,-85.834739,33.610476,33.630476
AL0000234,CHILTON WATER AUTHORITY,"35171, Thorsby, Alabama",35171,Alabama,Region 4,Community water system,25035,THORSBY,Chilton,41,21,35,-86.715766,32.916448,-86.715766,32.916448,-86.802766,-86.628766,32.829448,33.003448
AL0001345,PROVIDENCE WATER AUTHORITY,"35579, Oakman, Alabama",35579,Alabama,Region 4,Community water system,1362,OAKMAN,Walker,2,10,26,-87.38615,33.718262,-87.38615,33.718262,-87.63615,-87.13615,33.468262,33.968262
AL0001293,"CITIZENS WATER SERVICE, INC.","35490, Vance, Alabama",35490,Alabama,Region 4,Community water system,7677,BROOKWOOD,Tuscaloosa,14,6,34,-87.278206,33.172405,-87.278206,33.172405,-87.429206,-87.127206,33.021405,33.323405
AL0001131,"WEDOWEE WATER, SEWER, & GAS BOARD","36278, Wedowee, Alabama",36278,Alabama,Region 4,Community water system,4500,WEDOWEE,Randolph,7,7,37,-85.483679,33.308176,-85.483679,33.308176,-85.653679,-85.313679,33.138176,33.478176
AL0001037,U.S. AMINES LLC- CELANESE CHEMICALS,"36505, Axis, Alabama",36505,Alabama,Region 4,Non-Transient non-community system,50,BUCKS,Mobile,8,3,24,-88.028237,30.927348,-88.028237,30.927348,-88.135237,-87.921237,30.820348,31.034348
AL0000181,CAA/C-T-C PLAINVIEW HEAD START PROGRAM,"172 S Broadnax St, Dadeville, Alabama, 36853",36853,Alabama,Region 4,Non-Transient non-community system,245,DADEVILLE,Chambers,5,17,36,-85.763648,32.82968,-85.763648,32.82968,-85.773648,-85.753648,32.81968,32.83968
AL0001324,CARBON HILL UTILITIES BOARD,"35549, Carbon Hill, Alabama",35549,Alabama,Region 4,Community water system,3402,CARBON HILL,Walker,9,5,36,-87.525352,33.893896,-87.525352,33.893896,-87.710352,-87.340352,33.708896,34.078896
AL0000264,ASHLAND WATER WORKS & SEWER,"160 Rosewood Ln, Ashland, Alabama, 36251",36251,Alabama,Region 4,Community water system,2925,ASHLAND,Clay,6,9,23,-85.838141,33.261808,-85.838121,33.26248,-85.839141,-85.837141,33.260808,33.262808
AL0000555,BREWTON WATER WORKS,"36427, Brewton, Alabama",36427,Alabama,Region 4,Community water system,9756,BREWTON,Escambia,15,5,80,-87.072062,31.10401,-87.072062,31.10401,-87.077062,-87.067062,31.09901,31.10901
AL0000257,OLD LINE WATER SYSTEM,"36545, Walker Spgs, Alabama",36545,Alabama,Region 4,Community water system,3768,JACKSON,Clarke,12,1,25,-87.892974,31.515786,-87.892974,31.515786,-88.222974,-87.562974,31.185786,31.845786
AL0001313,TUSCALOOSA WATER & SEWER,"2201 University Blvd, Tuscaloosa, Alabama, 35401",35401,Alabama,Region 4,Community water system,132936,TUSCALOOSA,Tuscaloosa,32,3,47,-87.565914,33.210494,-87.565811,33.21025,-87.566914,-87.564914,33.209494,33.211494
AL0000079,BAKERHILL WATER AUTHORITY,"36027, Bakerhill, Alabama",36027,Alabama,Region 4,Community water system,7128,BAKERHILL,Barbour,31,4,40,-85.151275,31.889867,-85.151275,31.889867,-85.444275,-84.858275,31.596867,32.182867
AL0000642,GREENE COUNTY STEAM PLANT,"35291, Birmingham, Alabama",35291,Alabama,Region 4,Non-Transient non-community system,120,DEMOPOLIS,Greene,5,2,26,-86.811762,33.520681,-86.811762,33.520681,-86.816762,-86.806762,33.515681,33.525681
AL0000940,DOUGLAS (WATER & FIRE PRO AUTHORITY OF),"35964, Douglas, Alabama",35964,Alabama,Region 4,Community water system,16434,DOUGLAS,Marshall,34,2,32,-86.328989,34.170705,-86.328989,34.170705,-86.333989,-86.323989,34.165705,34.175705
AL0000945,NORTH MARSHALL UTILITIES,"4141 Cathedral Caverns Hwy, Grant, Alabama, 35747",35747,Alabama,Region 4,Community water system,12369,GRANT,Marshall,24,1,31,-86.260335,34.509627,-86.261441,34.50953,-86.261335,-86.259335,34.508627,34.510627
AL0001420,ARDMORE WATER SYSTEM,"38449, Ardmore, Tennessee",38449,Alabama,Region 4,Community water system,3600,ARDMORE,Limestone,13,55,32,-86.842722,34.995111,-86.842722,34.995111,-86.983722,-86.701722,34.854111,35.136111
AL0001437,NEW LONDON WATER & FIRE PRO AUTHORITY,"35054, Cropwell, Alabama",35054,Alabama,Region 4,Community water system,5994,CROPWELL,St. Clair,10,0,69,-86.298925,33.496369,-86.298925,33.496369,-86.403925,-86.193925,33.391369,33.601369
AL0000748,GRAYSVILLE WATER & SEWER BOARD,"35073, Graysville, Alabama",35073,Alabama,Region 4,Community water system,9408,GRAYSVILLE,Jefferson,7,5,23,-86.973518,33.625284,-86.973518,33.625284,-87.066518,-86.880518,33.532284,33.718284
AL0001782,GOVERNMENTAL UTILITY SERVICE CORPORATION,"205 Link Rd, Bessemer, Alabama, 35023",35023,Alabama,Region 4,Community water system,32,BESSEMER,Jefferson,3,0,15,-87.122889,33.512145,-87.122889,33.512145,-87.132889,-87.112889,33.502145,33.522145
AL0001433,GOLDEN ROD BROILERS,"35055, Dodge City, Alabama",35055,Alabama,Region 4,Non-Transient non-community system,350,CULLMAN,Cullman,4,32,35,-86.843952,34.175911,-86.843952,34.175911,-87.071952,-86.615952,33.947911,34.403911
AL0001148,ALABASTER WATER BOARD,"213 1st St N, Alabaster, Alabama, 35007",35007,Alabama,Region 4,Community water system,38169,ALABASTER,Shelby,33,49,34,-86.815734,33.246239,-86.815734,33.246239,-86.825734,-86.805734,33.236239,33.256239
AL0000048,LOXLEY (TOWN OF),"36551, Loxley, Alabama",36551,Alabama,Region 4,Community water system,6081,LOXLEY,Baldwin,15,2,36,-87.753435,30.619727,-87.753435,30.619727,-87.859435,-87.647435,30.513727,30.725727
AL0001511,AVON WATER SYSTEM,"36312, Ashford, Alabama",36312,Alabama,Region 4,Community water system,465,ASHFORD,Houston,3,2,23,-85.235211,31.184511,-85.235211,31.184511,-85.360211,-85.110211,31.059511,31.309511
AL0001412,LYNN WATER WORKS,"35575, Lynn, Alabama",35575,Alabama,Region 4,Community water system,1845,LYNN,Winston,7,5,27,-87.546676,34.049104,-87.546676,34.049104,-87.636676,-87.456676,33.959104,34.139104
AL0001509,HALE COUNTY WATER AUTHORITY,"36744, Greensboro, Alabama",36744,Alabama,Region 4,Community water system,8802,GREENSBORO,Hale,21,3,34,-87.593537,32.707832,-87.593537,32.707832,-87.813537,-87.373537,32.487832,32.927832
AL0000798,MOULTON WATER WORKS BOARD,"35650, Moulton, Alabama",35650,Alabama,Region 4,Community water system,7440,MOULTON,Lawrence,13,3,74,-87.287915,34.479728,-87.287915,34.479728,-87.468915,-87.106915,34.298728,34.660728
AL0001164,STERRETT-VANDIVER WATER SYSTEM,"35147, Sterrett, Alabama",35147,Alabama,Region 4,Community water system,2970,STERRETT,Shelby,8,8,32,-86.516474,33.358048,-86.516474,33.358048,-86.660474,-86.372474,33.214048,33.502048
AL0000390,LUVERNE WATER & SEWER DEPARTMENT,"36049, Luverne, Alabama",36049,Alabama,Region 4,Community water system,3660,LUVERNE,Crenshaw,13,3,34,-86.263896,31.713939,-86.263896,31.713939,-86.432896,-86.094896,31.544939,31.882939
AL0001750,WEST AUTAUGA WATER AUTHORITY,"36003, Autaugaville, Alabama",36003,Alabama,Region 4,Community water system,4686,AUTAUGAVILLE,Autauga,15,0,20,-86.710129,32.454285,-86.710129,32.454285,-86.819129,-86.601129,32.345285,32.563285
AL0001103,CARROLLTON WATER WORKS,"35447, Pickensville, Alabama",35447,Alabama,Region 4,Community water system,1404,,Pickens,3,2,22,-88.094171,33.258731,-88.094171,33.258731,-88.328171,-87.860171,33.024731,33.492731
AL0000393,OWASSA-BROWNSVILLE WATER AUTHORITY,"36401, Evergreen, Alabama",36401,Alabama,Region 4,Community water system,3540,EVERGREEN,Conecuh,6,31,73,-86.953511,31.434511,-86.953511,31.434511,-87.250511,-86.656511,31.137511,31.731511
AL0000118,UNION SPRINGS UTIL BOARD,"36089, Union Springs, Alabama",36089,Alabama,Region 4,Community water system,4335,UNION SPRINGS,Bullock,17,6,67,-85.718512,32.136145,-85.718512,32.136145,-86.003512,-85.433512,31.851145,32.421145
AL0001247,"MUNFORD WATER AUTHORITY, INC.","36268, Munford, Alabama",36268,Alabama,Region 4,Community water system,4005,MUNFORD,Talladega,8,38,21,-85.956983,33.526347,-85.956983,33.526347,-86.093983,-85.819983,33.389347,33.663347
AL0001797,SOUTH GATE MOBILE HOME PARK,"48334, Farmington, Michigan",48334,Alabama,Region 4,Community water system,327,PELHAM,Shelby,2,0,7,-83.344782,42.499712,-83.344782,42.499712,-83.380782,-83.308782,42.463712,42.535712
AL0000908,DEMOPOLIS WATER WORKS AND SEWER BOARD,"36732, Demopolis, Alabama",36732,Alabama,Region 4,Community water system,12453,DEMOPOLIS,Marengo,21,8,37,-87.828337,32.508325,-87.828337,32.508325,-88.056337,-87.600337,32.280325,32.736325
AL0000598,GLEN ALLEN WATER SYSTEM,"35559, Glen Allen, Alabama",35559,Alabama,Region 4,Community water system,1410,GLEN ALLEN,Fayette,7,4,30,-87.739974,33.914386,-87.739974,33.914386,-87.744974,-87.734974,33.909386,33.919386
AL0001673,OASIS TRAVEL CENTER,"27801 County Road 64, Robertsdale, Alabama, 36567",36567,Alabama,Region 4,Transient non-community system,250,ROBERTSDALE,Baldwin,4,19,26,-87.615394,30.630399,-87.616021,30.63037,-87.616394,-87.614394,30.629399,30.631399
AL0000036,FOLEY (UTILITIES BOARD OF THE CITY OF),"36536, Foley, Alabama",36536,Alabama,Region 4,Community water system,20880,FOLEY,Baldwin,14,6,31,-87.682531,30.40584,-87.682531,30.40584,-87.687531,-87.677531,30.40084,30.41084
AL0000547,CENTRAL ELMORE WATER AUTHORITY,"36092, Wetumpka, Alabama",36092,Alabama,Region 4,Community water system,32877,WETUMPKA,Elmore,22,5,37,-86.209837,32.588094,-86.209837,32.588094,-86.362837,-86.056837,32.435094,32.741094
AL0000765,WEST JEFFERSON WATER WORKS (TOWN OF),"7000 W Jefferson Rd, Quinton, Alabama, 35130",35130,Alabama,Region 4,Community water system,0,QUINTON,Jefferson,5,1,22,-87.074369,33.649354,-87.074541,33.64892,-87.075369,-87.073369,33.648354,33.650354
AL0000256,JACKSON WATER WORKS & SEWER BOARD,"36545, Walker Spgs, Alabama",36545,Alabama,Region 4,Community water system,7602,JACKSON,Clarke,13,24,41,-87.892974,31.515786,-87.892974,31.515786,-88.222974,-87.562974,31.185786,31.845786
AL0000927,UPPER BEAR CREEK WATER AUTHORITY,"35565, Haleyville, Alabama",35565,Alabama,Region 4,Community water system,32,HALEYVILLE,Marion,3,4,75,-87.618221,34.226623,-87.618221,34.226623,-87.812221,-87.424221,34.032623,34.420623
AL0000681,DOTHAN UTILITIES (CITY OF),"36302, Dothan, Alabama",36302,Alabama,Region 4,Community water system,97545,DOTHAN,Houston,81,46,57,-85.394761,31.22768,-85.394761,31.22768,-85.399761,-85.389761,31.22268,31.23268
AL0001802,FORWARD OPERATING BASE,"36362, Fort Rucker, Alabama",36362,Alabama,Region 4,Transient non-community system,25,FORT RUCKER,Dale,10,0,5,-85.727105,31.324716,-85.727105,31.324716,-85.890105,-85.564105,31.161716,31.487716
AL0000575,FORDS VALLEY & HWY 278 WATER,"36272, Piedmont, Alabama",36272,Alabama,Region 4,Community water system,5532,PIEDMONT,Etowah,6,6,24,-85.612499,33.925467,-85.612499,33.925467,-85.837499,-85.387499,33.700467,34.150467
AL0000344,REPTON WATER WORKS,"36475, Repton, Alabama",36475,Alabama,Region 4,Community water system,507,REPTON,Conecuh,5,84,56,-87.18736,31.40499,-87.18736,31.40499,-87.37636,-86.99836,31.21599,31.59399
AL0000316,HAWK PRIDE MT WATER SYSTEM,"35674, Tuscumbia, Alabama",35674,Alabama,Region 4,Community water system,4035,TUSCUMBIA,Colbert,10,9,39,-87.697127,34.730115,-87.697127,34.730115,-87.959127,-87.435127,34.468115,34.992115
AL0001097,MARION WATER DEPARTMENT,"36756, Marion, Alabama",36756,Alabama,Region 4,Community water system,4323,MARION,Perry,15,56,38,-87.31797,32.62957,-87.31797,32.62957,-87.63197,-87.00397,32.31557,32.94357
AL0001107,REFORM WATER & SEWER BOARD,"35481, Reform, Alabama",35481,Alabama,Region 4,Community water system,3000,REFORM,Pickens,10,15,26,-88.016372,33.378862,-88.016372,33.378862,-88.165372,-87.867372,33.229862,33.527862
AL0001808,PLURIS ALABAMA LLC,"75225, Dallas, Texas",75225,Alabama,Region 4,Community water system,0,LAUDERDALE COUNTY,Lauderdale,3,0,3,-96.804267,32.863731,-96.804267,32.863731,-96.838267,-96.770267,32.829731,32.897731
AL0000338,EVERGREEN WATER WORKS,"36401, Evergreen, Alabama",36401,Alabama,Region 4,Community water system,5112,EVERGREEN,Conecuh,15,4,51,-86.953511,31.434511,-86.953511,31.434511,-87.250511,-86.656511,31.137511,31.731511
AL0001719,RANGE CONTROL,"36362, Fort Rucker, Alabama",36362,Alabama,Region 4,Transient non-community system,40,,Dale,4,1,15,-85.727105,31.324716,-85.727105,31.324716,-85.890105,-85.564105,31.161716,31.487716
AL0000893,NEW HOPE WATER SYSTEM,"35760, New Hope, Alabama",35760,Alabama,Region 4,Community water system,5586,NEW HOPE,Madison,9,3,28,-86.39124,34.542247,-86.39124,34.542247,-86.47924,-86.30324,34.454247,34.630247
AL0001489,FORT RUCKER - AMERICAN WATER,"36362, Fort Rucker, Alabama",36362,Alabama,Region 4,Community water system,11000,,Dale,23,8,33,-85.727105,31.324716,-85.727105,31.324716,-85.890105,-85.564105,31.161716,31.487716
AL0000385,BRANTLEY WATER WORKS,"36009, Brantley, Alabama",36009,Alabama,Region 4,Community water system,1485,BRANTLEY,Crenshaw,5,5,27,-86.255133,31.587427,-86.255133,31.587427,-86.499133,-86.011133,31.343427,31.831427
AL0001780,FIVE STAR WATER SUPPLY DISTRICT,"36068, Prattville, Alabama",36068,Alabama,Region 4,Community water system,100,PRATTVILLE,Elmore,6,8,24,-86.425605,32.462236,-86.425605,32.462236,-86.430605,-86.420605,32.457236,32.467236
AL0000905,TRIANA WATER WORKS,"35756, Madison, Alabama",35756,Alabama,Region 4,Community water system,1002,TRIANA,Madison,6,10,29,-86.793549,34.741014,-86.793549,34.741014,-86.983549,-86.603549,34.551014,34.931014
AL0001804,TRAINING AREA-15,"36362, Fort Rucker, Alabama",36362,Alabama,Region 4,Transient non-community system,25,FORT RUCKER,Dale,4,0,5,-85.727105,31.324716,-85.727105,31.324716,-85.890105,-85.564105,31.161716,31.487716
AL0000361,COVINGTON COUNTY WATER AUTHORITY,"36420, Carolina, Alabama",36420,Alabama,Region 4,Community water system,12678,ANDALUSIA,Covington,28,1,39,-86.477427,31.308451,-86.477427,31.308451,-86.889427,-86.065427,30.896451,31.720451
AL0000933,ALBERTVILLE UTILITIES BOARD,"210 W Main St, Albertville, Alabama, 35950",35950,Alabama,Region 4,Community water system,30186,ALBERTVILLE,Marshall,17,16,32,-86.210521,34.268441,-86.210521,34.268441,-86.220521,-86.200521,34.258441,34.278441
AL0000154,JACKSONVILLE UTILITIES,"36265, Jacksonville, Alabama",36265,Alabama,Region 4,Community water system,13740,JACKSONVILLE,Calhoun,16,122,29,-85.773978,33.820636,-85.773978,33.820636,-85.910978,-85.636978,33.683636,33.957636
AL0000356,ANDALUSIA (UTILITIES BOARD OF),"36420, Carolina, Alabama",36420,Alabama,Region 4,Community water system,28461,ANDALUSIA,Covington,28,18,47,-86.477427,31.308451,-86.477427,31.308451,-86.889427,-86.065427,30.896451,31.720451
AL0000177,HUGULEY WATER AUTHORITY,"36863, Lanett, Alabama",36863,Alabama,Region 4,Community water system,6900,HUGULEY,Chambers,15,2,25,-85.195526,32.866923,-85.195526,32.866923,-85.331526,-85.059526,32.730923,33.002923
AL0001225,"CLEAR CREEK HARBOR, CORP","35004, Acmar, Alabama",35004,Alabama,Region 4,Transient non-community system,50,TALLADEGA,Talladega,7,5,25,-86.503881,33.590891,-86.503881,33.590891,-86.573881,-86.433881,33.520891,33.660891
AL0001770,EAST CENTRAL BALDWIN COUNTY WATER & FPA,"22844 CR-87, Robertsdale, Alabama, 36567",36567,Alabama,Region 4,Community water system,3198,ROBERTSDALE,Baldwin,8,162,20,-87.581559,30.558471,-87.579841,30.55846,-87.582559,-87.580559,30.557471,30.559471
AL0000088,LOUISVILLE WATER WORKS,"36048, Louisville, Alabama",36048,Alabama,Region 4,Community water system,1380,LOUISVILLE,Barbour,7,4,59,-85.55771,31.780371,-85.55771,31.780371,-85.72271,-85.39271,31.615371,31.945371
AL0000213,CLANTON WATER DEPARTMENT,"35046, Clanton, Alabama",35046,Alabama,Region 4,Community water system,13500,CLANTON,Chilton,11,31,69,-86.570318,32.869469,-86.570318,32.869469,-86.756318,-86.384318,32.683469,33.055469
AL0001223,YORK WATER SYSTEM/CITY OF YORK,"36925, York, Alabama",36925,Alabama,Region 4,Community water system,3708,YORK,Sumter,13,66,54,-88.295652,32.488461,-88.295652,32.488461,-88.659652,-87.931652,32.124461,32.852461
AL0000103,ONEONTA UTILITIES BOARD,"105 High School St, Oneonta, Alabama, 35121",35121,Alabama,Region 4,Community water system,18366,ONEONTA,Blount,30,6,126,-86.472267,33.946653,-86.472267,33.946653,-86.482267,-86.462267,33.936653,33.956653
AL0001072,PILGRIM-PROVIDENCE WATER & F P AUTHORITY,"36069, Ramer, Alabama",36069,Alabama,Region 4,Community water system,576,RAMER,Montgomery,8,1,21,-86.200449,32.101591,-86.200449,32.101591,-86.404449,-85.996449,31.897591,32.305591
AL0001798,GREEN PARK SOUTH MOBILE HOME PARK,"48334, Farmington, Michigan",48334,Alabama,Region 4,Community water system,240,PELHAM,Shelby,3,0,7,-83.344782,42.499712,-83.344782,42.499712,-83.380782,-83.308782,42.463712,42.535712
AL0001102,ALICEVILLE WATER & SEWER BOARD,"311 3rd Ave NW, Aliceville, Alabama, 35442",35442,Alabama,Region 4,Community water system,3855,ALICEVILLE,Pickens,16,6,24,-88.154924,33.129453,-88.154971,33.12911,-88.155924,-88.153924,33.128453,33.130453
AL0000179,LANETT WATER WORKS,"401 N Lanier Ave, Lanett, Alabama, 36863",36863,Alabama,Region 4,Community water system,8076,LANETT,Chambers,7,1,22,-85.189002,32.870328,-85.189002,32.870328,-85.199002,-85.179002,32.860328,32.880328
AL0001130,WADLEY UTILITIES BOARD,"36276, Wadley, Alabama",36276,Alabama,Region 4,Community water system,873,WADLEY,Randolph,8,10,24,-85.57013,33.124079,-85.57013,33.124079,-85.75513,-85.38513,32.939079,33.309079
AL0000582,WEST ETOWAH WATER & FIRE PRO AUTHORITY,"35954, Attalla, Alabama",35954,Alabama,Region 4,Community water system,6969,ATTALLA,Etowah,25,5,86,-86.088082,34.024051,-86.088082,34.024051,-86.286082,-85.890082,33.826051,34.222051
AL0000537,FRIENDSHIP WATER WORKS,"36078, Tallassee, Alabama",36078,Alabama,Region 4,Community water system,3723,FRIENDSHIP,Elmore,9,5,24,-85.897418,32.530112,-85.897418,32.530112,-86.081418,-85.713418,32.346112,32.714112
AL0000559,FLOMATON WATER WORKS,"36441, Flomaton, Alabama",36441,Alabama,Region 4,Community water system,2493,FLOMATON,Escambia,10,32,26,-87.267767,31.003371,-87.267767,31.003371,-87.427767,-87.107767,30.843371,31.163371
AL0001327,COPELAND FERRY/PUMPKIN CENTER W S,"35130, Quinton, Alabama",35130,Alabama,Region 4,Community water system,1053,GOODSPRINGS,Walker,3,16,22,-87.080625,33.694275,-87.080625,33.694275,-87.235625,-86.925625,33.539275,33.849275
AL0000184,CHATTAHOOCHEE VALLEY WATER SUPPLY DIST,"36863, Lanett, Alabama",36863,Alabama,Region 4,Community water system,32,LANETT,Chambers,3,27,33,-85.195526,32.866923,-85.195526,32.866923,-85.331526,-85.059526,32.730923,33.002923
AL0001516,HAMDEN RIDGE WATER AUTHORITY,"36401, Evergreen, Alabama",36401,Alabama,Region 4,Community water system,2028,EVERGREEN,Conecuh,7,63,27,-86.953511,31.434511,-86.953511,31.434511,-87.250511,-86.656511,31.137511,31.731511
AL0000607,RED BAY WATER & GAS BOARD,"35582, Red Bay, Alabama",35582,Alabama,Region 4,Community water system,6000,RED BAY,Franklin,20,64,32,-88.138502,34.44295,-88.138502,34.44295,-88.318502,-87.958502,34.26295,34.62295
AL0000164,PIEDMONT UTILITIES BOARD,"36272, Piedmont, Alabama",36272,Alabama,Region 4,Community water system,8496,PIEDMONT,Calhoun,13,0,34,-85.612499,33.925467,-85.612499,33.925467,-85.837499,-85.387499,33.700467,34.150467
AL0000397,SOUTH CRENSHAW COUNTY WATER AUTHORITY,"36009, Brantley, Alabama",36009,Alabama,Region 4,Community water system,5490,BRANTLEY,Crenshaw,19,1,29,-86.255133,31.587427,-86.255133,31.587427,-86.499133,-86.011133,31.343427,31.831427
AL0000870,TUSKEGEE UTILITIES BOARD,"36083, Tuskegee, Alabama",36083,Alabama,Region 4,Community water system,13500,TUSKEGEE,Macon,9,34,93,-85.686462,32.43287,-85.686462,32.43287,-85.900462,-85.472462,32.21887,32.64687
AL0000847,HAYNEVILLE WATER DEPT,"36040, Gordonville, Alabama",36040,Alabama,Region 4,Community water system,2958,HAYNEVILLE,Lowndes,11,19,32,-86.67466,32.192336,-86.67466,32.192336,-86.84266,-86.50666,32.024336,32.360336
AL0001540,CARROLLS CREEK WATER AUTHORITY,"35475, Northport, Alabama",35475,Alabama,Region 4,Community water system,13290,NORTHPORT,Tuscaloosa,15,1,26,-87.590865,33.303672,-87.590865,33.303672,-87.844865,-87.336865,33.049672,33.557672
AL0001298,COALING WATER AUTHORITY,"35449, Coaling, Alabama",35449,Alabama,Region 4,Community water system,3675,COALING,Tuscaloosa,8,2,24,-87.340882,33.160411,-87.340882,33.160411,-87.345882,-87.335882,33.155411,33.165411
AL0001270,CAMP HILL UTILITIES BOARD,"36850, Camp Hill, Alabama",36850,Alabama,Region 4,Community water system,1710,CAMP HILL,Tallapoosa,7,7,23,-85.650191,32.800595,-85.650191,32.800595,-85.878191,-85.422191,32.572595,33.028595
AL0000414,WALTER WATER AUTHORITY,"35077, Hanceville, Alabama",35077,Alabama,Region 4,Community water system,1224,HANCEVILLE,Cullman,3,2,25,-86.754381,34.06402,-86.754381,34.06402,-87.004381,-86.504381,33.81402,34.31402
AL0000773,VERNON WATER WORKS,"35592, Vernon, Alabama",35592,Alabama,Region 4,Community water system,4500,VERNON,Lamar,12,3,96,-88.118987,33.756493,-88.118987,33.756493,-88.288987,-87.948987,33.586493,33.926493
AL0000085,EUFAULA WATER WORKS,"36027, Bakerhill, Alabama",36027,Alabama,Region 4,Community water system,17958,EUFAULA,Barbour,32,67,31,-85.151275,31.889867,-85.151275,31.889867,-85.444275,-84.858275,31.596867,32.182867
AL0000406,HANCEVILLE (THE WWSB OF THE CITY OF),"35077, Hanceville, Alabama",35077,Alabama,Region 4,Community water system,5715,HANCEVILLE,Cullman,13,3,42,-86.754381,34.06402,-86.754381,34.06402,-87.004381,-86.504381,33.81402,34.31402
AL0001250,WALDO WATER SYSTEM,"35160, Talladega, Alabama",35160,Alabama,Region 4,Community water system,450,"TALLADEGA, WALDO",Talladega,2,14,22,-86.100082,33.439831,-86.100082,33.439831,-86.508082,-85.692082,33.031831,33.847831
AL0001227,CAMP MAC,"36268, Munford, Alabama",36268,Alabama,Region 4,Transient non-community system,300,MUNFORD,Talladega,15,2,25,-85.956983,33.526347,-85.956983,33.526347,-86.093983,-85.819983,33.389347,33.663347
AL0000888,MADISON COUNTY WATER DEPARTMENT,"35811, Huntsville, Alabama",35811,Alabama,Region 4,Community water system,84426,HUNTSVILLE,Madison,32,1,30,-86.505592,34.81076,-86.505592,34.81076,-86.598592,-86.412592,34.71776,34.90376
AL0000814,LOACHAPOKA WATER AUTHORITY,"36865, Loachapoka, Alabama",36865,Alabama,Region 4,Community water system,10359,LOACHAPOKA,Lee,17,23,28,-85.598127,32.604456,-85.598127,32.604456,-85.603127,-85.593127,32.599456,32.609456
AL0000089,MT ANDREW WATER AUTHORITY,"36053, Midway, Alabama",36053,Alabama,Region 4,Community water system,729,MIDWAY,Barbour,4,8,25,-85.522285,32.075685,-85.522285,32.075685,-85.866285,-85.178285,31.731685,32.419685
AL0000379,RIVER FALLS WATER SYSTEM,"36476, River Falls, Alabama",36476,Alabama,Region 4,Community water system,942,RIVER FALLS,Covington,6,34,32,-86.540267,31.348482,-86.540267,31.348482,-86.545267,-86.535267,31.343482,31.353482
AL0001290,"BUHL, ELROD & HOLMAN WATER AUTHORITY","36446, Fulton, Alabama",36446,Alabama,Region 4,Community water system,3000,BUHL,Tuscaloosa,7,1,24,-87.726915,31.788531,-87.726915,31.788531,-87.952915,-87.500915,31.562531,32.014531
AL0000624,HARTFORD WATER WORKS,"36344, Hartford, Alabama",36344,Alabama,Region 4,Community water system,4038,HARTFORD,Geneva,11,47,22,-85.698197,31.102301,-85.698197,31.102301,-85.852197,-85.544197,30.948301,31.256301
AL0001077,SELLERS STATION WATER SYSTEM,"36046, Lapine, Alabama",36046,Alabama,Region 4,Community water system,1734,LAPINE,Montgomery,10,10,101,-86.279727,32.037331,-86.279727,32.037331,-86.413727,-86.145727,31.903331,32.171331
AL0000372,LOCKHART WATER WORKS,"36455, Lockhart, Alabama",36455,Alabama,Region 4,Community water system,720,LOCKHART,Covington,7,2,30,-86.349537,31.011913,-86.349537,31.011913,-86.352537,-86.346537,31.008913,31.014913
AL0000717,CUMBERLAND MOUNTAIN WATER,"35768, Hytop, Alabama",35768,Alabama,Region 4,Community water system,5250,SCOTTSBORO,Jackson,11,1,28,-86.033461,34.667517,-86.033461,34.667517,-86.355461,-85.711461,34.345517,34.989517
AL0000592,WALNUT GROVE (TOWN OF),"35990, Walnut Grove, Alabama",35990,Alabama,Region 4,Community water system,1164,WALNUT GROVE,Etowah,5,56,44,-86.305536,34.065668,-86.305536,34.065668,-86.308536,-86.302536,34.062668,34.068668
AL0000364,GANTT WATER SYSTEM,"36038, Gantt, Alabama",36038,Alabama,Region 4,Community water system,747,GANTT,Covington,4,2,23,-86.484246,31.405682,-86.484246,31.405682,-86.489246,-86.479246,31.400682,31.410682
AL0001046,EXCEL WATER SYSTEM,"36439, Excel, Alabama",36439,Alabama,Region 4,Community water system,3489,EXCEL,Monroe,8,59,37,-87.341769,31.427763,-87.341769,31.427763,-87.346769,-87.336769,31.422763,31.432763
AL0000233,"CHOCTAW-EDNA WATER AUTHORITY, INC.","36916, Pennington, Alabama",36916,Alabama,Region 4,Community water system,894,PENNINGTON,Choctaw,6,2,18,-88.051031,32.211315,-88.051031,32.211315,-88.174031,-87.928031,32.088315,32.334315
AL0000589,REECE CITY WATER SYSTEM,"35954, Attalla, Alabama",35954,Alabama,Region 4,Community water system,864,ATTALLA,Etowah,6,7,27,-86.088082,34.024051,-86.088082,34.024051,-86.286082,-85.890082,33.826051,34.222051
AL0000597,FAYETTE WATER WORKS BOARD,"311 2nd Ave SE, Fayette, Alabama, 35555",35555,Alabama,Region 4,Community water system,8091,FAYETTE,Fayette,15,0,38,-87.829005,33.682571,-87.829005,33.682571,-87.839005,-87.819005,33.672571,33.692571
AL0001716,MARION COUNTY PUBLIC WATER AUTHORITY,"35570, Hamilton, Alabama",35570,Alabama,Region 4,Community water system,2796,GUIN,Marion,14,10,17,-87.995352,34.142464,-87.995352,34.142464,-88.209352,-87.781352,33.928464,34.356464
AL0000038,GULF SHORES (UTILITIES BOARD CITY OF),"36542, Gulf Shores, Alabama",36542,Alabama,Region 4,Community water system,23823,GULF SHORES,Baldwin,30,2,31,-87.693802,30.266091,-87.693802,30.266091,-88.029802,-87.357802,29.930091,30.602091
AL0001789,COFFEE COUNTY WATER AUTHORITY,"36323, Elba, Alabama",36323,Alabama,Region 4,Community water system,3789,NEW BROCKTON,Coffee,20,1,17,-86.071229,31.414323,-86.071229,31.414323,-86.266229,-85.876229,31.219323,31.609323
AL0000558,EAST BREWTON WATER & SEWER BOARD,"36426, Brewton, Alabama",36426,Alabama,Region 4,Community water system,3120,EAST BREWTON,Escambia,7,105,26,-87.068407,31.121048,-87.068407,31.121048,-87.375407,-86.761407,30.814048,31.428048
AL0000252,COFFEEVILLE WATER WORKS (TOWN OF),"36524, Coffeeville, Alabama",36524,Alabama,Region 4,Community water system,1104,COFFEEVILLE,Clarke,9,5,46,-88.086588,31.755085,-88.086588,31.755085,-88.293588,-87.879588,31.548085,31.962085
AL0001209,RIVERSIDE (TOWN OF),"35135, Riverside, Alabama",35135,Alabama,Region 4,Community water system,3609,RIVERSIDE,St. Clair,7,4,27,-86.230012,33.59663,-86.230012,33.59663,-86.295012,-86.165012,33.53163,33.66163
AL0001445,"GREENETRACK, INC","35462, Eutaw, Alabama",35462,Alabama,Region 4,Non-Transient non-community system,200,EUTAW,Greene,5,4,31,-87.883462,32.839001,-87.883462,32.839001,-88.207462,-87.559462,32.515001,33.163001
AL0001236,FAYETTEVILLE WATER  AUTHORITY,"35151, Oak Grove, Alabama",35151,Alabama,Region 4,Community water system,4974,FAYETTEVILLE,Talladega,10,2,22,-86.325052,33.216371,-86.325052,33.216371,-86.578052,-86.072052,32.963371,33.469371
AL0000604,HODGES WATER SYSTEM,"35571, Hodges, Alabama",35571,Alabama,Region 4,Community water system,2376,HODGES,Franklin,9,1,27,-87.926635,34.328854,-87.926635,34.328854,-88.046635,-87.806635,34.208854,34.448854
AL0001715,I-65 RV CAMPGROUND,"36525, Creola, Alabama",36525,Alabama,Region 4,Community water system,246,CREOLA,Mobile,5,1,21,-88.034682,30.893911,-88.034682,30.893911,-88.142682,-87.926682,30.785911,31.001911
AL0001353,TOWNLEY WATER AUTHORITY,"119 Main St, Townley, Alabama, 35587",35587,Alabama,Region 4,Community water system,2520,TOWNLEY,Walker,4,3,29,-87.433949,33.828413,-87.433949,33.828413,-87.443949,-87.423949,33.818413,33.838413
AL0000643,GREENE COUNTY WATER AUTHORITY,"35462, Eutaw, Alabama",35462,Alabama,Region 4,Community water system,1341,EUTAW,Greene,10,10,23,-87.883462,32.839001,-87.883462,32.839001,-88.207462,-87.559462,32.515001,33.163001
AL0000162,OXFORD WATER WORKS & SEWER BOARD,"36203, Oxford, Alabama",36203,Alabama,Region 4,Community water system,28743,OXFORD,Calhoun,26,3,42,-85.832524,33.614189,-85.832524,33.614189,-85.948524,-85.716524,33.498189,33.730189
AL0000297,WAYNE FARMS LLC,"36331, Enterprise, Alabama",36331,Alabama,Region 4,Non-Transient non-community system,550,ENTERPRISE,Coffee,6,39,37,-85.854621,31.31516,-85.854621,31.31516,-85.859621,-85.849621,31.31016,31.32016
AL0000302,NEW BROCKTON WATER DEPARTMENT,"36351, New Brockton, Alabama",36351,Alabama,Region 4,Community water system,3297,NEW BROCKTON,Coffee,16,15,36,-85.930561,31.385049,-85.930561,31.385049,-86.103561,-85.757561,31.212049,31.558049
AL0001374,CAMDEN WATER & SEWER DEPARTMENT,"36726, Camden, Alabama",36726,Alabama,Region 4,Community water system,4170,CAMDEN,Wilcox,13,19,44,-87.29392,31.994706,-87.29392,31.994706,-87.52192,-87.06592,31.766706,32.222706
AL0001031,ST. ELMO-IRVINGTON WATER AUTHORITY,"36568, Saint Elmo, Alabama",36568,Alabama,Region 4,Community water system,8514,,Mobile,11,43,30,-88.252091,30.504381,-88.252091,30.504381,-88.257091,-88.247091,30.499381,30.509381
AL0000612,VINA WATER WORKS BOARD,"35593, Vina, Alabama",35593,Alabama,Region 4,Community water system,1269,VINA,Franklin,8,1,29,-88.055459,34.375212,-88.055459,34.375212,-88.220459,-87.890459,34.210212,34.540212
AL0000187,CEDAR BLUFF UTILITIES BOARD,"4971 AL-68, Cedar Bluff, Alabama, 35959",35959,Alabama,Region 4,Community water system,3858,CEDAR BLUFF,Cherokee,3,4,22,-85.607627,34.217834,-85.607627,34.217834,-85.617627,-85.597627,34.207834,34.227834
AL0000865,STAR-MINDINGALL WATER AUTHORITY,"36083, Tuskegee, Alabama",36083,Alabama,Region 4,Community water system,2016,,Macon,12,9,29,-85.686462,32.43287,-85.686462,32.43287,-85.900462,-85.472462,32.21887,32.64687
AL0001309,PETERSON WATER SYSTEM,"35478, Peterson, Alabama",35478,Alabama,Region 4,Community water system,1995,PETERSON,Tuscaloosa,5,3,24,-87.423052,33.233031,-87.423052,33.233031,-87.428052,-87.418052,33.228031,33.238031
AL0001050,"MEXIA WATER SYSTEM, INC.","36458, Mexia, Alabama",36458,Alabama,Region 4,Community water system,2550,MEXIA,Monroe,4,8,24,-87.394339,31.505286,-87.394339,31.505286,-87.399339,-87.389339,31.500286,31.510286
AL0001213,STEELE WATER WORKS BOARD,"35987, Steele, Alabama",35987,Alabama,Region 4,Community water system,1614,STEELE,St. Clair,15,11,41,-86.202878,33.938494,-86.202878,33.938494,-86.341878,-86.063878,33.799494,34.077494
AL0000353,ROCKFORD WATER WORKS,"35136, Rockford, Alabama",35136,Alabama,Region 4,Community water system,2043,ROCKFORD,Coosa,10,26,28,-86.216965,32.888888,-86.216965,32.888888,-86.460965,-85.972965,32.644888,33.132888
AL0001203,ODENVILLE (UTIL BOARD OF THE TOWN OF),"35120, Branchville, Alabama",35120,Alabama,Region 4,Community water system,20298,ODENVILLE,St. Clair,42,54,30,-86.401481,33.680805,-86.401481,33.680805,-86.519481,-86.283481,33.562805,33.798805
AL0000920,BEAR CREEK WATER WORKS,"35543, Bear Creek, Alabama",35543,Alabama,Region 4,Community water system,3228,,Marion,6,1,26,-87.701939,34.2765,-87.701939,34.2765,-87.849939,-87.553939,34.1285,34.4245
AL0001288,WALL STREET WATER AUTHORITY,"5059 Notasulga Rd, Tallassee, Alabama, 36078",36078,Alabama,Region 4,Community water system,5172,TALLAPOOSA COUNTY,Tallapoosa,10,3,24,-85.821074,32.557868,-85.821141,32.55838,-85.822074,-85.820074,32.556868,32.558868
AL0000331,TUSCUMBIA WATER WORKS,"35674, Tuscumbia, Alabama",35674,Alabama,Region 4,Community water system,13338,TUSCUMBIA,Colbert,10,1,53,-87.697127,34.730115,-87.697127,34.730115,-87.959127,-87.435127,34.468115,34.992115
AL0000800,TOWN CREEK WATER SYSTEM,"35672, Town Creek, Alabama",35672,Alabama,Region 4,Community water system,1728,TOWN CREEK,Lawrence,5,2,32,-87.403277,34.683372,-87.403277,34.683372,-87.607277,-87.199277,34.479372,34.887372
AL0001015,PRICHARD WATER WORKS BOARD,"36610, Magazine, Alabama",36610,Alabama,Region 4,Community water system,32400,PRICHARD,Mobile,8,7,44,-88.084481,30.73155,-88.084481,30.73155,-88.163481,-88.005481,30.65255,30.81055
AL0001052,MONROEVILLE (WATER WORKS BD. OF CITY OF),"36461, Monroeville, Alabama",36461,Alabama,Region 4,Community water system,9600,MONROEVILLE,Monroe,19,3,34,-87.323872,31.52732,-87.323872,31.52732,-87.328872,-87.318872,31.52232,31.53232
AL0001244,LOGAN LANDING RV RESORT & CAMPGROUND,"35014, Alpine, Alabama",35014,Alabama,Region 4,Transient non-community system,396,ALPINE,Talladega,4,13,19,-86.268331,33.388174,-86.268331,33.388174,-86.431331,-86.105331,33.225174,33.551174
AL0000003,BILLINGSLEY WATER SYSTEM,"36006, Billingsley, Alabama",36006,Alabama,Region 4,Community water system,1473,BILLINGSLEY,Autauga,12,1,24,-86.651794,32.721387,-86.651794,32.721387,-86.850794,-86.452794,32.522387,32.920387
AL0000490,SELMA WATER WORKS & SEWER BOARD,"36701, Valley Grande, Alabama",36701,Alabama,Region 4,Community water system,24039,SELMA,Dallas,27,17,46,-87.028199,32.41012,-87.028199,32.41012,-87.414199,-86.642199,32.02412,32.79612
AL0001805,COOSA VALLEY WATER SUPPLY DISTRICT,"35120, Branchville, Alabama",35120,Alabama,Region 4,Community water system,0,ASHVILLE,St. Clair,8,0,2,-86.401481,33.680805,-86.401481,33.680805,-86.519481,-86.283481,33.562805,33.798805
AL0000061,ROBERTSDALE (CITY OF),"36567, Robertsdale, Alabama",36567,Alabama,Region 4,Community water system,7260,ROBERTSDALE,Baldwin,16,77,31,-87.710892,30.554733,-87.710892,30.554733,-88.028892,-87.392892,30.236733,30.872733
AL0000971,DAUPHIN ISLAND WATER & SEWER,"36561, Orange Beach, Alabama",36561,Alabama,Region 4,Community water system,4902,DAUPHIN ISLAND,Mobile,21,103,36,-87.598351,30.266772,-87.598351,30.266772,-87.740351,-87.456351,30.124772,30.408772
AL0001268,CAMP ASCCA,"36861, Jacksons Gap, Alabama",36861,Alabama,Region 4,Transient non-community system,280,,Tallapoosa,4,13,24,-85.85807,32.852085,-85.85807,32.852085,-85.96907,-85.74707,32.741085,32.963085
AL0000272,CHEAHA STATE PARK,"36258, Delta, Alabama",36258,Alabama,Region 4,Transient non-community system,570,DELTA,Cleburne,24,7,24,-85.690048,33.439119,-85.690048,33.439119,-85.821048,-85.559048,33.308119,33.570119
AL0000243,NORTH CHOCTAW WATER & SEWER AUTHORITY,"36912, Lisman, Alabama",36912,Alabama,Region 4,Community water system,3552,LISMAN,Choctaw,13,21,25,-88.271313,32.212998,-88.271313,32.212998,-88.442313,-88.100313,32.041998,32.383998
AL0000548,TALLASSEE WATER WORKS,"36078, Tallassee, Alabama",36078,Alabama,Region 4,Community water system,7500,TALLASSEE,Elmore,15,2,43,-85.897418,32.530112,-85.897418,32.530112,-86.081418,-85.713418,32.346112,32.714112
AL0000082,CLAYTON WATER WORKS & SEWER,"36016, Clayton, Alabama",36016,Alabama,Region 4,Community water system,2235,CLAYTON,Barbour,11,33,77,-85.46731,31.88344,-85.46731,31.88344,-85.72431,-85.21031,31.62644,32.14044
AL0001361,HOBSON WATER SYSTEM,"1588 County Road 12, Chatom, Alabama, 36518",36518,Alabama,Region 4,Community water system,615,CHATOM,Washington,4,0,22,-88.131985,31.470542,-88.131985,31.470542,-88.141985,-88.121985,31.460542,31.480542
AL0001021,SARALAND WATER SERVICE,"307 Shelton Beach Rd, Saraland, Alabama, 36571",36571,Alabama,Region 4,Community water system,12837,SARALAND,Mobile,16,2,31,-88.079162,30.820675,-88.078991,30.82037,-88.080162,-88.078162,30.819675,30.821675
AL0001156,HARPERSVILLE WATER SYSTEM,"35078, Harpersville, Alabama",35078,Alabama,Region 4,Community water system,2109,HARPERSVILLE,Shelby,10,2,28,-86.436743,33.345656,-86.436743,33.345656,-86.547743,-86.325743,33.234656,33.456656
AL0001760,"MILLERS FERRY WATER AUTHORITY, INC.","36726, Camden, Alabama",36726,Alabama,Region 4,Community water system,1440,MILLERS FERRY,Wilcox,5,5,18,-87.29392,31.994706,-87.29392,31.994706,-87.52192,-87.06592,31.766706,32.222706
AL0000788,LEXINGTON WATER WORKS AND SEWER,"35648, Lexington, Alabama",35648,Alabama,Region 4,Community water system,2799,LEXINGTON,Lauderdale,7,8,24,-87.376751,34.969073,-87.376751,34.969073,-87.506751,-87.246751,34.839073,35.099073
AL0001512,LOWNDES COUNTY WATER SYSTEM,"36040, Gordonville, Alabama",36040,Alabama,Region 4,Community water system,3981,HAYNEVILLE,Lowndes,17,2,25,-86.67466,32.192336,-86.67466,32.192336,-86.84266,-86.50666,32.024336,32.360336
AL0001289,WALNUT HILL WATER AUTHORITY,"7791 Highway 50, Dadeville, Alabama, 36853",36853,Alabama,Region 4,Community water system,9591,DADEVILLE,Tallapoosa,8,2,24,-85.799666,32.707907,-85.799751,32.70825,-85.800666,-85.798666,32.706907,32.708907
AL0001132,WOODLAND WATER BOARD,"36280, Woodland, Alabama",36280,Alabama,Region 4,Community water system,1320,WOODLAND,Randolph,7,65,32,-85.401765,33.373558,-85.401765,33.373558,-85.534765,-85.268765,33.240558,33.506558
AL0001142,PHENIX CITY UTILITIES,"36868, Phenix City, Alabama",36868,Alabama,Region 4,Community water system,35358,PHENIX CITY,Russell,13,66,66,-85.004292,32.47156,-85.004292,32.47156,-85.009292,-84.999292,32.46656,32.47656
AL0000506,COLLINSVILLE WATER WORKS,"170 W Main St, Collinsville, Alabama, 35961",35961,Alabama,Region 4,Community water system,3900,COLLINSVILLE,DeKalb,16,4,27,-85.86029,34.263654,-85.86029,34.263654,-85.87029,-85.85029,34.253654,34.273654
AL0000049,STYX RIVER RESORT WATER SYSTEM,"36567, Robertsdale, Alabama",36567,Alabama,Region 4,Transient non-community system,200,ROBERTSDALE,Baldwin,4,7,23,-87.710892,30.554733,-87.710892,30.554733,-88.028892,-87.392892,30.236733,30.872733
AL0001120,PIKE COUNTY WATER AUTHORITY,"36081, Troy, Alabama",36081,Alabama,Region 4,Community water system,10590,TROY,Pike,27,31,81,-85.966108,31.806115,-85.966108,31.806115,-86.222108,-85.710108,31.550115,32.062115
AL0001145,RUSSELL COUNTY WATER AUTHORITY,"36868, Phenix City, Alabama",36868,Alabama,Region 4,Community water system,11538,PHENIX CITY,Russell,24,4,32,-85.004292,32.47156,-85.004292,32.47156,-85.009292,-84.999292,32.46656,32.47656
AL0000951,UNION GROVE UTILITY BOARD,"35175, Union Grove, Alabama",35175,Alabama,Region 4,Community water system,2814,UNION GROVE,Marshall,6,5,25,-86.563968,34.424293,-86.563968,34.424293,-86.706968,-86.420968,34.281293,34.567293
AL0000398,CULLMAN UTILITIES BOARD,"35056, Cullman, Alabama",35056,Alabama,Region 4,Community water system,32,CULLMAN,Cullman,3,18,73,-86.847829,34.170341,-86.847829,34.170341,-86.852829,-86.842829,34.165341,34.175341
AL0000093,GREEN POND WATER SYSTEM,"35074, Green Pond, Alabama",35074,Alabama,Region 4,Community water system,6642,GREEN POND,Bibb,17,0,38,-87.126338,33.222815,-87.126338,33.222815,-87.131338,-87.121338,33.217815,33.227815
AL0001786,"CULLMAN WATER WORKS, CITY OF","35056, Cullman, Alabama",35056,Alabama,Region 4,Community water system,31080,CULLMAN,Cullman,9,1,16,-86.847829,34.170341,-86.847829,34.170341,-86.852829,-86.842829,34.165341,34.175341
AL0000178,LAFAYETTE WATER WORKS,"CR-87, Lafayette, Alabama, 36862",36862,Alabama,Region 4,Community water system,8469,LAFAYETTE,Chambers,7,43,72,-85.352906,32.860502,-85.352906,32.860502,-85.377906,-85.327906,32.835502,32.885502
AL0001410,DOUBLE SPRINGS WATER WORKS,"35553, Double Springs, Alabama",35553,Alabama,Region 4,Community water system,5421,DOUBLE SPRINGS,Winston,10,1,27,-87.402322,34.146151,-87.402322,34.146151,-87.560322,-87.244322,33.988151,34.304151
AL0000378,RED LEVEL WATER WORKS,"36474, Red Level, Alabama",36474,Alabama,Region 4,Community water system,846,RED LEVEL,Covington,6,0,52,-86.611182,31.404841,-86.611182,31.404841,-86.784182,-86.438182,31.231841,31.577841
AL0001168,VINCENT WATER WORKS BOARD,"35178, Vincent, Alabama",35178,Alabama,Region 4,Community water system,2820,VINCENT,Shelby,12,8,29,-86.41496,33.376116,-86.41496,33.376116,-86.54096,-86.28896,33.250116,33.502116
AL0000994,"LEMOYNE WATER SYSTEM, INC.","36505, Axis, Alabama",36505,Alabama,Region 4,Community water system,3360,AXIS,Mobile,10,45,28,-88.028237,30.927348,-88.028237,30.927348,-88.135237,-87.921237,30.820348,31.034348
AL0000322,NATCHEZ TRACE PARKWAY,"38804, Tupelo, Mississippi",38804,Alabama,Region 4,Transient non-community system,75,CHEROKEE,Colbert,6,5,19,-88.709491,34.259831,-88.709491,34.259831,-88.899491,-88.519491,34.069831,34.449831
AL0001159,LITTLE WAXIE WATER AUTHORITY,"35051, Columbiana, Alabama",35051,Alabama,Region 4,Community water system,1227,COLUMBIANA,Shelby,2,1,22,-86.606161,33.18175,-86.606161,33.18175,-86.753161,-86.459161,33.03475,33.32875
AL0001336,JASPER WATER WORKS AND SEWER BOARD,"35501, Jasper, Alabama",35501,Alabama,Region 4,Community water system,29700,JASPER,Walker,22,0,114,-87.284022,33.832484,-87.284022,33.832484,-87.425022,-87.143022,33.691484,33.973484
AL0000508,CROSSVILLE WATER BOARD,"35962, Crossville, Alabama",35962,Alabama,Region 4,Community water system,2022,CROSSVILLE,DeKalb,7,30,28,-85.995062,34.287351,-85.995062,34.287351,-86.161062,-85.829062,34.121351,34.453351
AL0000728,SECTION-DUTTON WATER SYSTEM,"35986, Shiloh, Alabama",35986,Alabama,Region 4,Community water system,32700,RAINSVILLE,Jackson,42,4,34,-85.853999,34.493036,-85.853999,34.493036,-85.950999,-85.756999,34.396036,34.590036
AL0000767,DETROIT WATER WORKS,"35552, Detroit, Alabama",35552,Alabama,Region 4,Community water system,435,DETROIT,Lamar,9,29,27,-88.131414,34.063232,-88.131414,34.063232,-88.215414,-88.047414,33.979232,34.147232
AL0000491,WEST DALLAS CO WATER AUTHORITY,"36775, Sardis, Alabama",36775,Alabama,Region 4,Community water system,2898,SARDIS,Dallas,12,1,32,-87.046145,32.283953,-87.046145,32.283953,-87.289145,-86.803145,32.040953,32.526953
AL0000329,SPRING VALLEY WATER AUTHORITY,"35674, Tuscumbia, Alabama",35674,Alabama,Region 4,Community water system,5013,TUSCUMBIA,Colbert,12,7,25,-87.697127,34.730115,-87.697127,34.730115,-87.959127,-87.435127,34.468115,34.992115
