PWSID,PWS Name,Approximate Address,Postal,Primacy Agency,EPA Region,PWS Type,Population Served Count,Cities Served,Counties Served,# of Facilities,# of Violations,# of Site Visits,Longitude,Latitude,DisplayX,DisplayY,Xmin,Xmax,Ymin,Ymax
CO0135838,WELLINGTON TOWN OF,"80549, Wellington, Colorado",80549,Colorado,Region 8,Community water system,7450,,Larimer,15,2,6,-104.997987,40.69107,-104.997987,40.69107,-105.304987,-104.690987,40.38407,40.99807
CO0234800,SUNDOWN ACRES RV PARK,"5875 Highway 550, Durango, Colorado, 81303",81303,Colorado,Region 8,Transient non-community system,65,,La Plata,3,3,2,-107.868004,37.078881,-107.869641,37.07922,-107.869004,-107.867004,37.077881,37.079881
CO0240400,FREEMONS GUEST RANCH,"39284 Highway 149, Creede, Colorado, 81130",81130,Colorado,Region 8,Transient non-community system,65,,Mineral,3,11,5,-107.111084,37.764495,-107.109301,37.76602,-107.112084,-107.110084,37.763495,37.765495
CO0126618,PONDEROSA PARK ASSOC,"81224, Crested Butte, Colorado",81224,Colorado,Region 8,Community water system,25,,Gunnison,5,5,3,-106.887482,38.815141,-106.887482,38.815141,-107.198482,-106.576482,38.504141,39.126141
CO0234709,PURA VIDA CAFE,"14810 CR-501, Bayfield, Colorado, 81122",81122,Colorado,Region 8,Transient non-community system,112,,La Plata,3,4,1,-107.562497,37.396693,-107.562281,37.39663,-107.563497,-107.561497,37.395693,37.397693
CO0136249,EL MORO HOEHNE PIPELINE ASSOC,"81082, Trinidad, Colorado",81082,Colorado,Region 8,Community water system,655,,Las Animas,2,4,2,-104.504117,37.169243,-104.504117,37.169243,-104.941117,-104.067117,36.732243,37.606243
CO0120184,COYOTE HILLS WS,"9578 Summit Ridge Pl, Parker, Colorado, 80138",80138,Colorado,Region 8,Community water system,84,,Elbert,5,13,2,-104.704976,39.538352,-104.704976,39.538352,-104.714976,-104.694976,39.528352,39.548352
CO0149621,PRINCE CREEK HOA,"642 Handy Dr, Carbondale, Colorado, 81623",81623,Colorado,Region 8,Community water system,50,,Pitkin,7,182,5,-107.175522,39.353324,-107.175531,39.35284,-107.176522,-107.174522,39.352324,39.354324
CO0235138,BEAVER MEADOWS RESORT,"100 Beavers Mdws, Red Feather Lakes, Colorado, 80545",80545,Colorado,Region 8,Transient non-community system,202,,Larimer,7,7,6,-105.651274,40.841943,-105.648681,40.84253,-105.652274,-105.650274,40.840943,40.842943
CO0235318,GLEN HAVEN GENERAL STORE,"80532, Glen Haven, Colorado",80532,Colorado,Region 8,Transient non-community system,50,,Larimer,5,0,1,-105.450164,40.451947,-105.450164,40.451947,-105.516164,-105.384164,40.385947,40.517947
CO0101115,NORTHGLENN CITY OF,"2350 W 112th Ave, Northglenn, Colorado, 80234",80234,Colorado,Region 8,Community water system,35357,,Adams,9,7,7,-105.014759,39.899658,-105.014759,39.899658,-105.024759,-105.004759,39.889658,39.909658
CO0253390,MALT SHOPPE THE,"81130, Creede, Colorado",81130,Colorado,Region 8,Transient non-community system,107,,Rio Grande,3,27,6,-106.999107,37.775104,-106.999107,37.775104,-107.381107,-106.617107,37.393104,38.157104
CO0257050,TELLURIDE REGIONAL AIRPORT,"1500 Last Dollar Rd, Telluride, Colorado, 81435",81435,Colorado,Region 8,Transient non-community system,467,,San Miguel,5,6,2,-107.900497,37.954076,-107.901831,37.95322,-107.901497,-107.899497,37.953076,37.955076
CO0159119,ALPENSEE WD,"425 John Deere Dr, Fort Collins, Colorado, 80524",80524,Colorado,Region 8,Non-Transient non-community system,84,,Summit,5,0,0,-105.004957,40.582741,-105.005361,40.58307,-105.005957,-105.003957,40.581741,40.583741
CO0159060,HEENEY WATER INC,"80498, Heeney, Colorado",80498,Colorado,Region 8,Community water system,250,,Summit,3,6,6,-106.070963,39.661301,-106.070963,39.661301,-106.440963,-105.700963,39.291301,40.031301
CO0262687,ROCKY MOUNTAIN ENERGY CENTER,"1800 Larimer St, Denver, Colorado, 80202",80202,Colorado,Region 8,Non-Transient non-community system,39,,Weld,4,0,1,-104.994753,39.751237,-104.994461,39.75102,-104.995753,-104.993753,39.750237,39.752237
CO0262735,TAGAWA GREENHOUSES INC,"80603, Brighton, Colorado",80603,Colorado,Region 8,Non-Transient non-community system,250,,Weld,3,20,9,-104.720052,40.005181,-104.720052,40.005181,-104.961052,-104.479052,39.764181,40.246181
CO0115152,BONE MESA WD,"81428, Paonia, Colorado",81428,Colorado,Region 8,Community water system,400,,Delta,11,34,9,-107.591745,38.868496,-107.591745,38.868496,-107.940745,-107.242745,38.519496,39.217496
CO0149188,CRYSTAL RIVER COUNTRY ESTATES WATER CO,"310 Crystal Cir, Carbondale, Colorado, 81623",81623,Colorado,Region 8,Community water system,44,,Pitkin,4,45,5,-107.218244,39.284517,-107.218101,39.28483,-107.219244,-107.217244,39.283517,39.285517
CO0233300,CLIMAX CLIMAX MINE,"80429, Climax, Colorado",80429,Colorado,Region 8,Non-Transient non-community system,40,,Lake,18,17,4,-106.292211,39.247671,-106.292211,39.247671,-106.297211,-106.287211,39.242671,39.252671
CO0106200,HASTY WC,"81044, Hasty, Colorado",81044,Colorado,Region 8,Community water system,323,,Bent,12,15,6,-102.956782,38.10639,-102.956782,38.10639,-103.342782,-102.570782,37.72039,38.49239
CO0235667,RAWAH RANCH,"82063, Jelm, Wyoming",82063,Colorado,Region 8,Transient non-community system,49,,Larimer,5,1,8,-106.010297,41.080092,-106.010297,41.080092,-106.159297,-105.861297,40.931092,41.229092
CO0221760,TOTAL 4136,"11919 W I-70 Frontage Rd N, Wheat Ridge, Colorado, 80033",80033,Colorado,Region 8,Transient non-community system,1300,,El Paso,3,20,2,-105.132463,39.784822,-105.132463,39.784822,-105.142463,-105.122463,39.774822,39.794822
CO0121245,SUNSET MD,"18353 CO-94, Colorado Springs, Colorado, 80930",80930,Colorado,Region 8,Community water system,150,,El Paso,6,10,3,-104.428371,38.838404,-104.428371,38.83813,-104.429371,-104.427371,38.837404,38.839404
CO0234565,NEEDLES COUNTRY SQUARE LLC,"1424 County Road 223, Durango, Colorado, 81301",81301,Colorado,Region 8,Transient non-community system,145,,La Plata,3,7,3,-107.746232,37.238326,-107.743441,37.23775,-107.747232,-107.745232,37.237326,37.239326
CO0249133,COMPASS  ASPEN COMMUNITY SCHOOL,"1011 Grand Ave, Glenwood Springs, Colorado, 81601",81601,Colorado,Region 8,Non-Transient non-community system,362,,Pitkin,6,57,5,-107.324917,39.543521,-107.325201,39.54353,-107.325917,-107.323917,39.542521,39.544521
CO0235189,CRYSTAL LAKES 11TH FILING,"241 Blackfoot Rd, Red Feather Lakes, Colorado, 80545",80545,Colorado,Region 8,Transient non-community system,32,,Larimer,9,1,1,-105.630598,40.848399,-105.630181,40.84828,-105.631598,-105.629598,40.847399,40.849399
CO0130015,BUFFALO CREEK WD,"80425, Buffalo Creek, Colorado",80425,Colorado,Region 8,Community water system,125,,Jefferson,7,9,7,-105.274435,39.385457,-105.274435,39.385457,-105.418435,-105.130435,39.241457,39.529457
CO0121575,PALMER LAKE TOWN OF,"80133, Palmer Lake, Colorado",80133,Colorado,Region 8,Community water system,2450,,El Paso,10,32,6,-104.910873,39.120064,-104.910873,39.120064,-104.948873,-104.872873,39.082064,39.158064
CO0235729,SYLVAN DALE RANCH,"425 John Deere Dr, Fort Collins, Colorado, 80524",80524,Colorado,Region 8,Transient non-community system,47,,Larimer,5,13,9,-105.004957,40.582741,-105.005361,40.58307,-105.005957,-105.003957,40.581741,40.583741
CO0135143,BIG ELK MEADOWS WA,"80540, Lyons, Colorado",80540,Colorado,Region 8,Community water system,351,,Larimer,11,45,5,-105.360763,40.272831,-105.360763,40.272831,-105.546763,-105.174763,40.086831,40.458831
CO0230190,WONDERVU CONFERENCE AND RETREAT CENTER,"11902 Camp Eden Rd, Golden, Colorado, 80403",80403,Colorado,Region 8,Transient non-community system,228,,Jefferson,7,5,10,-105.393383,39.909744,-105.391171,39.91122,-105.394383,-105.392383,39.908744,39.910744
CO0262508,SPARBOE FARMS OF COLORADO,"425 John Deere Dr, Fort Collins, Colorado, 80524",80524,Colorado,Region 8,Non-Transient non-community system,105,,Weld,5,12,9,-105.004957,40.582741,-105.005361,40.58307,-105.005957,-105.003957,40.581741,40.583741
CO0159050,FARMERS KORNER MHP,"80443, Frisco, Colorado",80443,Colorado,Region 8,Community water system,105,,Summit,5,165,7,-106.103692,39.575741,-106.103692,39.575741,-106.258692,-105.948692,39.420741,39.730741
CO0116552,NORTH LINCOLN WSD,"1560 N Broadway, Denver, Colorado, 80202",80202,Colorado,Region 8,Community water system,1300,,Adams,2,0,4,-104.987335,39.741773,-104.987335,39.741773,-104.997335,-104.977335,39.731773,39.751773
CO0221980,WOLFORD ELEMENTARY SCHOOL DISTRICT 20,"10221 Lexington Dr, Colorado Springs, Colorado, 80920",80920,Colorado,Region 8,Non-Transient non-community system,425,,El Paso,5,18,4,-104.775942,38.979845,-104.775942,38.979845,-104.785942,-104.765942,38.969845,38.989845
CO0240550,MOON VALLEY RANCH RESORT,"81154, South Fork, Colorado",81154,Colorado,Region 8,Transient non-community system,53,,Mineral,4,17,5,-106.576302,37.684176,-106.576302,37.684176,-106.900302,-106.252302,37.360176,38.008176
CO0145270,HILLSIDE TP,"835 Devore Ave, Simi Valley, California, 93065",93065,Colorado,Region 8,Community water system,30,,Otero,5,115,7,-118.779293,34.254886,-118.779521,34.25487,-118.780293,-118.778293,34.253886,34.255886
CO0123500,SUN MEADOW ESTATES,"1011 Grand Ave, Glenwood Springs, Colorado, 81601",81601,Colorado,Region 8,Community water system,49,,Garfield,5,75,2,-107.324917,39.543521,-107.325201,39.54353,-107.325917,-107.323917,39.542521,39.544521
CO0230041,LOST VALLEY RANCH CORP,"29555 Goose Creek Rd, Sedalia, Colorado, 80135",80135,Colorado,Region 8,Transient non-community system,166,,Jefferson,4,9,8,-105.333562,39.222431,-105.333562,39.222431,-105.343562,-105.323562,39.212431,39.232431
CO0150100,A AND B WA INC,"31227 County Road 33, Holly, Colorado, 81047",81047,Colorado,Region 8,Community water system,100,,Prowers,4,60,3,-102.155556,38.091601,-102.161651,38.09159,-102.156556,-102.154556,38.090601,38.092601
CO0254725,HAHNS PEAK ROADHOUSE,"80428, Clark, Colorado",80428,Colorado,Region 8,Transient non-community system,116,,Routt,9,8,2,-106.873507,40.731172,-106.873507,40.731172,-107.111507,-106.635507,40.493172,40.969172
CO0221301,MERIDIAN POINT CHURCH,"10545 Honeyclover Ln, Peyton, Colorado, 80831",80831,Colorado,Region 8,Transient non-community system,100,,El Paso,6,214,3,-104.612647,38.984805,-104.612241,38.9847,-104.613647,-104.611647,38.983805,38.985805
CO0101155,THIRD CREEK WUA,"13830 E 133rd Dr, Brighton, Colorado, 80601",80601,Colorado,Region 8,Community water system,90,,Adams,7,24,2,-104.825998,39.937063,-104.825998,39.937063,-104.835998,-104.815998,39.927063,39.947063
CO0247027,CAMPGROUND OF THE ROCKIES ASSOC,"80440, Fairplay, Colorado",80440,Colorado,Region 8,Transient non-community system,603,,Park,5,6,3,-105.932831,39.168991,-105.932831,39.168991,-106.209831,-105.655831,38.891991,39.445991
CO0262766,ROOM 119 NIGHT CLUB,"153 Eagle Ave, Mead, Colorado, 80542",80542,Colorado,Region 8,Transient non-community system,52,,Weld,3,10,10,-104.992179,40.241208,-104.992179,40.241208,-105.002179,-104.982179,40.231208,40.251208
CO0230006,BLACK MOUNTAIN RANCH,"80463, McCoy, Colorado",80463,Colorado,Region 8,Transient non-community system,61,,Routt,6,4,5,-106.807997,39.858481,-106.807997,39.858481,-106.907997,-106.707997,39.758481,39.958481
CO0112500,FT GARLAND WSD,"81133, Sangre De Cri, Colorado",81133,Colorado,Region 8,Community water system,284,,Costilla,6,17,6,-105.2067,37.500755,-105.2067,37.500755,-105.5107,-104.9027,37.196755,37.804755
CO0135237,EDEN VALLEY INSTITUTE,"9325 World Mission Dr, Loveland, Colorado, 80538",80538,Colorado,Region 8,Community water system,91,,Larimer,10,32,7,-105.222379,40.45665,-105.222379,40.45665,-105.232379,-105.212379,40.44665,40.46665
CO0235188,CRYSTAL LAKES 6TH FILING,"241 Blackfoot Rd, Red Feather Lakes, Colorado, 80545",80545,Colorado,Region 8,Transient non-community system,250,,Larimer,14,2,9,-105.630598,40.848399,-105.630181,40.84828,-105.631598,-105.629598,40.847399,40.849399
CO0154900,YAMPA TOWN OF,"80483, Yampa, Colorado",80483,Colorado,Region 8,Community water system,500,,Routt,3,2,5,-106.906136,40.150475,-106.906136,40.150475,-106.935136,-106.877136,40.121475,40.179475
CO0120300,GAMBEL OAKS HOA,"1311 Conifer Pl, Elizabeth, Colorado, 80107",80107,Colorado,Region 8,Community water system,270,,Elbert,8,24,7,-104.637729,39.421198,-104.637721,39.42132,-104.638729,-104.636729,39.420198,39.422198
CO0223116,AMIS ACRES,"81602, Glenwood Spgs, Colorado",81602,Colorado,Region 8,Transient non-community system,57,,Garfield,7,7,8,-107.326616,39.545561,-107.326616,39.545561,-107.331616,-107.321616,39.540561,39.550561
CO0254185,XCEL ENERGY HAYDEN STATION,"13125 US-40, Hayden, Colorado, 81639",81639,Colorado,Region 8,Non-Transient non-community system,100,,Routt,8,48,4,-107.178499,40.490395,-107.178499,40.490395,-107.188499,-107.168499,40.480395,40.500395
CO0108501,MT PRINCETON HOA,"81211, Buena Vista, Colorado",81211,Colorado,Region 8,Community water system,114,,Chaffee,3,9,3,-106.152196,38.835851,-106.152196,38.835851,-106.422196,-105.882196,38.565851,39.105851
CO0222700,HOLCIM INC,"3500 CO-120, Florence, Colorado, 81226",81226,Colorado,Region 8,Non-Transient non-community system,200,,Fremont,4,0,4,-105.039175,38.386951,-105.039175,38.386951,-105.049175,-105.029175,38.376951,38.396951
CO0259012,PEAK 8 VILLAGE CONDOS,"80424, Breckenridge, Colorado",80424,Colorado,Region 8,Transient non-community system,112,,Summit,5,15,5,-106.044462,39.48253,-106.044462,39.48253,-106.250462,-105.838462,39.27653,39.68853
CO0122500,FLORENCE CITY OF,"600 W 3rd St, Florence, Colorado, 81226",81226,Colorado,Region 8,Community water system,6838,,Fremont,14,67,7,-105.123684,38.393895,-105.123261,38.39424,-105.124684,-105.122684,38.392895,38.394895
CO0122700,PENROSE WD,"340 Grant St, Penrose, Colorado, 81240",81240,Colorado,Region 8,Community water system,3298,,Fremont,11,10,4,-105.022656,38.425861,-105.022321,38.42585,-105.023656,-105.021656,38.424861,38.426861
CO0254667,RAINDROP WATER HAULER,"31925 County Road 41, Steamboat Springs, Colorado, 80487",80487,Colorado,Region 8,Transient non-community system,25,,Routt,3,2,2,-106.889353,40.389161,-106.889353,40.389161,-106.899353,-106.879353,40.379161,40.399161
CO0201417,JOHNSON AUTO PLAZA,"9377 E 147th Pl, Brighton, Colorado, 80602",80602,Colorado,Region 8,Non-Transient non-community system,160,,Adams,4,3,4,-104.879051,39.963916,-104.878581,39.96436,-104.880051,-104.878051,39.962916,39.964916
CO0234880,VALLECITO RESORT,"81122, Chimney Rock, Colorado",81122,Colorado,Region 8,Transient non-community system,250,,La Plata,6,4,4,-107.594952,37.240191,-107.594952,37.240191,-107.993952,-107.195952,36.841191,37.639191
CO0108415,GAME TRAIL ASSOCIATION INC,"30503 Timberline Dr, Buena Vista, Colorado, 81211",81211,Colorado,Region 8,Community water system,430,,Chaffee,19,28,3,-106.211629,38.862322,-106.211331,38.86239,-106.212629,-106.210629,38.861322,38.863322
CO0236550,SPANISH PEAKS LANDOWNERS ASSOCIATION INC,"81082, Trinidad, Colorado",81082,Colorado,Region 8,Transient non-community system,225,,Las Animas,13,20,3,-104.504117,37.169243,-104.504117,37.169243,-104.941117,-104.067117,36.732243,37.606243
CO0145750,VALLEY WC,"13410 US-50, Manzanola, Colorado, 81058",81058,Colorado,Region 8,Community water system,270,,Otero,8,18,6,-103.830542,38.097604,-103.831531,38.09608,-103.831542,-103.829542,38.096604,38.098604
CO0253860,RIO GRANDE WATER CO LLC,"81154, South Fork, Colorado",81154,Colorado,Region 8,Community water system,265,,Rio Grande,6,62,3,-106.576302,37.684176,-106.576302,37.684176,-106.900302,-106.252302,37.360176,38.008176
CO0254901,YAMPA RIVER STATE PARK,"81639, Hayden, Colorado",81639,Colorado,Region 8,Transient non-community system,62,,Routt,4,2,4,-107.264929,40.504167,-107.264929,40.504167,-107.763929,-106.765929,40.005167,41.003167
CO0203233,EASTERN SERVICE CENTER,"13031 E Caley Ave, Centennial, Colorado, 80111",80111,Colorado,Region 8,Non-Transient non-community system,30,,Arapahoe,6,21,2,-104.837351,39.601468,-104.836251,39.60367,-104.838351,-104.836351,39.600468,39.602468
CO0263003,IDALIA SCHOOL,"80735, Idalia, Colorado",80735,Colorado,Region 8,Non-Transient non-community system,222,,Yuma,5,83,6,-102.294136,39.702546,-102.294136,39.702546,-102.569136,-102.019136,39.427546,39.977546
CO0120244,ELKHORN RANCH MD NO 1,"13031 E Caley Ave, Centennial, Colorado, 80111",80111,Colorado,Region 8,Community water system,269,,Elbert,5,1,2,-104.837351,39.601468,-104.836251,39.60367,-104.838351,-104.836351,39.600468,39.602468
CO0107702,SAN SOUCI MHP,"5600 S Quebec St, Greenwood Village, Colorado, 80111",80111,Colorado,Region 8,Community water system,150,,Boulder,4,88,8,-104.903936,39.61405,-104.902631,39.61406,-104.904936,-104.902936,39.61305,39.61505
CO0203002,ARAPAHOE CNTY WWWA,"13031 E Caley Ave, Centennial, Colorado, 80111",80111,Colorado,Region 8,Community water system,31000,,Arapahoe,47,4,4,-104.837351,39.601468,-104.836251,39.60367,-104.838351,-104.836351,39.600468,39.602468
CO0235618,JELLYSTONE PARK OF ESTES PARK,"5495 US-36, Estes Park, Colorado, 80517",80517,Colorado,Region 8,Transient non-community system,423,,Larimer,9,1,6,-105.430956,40.340878,-105.430271,40.34096,-105.431956,-105.429956,40.339878,40.341878
CO0134300,FLORIDA RIVER ESTATES HOA INC,"81302, Durango, Colorado",81302,Colorado,Region 8,Community water system,239,,La Plata,4,9,5,-107.882552,37.27206,-107.882552,37.27206,-107.887552,-107.877552,37.26706,37.27706
CO0225135,BAR LAZY J GUEST RANCH,"80468, Parshall, Colorado",80468,Colorado,Region 8,Transient non-community system,47,,Grand,3,14,3,-106.246682,39.980443,-106.246682,39.980443,-106.612682,-105.880682,39.614443,40.346443
CO0230233,WEST RANCH CENTER,"2899 N Speer Blvd, Denver, Colorado, 80211",80211,Colorado,Region 8,Non-Transient non-community system,75,,Jefferson,4,18,6,-105.021275,39.758365,-105.021391,39.75824,-105.022275,-105.020275,39.757365,39.759365
CO0128100,CUCHARA WSD,"16925 State Highway 12, La Veta, Colorado, 81055",81055,Colorado,Region 8,Community water system,1400,,Huerfano,11,45,8,-105.105186,37.372655,-105.105501,37.37265,-105.106186,-105.104186,37.371655,37.373655
CO0162285,FOXHILLS HOA,"10154 County Road 37, Fort Lupton, Colorado, 80621",80621,Colorado,Region 8,Community water system,45,,Weld,4,18,5,-104.715856,40.14846,-104.714611,40.14846,-104.716856,-104.714856,40.14746,40.14946
CO0360180,COLORADO SOUTH MEADOWS PIKE CG,"601 S Weber St, Colorado Springs, Colorado, 80903",80903,Colorado,Region 8,Transient non-community system,634,,Teller,5,1,3,-104.820287,38.825099,-104.819821,38.82509,-104.821287,-104.819287,38.824099,38.826099
CO0162833,WATTENBURG IMPROVEMENT ASSOC,"1909 Caroline Ave, Fort Lupton, Colorado, 80621",80621,Colorado,Region 8,Community water system,350,,Weld,4,6,5,-104.837407,40.0281,-104.837701,40.02807,-104.838407,-104.836407,40.0271,40.0291
CO0253950,WOLF CREEK SKI LODGE,"31042 W US Highway 160, South Fork, Colorado, 81154",81154,Colorado,Region 8,Transient non-community system,27,,Rio Grande,4,9,5,-106.648168,37.662266,-106.648168,37.662266,-106.658168,-106.638168,37.652266,37.672266
CO0128400,HUAJATOLLA VALLEY ESTATES INC,"81055, La Veta, Colorado",81055,Colorado,Region 8,Community water system,96,,Huerfano,4,21,4,-105.117372,37.354761,-105.117372,37.354761,-105.441372,-104.793372,37.030761,37.678761
CO0254720,STEAMBOAT LAKE STATE PARK,"80428, Clark, Colorado",80428,Colorado,Region 8,Transient non-community system,1092,,Routt,8,2,5,-106.873507,40.731172,-106.873507,40.731172,-107.111507,-106.635507,40.493172,40.969172
CO0230355,285 BUSINESS PARK,"19356 Goddard Ranch Ct, Morrison, Colorado, 80465",80465,Colorado,Region 8,Non-Transient non-community system,46,,Jefferson,3,2,7,-105.220343,39.586604,-105.221051,39.58565,-105.221343,-105.219343,39.585604,39.587604
CO0219685,ROUNDUP RIVER RANCH,"833 Colorado River Rd, Gypsum, Colorado, 81637",81637,Colorado,Region 8,Transient non-community system,110,,Eagle,4,5,0,-107.071241,39.656659,-107.071241,39.656659,-107.081241,-107.061241,39.646659,39.666659
CO0208410,GUNSMOKE TRAVEL PLAZA,"81211, Buena Vista, Colorado",81211,Colorado,Region 8,Transient non-community system,268,,Chaffee,3,4,4,-106.152196,38.835851,-106.152196,38.835851,-106.422196,-105.882196,38.565851,39.105851
CO0212800,SIERRA GRANDE SCHOOL DISTRICT,"17523 US-160, Blanca, Colorado, 81123",81123,Colorado,Region 8,Non-Transient non-community system,351,,Costilla,4,61,7,-105.456799,37.429888,-105.456501,37.43179,-105.457799,-105.455799,37.428888,37.430888
CO0122250,COAL CREEK TOWN OF,"81221, Coal Creek, Colorado",81221,Colorado,Region 8,Community water system,301,,Fremont,2,2,4,-105.14673,38.361796,-105.14673,38.361796,-105.15173,-105.14173,38.356796,38.366796
CO0259318,GOOD TIMES ADVENTOUR TOURS,"80443, Frisco, Colorado",80443,Colorado,Region 8,Transient non-community system,100,,Summit,3,4,3,-106.103692,39.575741,-106.103692,39.575741,-106.258692,-105.948692,39.420741,39.730741
CO0208815,SPRING CANYON CAMP AND CC,"81211, Buena Vista, Colorado",81211,Colorado,Region 8,Transient non-community system,115,,Chaffee,7,5,4,-106.152196,38.835851,-106.152196,38.835851,-106.422196,-105.882196,38.565851,39.105851
CO0347305,HALL VALLEY CG,"30403 Kings Valley Dr, Conifer, Colorado, 80433",80433,Colorado,Region 8,Transient non-community system,34,,Park,2,1,4,-105.34856,39.491974,-105.347661,39.4922,-105.34956,-105.34756,39.490974,39.492974
CO0347308,HANDCART CG,"30403 Kings Valley Dr, Conifer, Colorado, 80433",80433,Colorado,Region 8,Transient non-community system,30,,Park,3,4,3,-105.34856,39.491974,-105.347661,39.4922,-105.34956,-105.34756,39.490974,39.492974
CO0318282,FLAT ROCKS CAMPGROUND,"30403 Kings Valley Dr, Conifer, Colorado, 80433",80433,Colorado,Region 8,Transient non-community system,72,,Douglas,3,4,2,-105.34856,39.491974,-105.347661,39.4922,-105.34956,-105.34756,39.490974,39.492974
CO0226333,HARMELS RANCH RESORT,"81210, Almont, Colorado",81210,Colorado,Region 8,Transient non-community system,198,,Gunnison,5,9,9,-106.480196,38.754563,-106.480196,38.754563,-106.908196,-106.052196,38.326563,39.182563
CO0247031,STAGE STOP STORE AND SALOON,"477 Mount Bailey Dr, Bailey, Colorado, 80421",80421,Colorado,Region 8,Transient non-community system,26,,Park,5,12,1,-105.456886,39.415478,-105.456941,39.41566,-105.457886,-105.455886,39.414478,39.416478
CO0253810,SOUTH FORK LODGE,"81154, South Fork, Colorado",81154,Colorado,Region 8,Transient non-community system,72,,Rio Grande,5,12,5,-106.576302,37.684176,-106.576302,37.684176,-106.900302,-106.252302,37.360176,38.008176
CO0143518,MONTROSE CITY OF,"81402, Montrose, Colorado",81402,Colorado,Region 8,Community water system,17000,,Montrose,7,0,5,-107.876611,38.478571,-107.876611,38.478571,-107.881611,-107.871611,38.473571,38.483571
CO0145360,HOMESTEAD IMPROVEMENT ASSOCIATION INC,"9810 County Road 804, La Junta, Colorado, 81050",81050,Colorado,Region 8,Community water system,65,,Otero,4,7,4,-103.458997,37.773792,-103.457911,37.77382,-103.459997,-103.457997,37.772792,37.774792
CO0215166,CAMP CEDAREDGE,"19986 Highway 65, Cedaredge, Colorado, 81413",81413,Colorado,Region 8,Transient non-community system,164,,Delta,3,6,5,-107.925251,38.943524,-107.922011,38.94443,-107.926251,-107.924251,38.942524,38.944524
CO0235713,SKY RANCH LUTHERAN CAMP,"425 John Deere Dr, Fort Collins, Colorado, 80524",80524,Colorado,Region 8,Transient non-community system,226,,Larimer,4,6,8,-105.004957,40.582741,-105.005361,40.58307,-105.005957,-105.003957,40.581741,40.583741
CO0108600,MOUNTAIN VISTA VILLAGE,"505 River Dr, Salida, Colorado, 81201",81201,Colorado,Region 8,Community water system,100,,Chaffee,8,36,5,-105.981365,38.528759,-105.981141,38.5287,-105.982365,-105.980365,38.527759,38.529759
CO0211318,GOLD PAN RV AND CABINS,"120 Conejos Ave, Antonito, Colorado, 81120",81120,Colorado,Region 8,Transient non-community system,505,,Conejos,2,6,0,-106.193904,37.048218,-106.193904,37.048218,-106.203904,-106.183904,37.038218,37.058218
CO0235624,POUDRE RIVER PARADISE,"9940 Poudre Canyon Hwy, Bellvue, Colorado, 80512",80512,Colorado,Region 8,Transient non-community system,54,,Larimer,3,5,3,-105.301923,40.685768,-105.302081,40.68641,-105.302923,-105.300923,40.684768,40.686768
CO0225205,DEVILS THUMB RANCH RESORT,"80478, Tabernash, Colorado",80478,Colorado,Region 8,Non-Transient non-community system,451,,Grand,7,16,3,-105.846762,39.993441,-105.846762,39.993441,-106.032762,-105.660762,39.807441,40.179441
CO0262155,BRIGGSDALE SCHOOL,"425 John Deere Dr, Fort Collins, Colorado, 80524",80524,Colorado,Region 8,Non-Transient non-community system,161,,Weld,7,4,11,-105.004957,40.582741,-105.005361,40.58307,-105.005957,-105.003957,40.581741,40.583741
CO0113700,ORDWAY TOWN OF,"232 Main St, Crowley, Colorado, 81063",81063,Colorado,Region 8,Community water system,1300,,Crowley,17,62,3,-103.85694,38.194151,-103.85694,38.194151,-103.86694,-103.84694,38.184151,38.204151
CO0107115,ALLENSPARK WSD,"80510, Allenspark, Colorado",80510,Colorado,Region 8,Community water system,90,,Boulder,4,84,7,-105.522069,40.241394,-105.522069,40.241394,-105.678069,-105.366069,40.085394,40.397394
CO0134630,NARROW GAUGE MHP,"3661 County Road 502, Bayfield, Colorado, 81122",81122,Colorado,Region 8,Community water system,150,,La Plata,6,13,3,-107.635284,37.260953,-107.636861,37.25924,-107.636284,-107.634284,37.259953,37.261953
CO0144015,LOG LANE VILLAGE TOWN OF,"80705, Log Lane Village, Colorado",80705,Colorado,Region 8,Community water system,1006,,Morgan,8,8,4,-103.828152,40.27009,-103.828152,40.27009,-103.837152,-103.819152,40.26109,40.27909
CO0251950,YMCA CAMP JACKSON,"9126 State Highway 165, Rye, Colorado, 81069",81069,Colorado,Region 8,Transient non-community system,120,,Pueblo,4,9,3,-105.003525,37.955423,-105.003525,37.955423,-105.013525,-104.993525,37.945423,37.965423
CO0239615,PLATEAU VALLEY SCHOOL DIST 50,"56600 Highway 330, Collbran, Colorado, 81624",81624,Colorado,Region 8,Non-Transient non-community system,386,,Mesa,4,0,6,-107.995979,39.233058,-107.996411,39.23402,-107.996979,-107.994979,39.232058,39.234058
CO0102100,ALAMOSA CITY OF,"81101, Great Sand Dunes National Mo, Colorado",81101,Colorado,Region 8,Community water system,9133,,Alamosa,19,219,6,-105.887451,37.474241,-105.887451,37.474241,-106.285451,-105.489451,37.076241,37.872241
CO0107485,LONGMONT CITY OF,"375 Airport Rd, Longmont, Colorado, 80503",80503,Colorado,Region 8,Community water system,85000,,Boulder,21,39,6,-105.154525,40.166595,-105.154525,40.166595,-105.164525,-105.144525,40.156595,40.176595
CO0107538,NEDERLAND TOWN OF,"80466, Nederland, Colorado",80466,Colorado,Region 8,Community water system,2000,,Boulder,11,24,7,-105.432835,39.968541,-105.432835,39.968541,-105.694835,-105.170835,39.706541,40.230541
CO0108375,CASA DEL RIO SUBD,"81211, Buena Vista, Colorado",81211,Colorado,Region 8,Community water system,30,,Chaffee,4,2,2,-106.152196,38.835851,-106.152196,38.835851,-106.422196,-105.882196,38.565851,39.105851
CO0347430,KENOSHA CG,"30403 Kings Valley Dr, Conifer, Colorado, 80433",80433,Colorado,Region 8,Transient non-community system,91,,Park,3,1,3,-105.34856,39.491974,-105.347661,39.4922,-105.34956,-105.34756,39.490974,39.492974
CO0132020,STRATTON TOWN OF,"118 Colorado Ave, Stratton, Colorado, 80836",80836,Colorado,Region 8,Community water system,960,,Kit Carson,11,84,8,-102.605027,39.305691,-102.605321,39.3057,-102.606027,-102.604027,39.304691,39.306691
CO0218101,COMMUNITY BAPTIST CHURCH,"5451 E Highway 86, Franktown, Colorado, 80116",80116,Colorado,Region 8,Transient non-community system,303,,Douglas,5,6,5,-104.782727,39.395737,-104.782401,39.39692,-104.783727,-104.781727,39.394737,39.396737
CO0234740,ROOT CREEK WA,"14548 County Road 501, Bayfield, Colorado, 81122",81122,Colorado,Region 8,Transient non-community system,243,,La Plata,4,7,3,-107.567513,37.394087,-107.567031,37.39355,-107.568513,-107.566513,37.393087,37.395087
CO0103035,EAST CHERRY CREEK VALLEY WSD,"6201 S Gun Club Rd, Aurora, Colorado, 80016",80016,Colorado,Region 8,Community water system,50500,,Arapahoe,183,708,7,-104.716757,39.604181,-104.718461,39.60421,-104.717757,-104.715757,39.603181,39.605181
CO0224210,GILPIN COUNTY SCHOOL,"425 John Deere Dr, Fort Collins, Colorado, 80524",80524,Colorado,Region 8,Non-Transient non-community system,500,,Gilpin,7,26,7,-105.004957,40.582741,-105.005361,40.58307,-105.005957,-105.003957,40.581741,40.583741
CO0126715,SOMERSET TOWN OF,"81434, Somerset, Colorado",81434,Colorado,Region 8,Community water system,100,,Gunnison,2,1,3,-107.362306,39.024386,-107.362306,39.024386,-107.670306,-107.054306,38.716386,39.332386
CO0103081,ROLLING PLAINS ESTATE,"80136, Strasburg, Colorado",80136,Colorado,Region 8,Community water system,35,,Arapahoe,5,37,4,-104.3263,39.744858,-104.3263,39.744858,-104.5823,-104.0703,39.488858,40.000858
CO0353050,ASPEN GLADE CG,"1803 W US Highway 160, Monte Vista, Colorado, 81144",81144,Colorado,Region 8,Transient non-community system,34,,Conejos,6,0,1,-106.181622,37.582028,-106.181631,37.58273,-106.182622,-106.180622,37.581028,37.583028
CO0223680,RIO BLANCO RANCH COMPANY,"393 County Road 75, Meeker, Colorado, 81641",81641,Colorado,Region 8,Transient non-community system,75,,Garfield,13,7,1,-107.503524,40.031478,-107.503521,40.03149,-107.504524,-107.502524,40.030478,40.032478
CO0330450,LONE ROCK CG,"30403 Kings Valley Dr, Conifer, Colorado, 80433",80433,Colorado,Region 8,Transient non-community system,72,,Jefferson,4,5,4,-105.34856,39.491974,-105.347661,39.4922,-105.34956,-105.34756,39.490974,39.492974
CO0353700,THIRTY MILE CG,"1803 W US Highway 160, Monte Vista, Colorado, 81144",81144,Colorado,Region 8,Transient non-community system,66,,Hinsdale,4,2,2,-106.181622,37.582028,-106.181631,37.58273,-106.182622,-106.180622,37.581028,37.583028
CO0347510,MERIDIAN CG,"30403 Kings Valley Dr, Conifer, Colorado, 80433",80433,Colorado,Region 8,Transient non-community system,54,,Park,2,1,5,-105.34856,39.491974,-105.347661,39.4922,-105.34956,-105.34756,39.490974,39.492974
CO0126325,GUNNISON CITY OF,"1100 W Virginia Ave, Gunnison, Colorado, 81230",81230,Colorado,Region 8,Community water system,7620,,Gunnison,22,8,6,-106.940862,38.545548,-106.940881,38.54589,-106.941862,-106.939862,38.544548,38.546548
CO0121220,PAR PROPERTIES LLC,"9548 Waterbury Dr, Peyton, Colorado, 80831",80831,Colorado,Region 8,Community water system,67,,El Paso,3,156,6,-104.61555,38.970774,-104.615771,38.97035,-104.61655,-104.61455,38.969774,38.971774
CO0221725,SNOW WOLF LODGE,"81147, Pagosa Spgs, Colorado",81147,Colorado,Region 8,Transient non-community system,26,,Archuleta,5,1,1,-107.076857,37.257799,-107.076857,37.257799,-107.676857,-106.476857,36.657799,37.857799
CO0130035,GENESEE WSD,"2310 Bitterroot Ln, Golden, Colorado, 80401",80401,Colorado,Region 8,Community water system,4100,,Jefferson,14,62,7,-105.272601,39.673616,-105.271681,39.67391,-105.273601,-105.271601,39.672616,39.674616
CO0136100,AGUILAR TOWN OF,"81020, Aguilar, Colorado",81020,Colorado,Region 8,Community water system,825,,Las Animas,19,37,8,-104.65307,37.40223,-104.65307,37.40223,-105.04807,-104.25807,37.00723,37.79723
CO0226736,TAYLOR PARK TRADING POST,"23044 CR-742, Almont, Colorado, 81210",81210,Colorado,Region 8,Transient non-community system,221,,Gunnison,9,8,7,-106.560767,38.821336,-106.555521,38.82236,-106.561767,-106.559767,38.820336,38.822336
CO0118002,BELL MTN RANCH,"11919 W I-70 Frontage Rd N, Wheat Ridge, Colorado, 80033",80033,Colorado,Region 8,Community water system,1000,,Douglas,9,1,4,-105.132463,39.784822,-105.132463,39.784822,-105.142463,-105.122463,39.774822,39.794822
CO0218165,CANYONS COMMUNITY CHURCH,"4825 N Crowfoot Valley Rd, Castle Rock, Colorado, 80108",80108,Colorado,Region 8,Transient non-community system,75,,Douglas,3,0,2,-104.822028,39.431918,-104.822028,39.431918,-104.832028,-104.812028,39.421918,39.441918
CO0123605,PEACH VALLEY ORCHARD SUBD,"81652, Silt, Colorado",81652,Colorado,Region 8,Community water system,27,,Garfield,3,1,3,-107.652091,39.54933,-107.652091,39.54933,-107.835091,-107.469091,39.36633,39.73233
CO0262513,MOUNTAIN STATES JATC TRAINING FACILITY,"8781 S Redwood Rd, West Jordan, Utah, 84088",84088,Colorado,Region 8,Transient non-community system,100,,Weld,4,1,2,-111.938685,40.59157,-111.937931,40.59157,-111.939685,-111.937685,40.59057,40.59257
CO0120003,CLEARWATER MD,"80163, Highlands Ranch, Colorado",80163,Colorado,Region 8,Community water system,200,,Elbert,4,17,3,-104.915322,39.542081,-104.915322,39.542081,-104.920322,-104.910322,39.537081,39.547081
CO0162707,SEVERANCE TOWN OF,"80546, Severance, Colorado",80546,Colorado,Region 8,Community water system,2300,,Weld,4,3,4,-104.850271,40.523081,-104.850271,40.523081,-104.853271,-104.847271,40.520081,40.526081
CO0262170,CARDINAL COMMUNITY ACADEMY,"3101 County Road 65, Keenesburg, Colorado, 80643",80643,Colorado,Region 8,Non-Transient non-community system,120,,Weld,3,2,7,-104.451627,40.045101,-104.452761,40.04511,-104.452627,-104.450627,40.044101,40.046101
CO0135342,HIGH COUNTRY ESTATES,"80525, Timnath, Colorado",80525,Colorado,Region 8,Transient non-community system,39,,Larimer,6,2,7,-105.065512,40.54598,-105.065512,40.54598,-105.186512,-104.944512,40.42498,40.66698
CO0321525,MONUMENT WORK CENTER NO 1,"601 S Weber St, Colorado Springs, Colorado, 80903",80903,Colorado,Region 8,Transient non-community system,77,,El Paso,4,3,1,-104.820287,38.825099,-104.819821,38.82509,-104.821287,-104.819287,38.824099,38.826099
CO0130152,BONVUE,"270 S Hoyt St, Lakewood, Colorado, 80226",80226,Colorado,Region 8,Community water system,400,,Jefferson,3,0,4,-105.104266,39.71202,-105.103931,39.71203,-105.105266,-105.103266,39.71102,39.71302
CO0135538,NEWELL WARNOCK WA,"71 Sylvia Ct, Loveland, Colorado, 80537",80537,Colorado,Region 8,Community water system,160,,Larimer,5,54,5,-105.278186,40.360778,-105.278551,40.36064,-105.279186,-105.277186,40.359778,40.361778
CO0115352,HOTCHKISS TOWN OF,"81419, Hotchkiss, Colorado",81419,Colorado,Region 8,Community water system,1120,,Delta,10,85,9,-107.718391,38.801011,-107.718391,38.801011,-108.005391,-107.431391,38.514011,39.088011
CO0215115,ALEXANDER LAKE LODGE,"81413, Cedaredge, Colorado",81413,Colorado,Region 8,Transient non-community system,100,,Delta,4,14,3,-107.928806,38.900464,-107.928806,38.900464,-108.129806,-107.727806,38.699464,39.101464
CO0121300,FOUNTAIN VALLEY AUTHORITY,"701 E Las Vegas St, Colorado Springs, Colorado, 80903",80903,Colorado,Region 8,Community water system,0,,El Paso,10,2,3,-104.807522,38.814404,-104.808471,38.81285,-104.808522,-104.806522,38.813404,38.815404
CO0221820,SEVEN FALLS COMPANY LUNCH ROOM,"750 El Pomar Rd, Colorado Springs, Colorado, 80906",80906,Colorado,Region 8,Transient non-community system,162,,El Paso,5,4,4,-104.854827,38.788831,-104.855451,38.78905,-104.855827,-104.853827,38.787831,38.789831
CO0257738,TELLURIDE SKI LIFT 5,"565 Mountain Village Blvd, Mountain Village, Colorado, 81435",81435,Colorado,Region 8,Transient non-community system,106,SAN MIGUEL,,4,0,0,-107.848068,37.935797,-107.848068,37.935797,-107.858068,-107.838068,37.925797,37.945797
CO0130145,CONSOLIDATED MUTUAL NO2,"12700 W 27th Ave, Lakewood, Colorado, 80215",80215,Colorado,Region 8,Community water system,61948,,Jefferson,29,1,4,-105.140071,39.755573,-105.139791,39.75279,-105.141071,-105.139071,39.754573,39.756573
CO0133150,MOUNTAIN VIEW VILLAGE WEST,"38505 Woodward Ave, Bloomfield Hills, Michigan, 48304",48304,Colorado,Region 8,Community water system,440,,Lake,6,1,5,-83.230095,42.567348,-83.230811,42.56699,-83.231095,-83.229095,42.566348,42.568348
CO0230743,TINY TOWN HISTORICAL PARK,"11919 W I-70 Frontage Rd N, Wheat Ridge, Colorado, 80033",80033,Colorado,Region 8,Transient non-community system,1205,,Jefferson,5,4,8,-105.132463,39.784822,-105.132463,39.784822,-105.142463,-105.122463,39.774822,39.794822
CO0133600,MOUNTAIN VIEW VILLAGE EAST,"38505 Woodward Ave, Bloomfield Hills, Michigan, 48304",48304,Colorado,Region 8,Community water system,226,,Lake,4,18,5,-83.230095,42.567348,-83.230811,42.56699,-83.231095,-83.229095,42.566348,42.568348
CO0157600,OPHIR TOWN OF,"81426, Ophir, Colorado",81426,Colorado,Region 8,Community water system,145,,San Miguel,10,156,5,-107.864862,37.858941,-107.864862,37.858941,-107.976862,-107.752862,37.746941,37.970941
CO0360625,PAINTED ROCKS MANITOU LAKE CG,"601 S Weber St, Colorado Springs, Colorado, 80903",80903,Colorado,Region 8,Transient non-community system,69,,Teller,4,1,3,-104.820287,38.825099,-104.819821,38.82509,-104.821287,-104.819287,38.824099,38.826099
CO0155200,BACA GRANDE WSD,"81131, Crestone, Colorado",81131,Colorado,Region 8,Community water system,1000,,Saguache,16,40,5,-105.698966,37.994615,-105.698966,37.994615,-105.837966,-105.559966,37.855615,38.133615
CO0101187,CRESTWOOD ESTATES,"86304, Prescott, Arizona",86304,Colorado,Region 8,Community water system,30,,Adams,4,0,1,-112.478561,34.548321,-112.478561,34.548321,-112.483561,-112.473561,34.543321,34.553321
CO0210005,SHWAYDER CAMP TEMPLE EMANUEL,"51 Grape St, Denver, Colorado, 80220",80220,Colorado,Region 8,Transient non-community system,151,,Clear Creek,4,2,4,-104.924647,39.717031,-104.925771,39.71703,-104.925647,-104.923647,39.716031,39.718031
CO0240850,WOLF CREEK SKI CORP,"81147, Pagosa Spgs, Colorado",81147,Colorado,Region 8,Transient non-community system,1700,,Mineral,7,11,5,-107.076857,37.257799,-107.076857,37.257799,-107.676857,-106.476857,36.657799,37.857799
CO0360190,CRAGS CAMPGROUND NO 1 LOWER,"601 S Weber St, Colorado Springs, Colorado, 80903",80903,Colorado,Region 8,Transient non-community system,61,,Teller,2,2,3,-104.820287,38.825099,-104.819821,38.82509,-104.821287,-104.819287,38.824099,38.826099
CO0154725,STEAMBOAT SPRINGS CITY OF,"80477, Steamboat Springs, Colorado",80477,Colorado,Region 8,Community water system,7900,,Routt,5,2,6,-106.826591,40.489161,-106.826591,40.489161,-106.827591,-106.825591,40.488161,40.490161
CO0134690,WESTSIDE MHP,"25-31 30th Rd, Queens, New York, 11102",11102,Colorado,Region 8,Community water system,236,,La Plata,7,27,4,-73.924319,40.767426,-73.924201,40.76758,-73.925319,-73.923319,40.766426,40.768426
CO0121850,WALDEN WSD,"9548 Waterbury Dr, Peyton, Colorado, 80831",80831,Colorado,Region 8,Community water system,550,,El Paso,14,5,5,-104.61555,38.970774,-104.615771,38.97035,-104.61655,-104.61455,38.969774,38.971774
CO0230021,BEAR CREEK CABINS,"27400 Highway 74, Evergreen, Colorado, 80439",80439,Colorado,Region 8,Transient non-community system,30,,Jefferson,3,10,6,-105.308313,39.642917,-105.307821,39.64253,-105.309313,-105.307313,39.641917,39.643917
CO0201607,PETROCCO FARMS,"14110 Brighton Rd, Brighton, Colorado, 80601",80601,Colorado,Region 8,Transient non-community system,42,,Adams,6,10,5,-104.845059,39.95278,-104.844711,39.9526,-104.846059,-104.844059,39.95178,39.95378
CO0101095,LINCOLN MHP AND MOTEL,"4761 S Pagosa Cir, Aurora, Colorado, 80015",80015,Colorado,Region 8,Community water system,225,,Adams,4,14,5,-104.789982,39.629998,-104.789971,39.63017,-104.790982,-104.788982,39.628998,39.630998
CO0101175,HOPE DITCH CO,"2560 E 165th Ave, Thornton, Colorado, 80602",80602,Colorado,Region 8,Community water system,63,,Adams,6,24,5,-104.956161,39.995273,-104.956161,39.99509,-104.957161,-104.955161,39.994273,39.996273
CO0106500,MCCLAVE WA INC,"81057, McClave, Colorado",81057,Colorado,Region 8,Community water system,440,,Bent,16,38,6,-102.851013,38.142814,-102.851013,38.142814,-103.069013,-102.633013,37.924814,38.360814
CO0158005,OVID TOWN OF,"211 Main St, Ovid, Colorado, 80744",80744,Colorado,Region 8,Community water system,330,,Sedgwick,5,29,6,-102.38782,40.959679,-102.38782,40.959679,-102.39782,-102.37782,40.949679,40.969679
CO0118035,LOUVIERS WSD,"3995 S Castlewood Canyon Rd, Castle Rock, Colorado, 80104",80104,Colorado,Region 8,Community water system,476,,Douglas,5,16,5,-104.768515,39.302693,-104.772371,39.30213,-104.769515,-104.767515,39.301693,39.303693
CO0162155,BRIGGSDALE WC,"80611, Briggsdale, Colorado",80611,Colorado,Region 8,Community water system,80,,Weld,6,16,4,-104.330047,40.634536,-104.330047,40.634536,-104.668047,-103.992047,40.296536,40.972536
CO0162610,PIERCE TOWN OF,"80650, Pierce, Colorado",80650,Colorado,Region 8,Community water system,850,,Weld,6,62,5,-104.756921,40.631241,-104.756921,40.631241,-104.888921,-104.624921,40.499241,40.763241
CO0130321,GREEN MOUNTAIN WSD,"13919 W Utah Ave, Lakewood, Colorado, 80228",80228,Colorado,Region 8,Community water system,25000,,Jefferson,23,0,4,-105.153501,39.685853,-105.153241,39.68602,-105.154501,-105.152501,39.684853,39.686853
CO0223675,RIFLE FALLS STATE PARK,"5775 Highway 325, Rifle, Colorado, 81650",81650,Colorado,Region 8,Transient non-community system,190,,Garfield,3,4,5,-107.735627,39.63165,-107.735627,39.63165,-107.745627,-107.725627,39.62165,39.64165
CO0225167,C LAZY U RANCH,"80446, Granby, Colorado",80446,Colorado,Region 8,Transient non-community system,146,,Grand,6,13,7,-105.918233,40.059667,-105.918233,40.059667,-106.206233,-105.630233,39.771667,40.347667
CO0211185,CONEJOS COUNTY COURTHOUSE,"81120, Antonito, Colorado",81120,Colorado,Region 8,Non-Transient non-community system,80,,Conejos,4,192,1,-106.293295,37.076837,-106.293295,37.076837,-106.868295,-105.718295,36.501837,37.651837
CO0259176,CHRIST LUTHERAN CHURCH SCHOOL,"80443, Frisco, Colorado",80443,Colorado,Region 8,Transient non-community system,30,,Summit,4,5,3,-106.103692,39.575741,-106.103692,39.575741,-106.258692,-105.948692,39.420741,39.730741
CO0260700,SANBORN WESTERN CAMPS,"80816, Florissant, Colorado",80816,Colorado,Region 8,Non-Transient non-community system,736,,Teller,10,34,6,-105.321517,38.945656,-105.321517,38.945656,-105.704517,-104.938517,38.562656,39.328656
CO0107189,CRYSTAL SPRING WATER,"80510, Allenspark, Colorado",80510,Colorado,Region 8,Transient non-community system,90,,Boulder,5,27,3,-105.522069,40.241394,-105.522069,40.241394,-105.678069,-105.366069,40.085394,40.397394
CO0159095,SILVERTHORNE TOWN OF,"80498, Heeney, Colorado",80498,Colorado,Region 8,Community water system,3520,,Summit,20,96,6,-106.070963,39.661301,-106.070963,39.661301,-106.440963,-105.700963,39.291301,40.031301
CO0219710,SHRINE MOUNTAIN INN,"321 Stark Mesa Rd, Carbondale, Colorado, 81623",81623,Colorado,Region 8,Transient non-community system,36,,Eagle,5,4,2,-107.189198,39.355497,-107.189198,39.355497,-107.199198,-107.179198,39.345497,39.365497
CO0260200,CHRIST HAVEN LODGE,"178 Palmer Dr, Florissant, Colorado, 80816",80816,Colorado,Region 8,Transient non-community system,58,,Teller,4,8,4,-105.242966,38.925284,-105.243611,38.92507,-105.243966,-105.241966,38.924284,38.926284
CO0240500,MOUNTAIN VIEW AT RIVERS EDGE RV,"81130, Creede, Colorado",81130,Colorado,Region 8,Transient non-community system,300,,Mineral,4,13,6,-106.999107,37.775104,-106.999107,37.775104,-107.381107,-106.617107,37.393104,38.157104
CO0157700,SAWPIT TOWN OF,"81430, Placerville, Colorado",81430,Colorado,Region 8,Community water system,45,,San Miguel,4,66,3,-108.053472,38.017361,-108.053472,38.017361,-108.303472,-107.803472,37.767361,38.267361
CO0121200,ELEPHANT ROCK MHP,"3995 S Castlewood Canyon Rd, Castle Rock, Colorado, 80104",80104,Colorado,Region 8,Community water system,65,,El Paso,5,158,4,-104.768515,39.302693,-104.772371,39.30213,-104.769515,-104.767515,39.301693,39.303693
CO0208843,WILDERNESS AWARE RAFTING,"12600 US-24, Buena Vista, Colorado, 81211",81211,Colorado,Region 8,Transient non-community system,105,,Chaffee,3,0,1,-106.102159,38.813807,-106.102871,38.81448,-106.103159,-106.101159,38.812807,38.814807
CO0347098,BURNING BEAR CG,"30403 Kings Valley Dr, Conifer, Colorado, 80433",80433,Colorado,Region 8,Transient non-community system,46,,Park,3,0,3,-105.34856,39.491974,-105.347661,39.4922,-105.34956,-105.34756,39.490974,39.492974
CO0347270,GENEVA PARK CG,"30403 Kings Valley Dr, Conifer, Colorado, 80433",80433,Colorado,Region 8,Transient non-community system,78,,Park,2,4,5,-105.34856,39.491974,-105.347661,39.4922,-105.34956,-105.34756,39.490974,39.492974
CO0318384,INDIAN CREEK CAMPGROUND,"30403 Kings Valley Dr, Conifer, Colorado, 80433",80433,Colorado,Region 8,Transient non-community system,38,,Douglas,4,4,2,-105.34856,39.491974,-105.347661,39.4922,-105.34956,-105.34756,39.490974,39.492974
CO0145540,PATTERSON VALLEY WC,"81067, Rocky Ford, Colorado",81067,Colorado,Region 8,Community water system,120,,Otero,5,19,7,-103.722806,38.052496,-103.722806,38.052496,-103.952806,-103.492806,37.822496,38.282496
CO0253210,FOOTHILLS LODGE,"97296, Portland, Oregon",97296,Colorado,Region 8,Transient non-community system,98,,Rio Grande,5,5,7,-122.700191,45.535039,-122.700191,45.535039,-122.705191,-122.695191,45.530039,45.540039
CO0254138,EUZOA BIBLE CHURCH,"80477, Steamboat Springs, Colorado",80477,Colorado,Region 8,Transient non-community system,370,,Routt,3,28,9,-106.826591,40.489161,-106.826591,40.489161,-106.827591,-106.825591,40.488161,40.490161
CO0330425,KELSEY CG,"30403 Kings Valley Dr, Conifer, Colorado, 80433",80433,Colorado,Region 8,Transient non-community system,65,,Jefferson,3,2,1,-105.34856,39.491974,-105.347661,39.4922,-105.34956,-105.34756,39.490974,39.492974
CO0136300,BRANSON TOWN OF,"81027, Branson, Colorado",81027,Colorado,Region 8,Community water system,110,,Las Animas,9,6,6,-103.884177,37.017895,-103.884177,37.017895,-104.426177,-103.342177,36.475895,37.559895
CO0347150,DEER CREEK CG,"30403 Kings Valley Dr, Conifer, Colorado, 80433",80433,Colorado,Region 8,Transient non-community system,49,,Park,3,0,3,-105.34856,39.491974,-105.347661,39.4922,-105.34956,-105.34756,39.490974,39.492974
CO0226501,LAKE FORK COVE ALLIANCE INC,"490 30 3/4 Rd, Grand Junction, Colorado, 81504",81504,Colorado,Region 8,Transient non-community system,25,,Gunnison,5,5,5,-108.481806,39.075939,-108.481551,39.0759,-108.482806,-108.480806,39.074939,39.076939
CO0247012,CAMP SANTA MARIA WC,"80421, Bailey, Colorado",80421,Colorado,Region 8,Transient non-community system,140,,Park,4,2,3,-105.5016,39.511678,-105.5016,39.511678,-105.7406,-105.2626,39.272678,39.750678
CO0118001,BEVERLY HILLS MUTUAL WC,"7830 Coventry Dr, Castle Rock, Colorado, 80108",80108,Colorado,Region 8,Community water system,310,,Douglas,11,26,6,-104.884144,39.476036,-104.884144,39.476036,-104.894144,-104.874144,39.466036,39.486036
CO0162438,KEENESBURG TOWN OF,"80643, Keenesburg, Colorado",80643,Colorado,Region 8,Community water system,1100,,Weld,15,45,5,-104.518841,40.108291,-104.518841,40.108291,-104.671841,-104.365841,39.955291,40.261291
CO0130095,MOUNTAIN VIEW VILLAGE,"477 Mount Bailey Dr, Bailey, Colorado, 80421",80421,Colorado,Region 8,Community water system,38,,Jefferson,6,158,6,-105.456886,39.415478,-105.456941,39.41566,-105.457886,-105.455886,39.414478,39.416478
CO0130045,HIDDEN VALLEY MUTUAL WC,"11919 W I-70 Frontage Rd N, Wheat Ridge, Colorado, 80033",80033,Colorado,Region 8,Community water system,155,,Jefferson,10,20,6,-105.132463,39.784822,-105.132463,39.784822,-105.142463,-105.122463,39.774822,39.794822
CO0221560,CAMP LA FORET,"6145 Shoup Rd, Colorado Springs, Colorado, 80908",80908,Colorado,Region 8,Transient non-community system,163,,El Paso,8,12,3,-104.713072,39.012814,-104.713072,39.012814,-104.723072,-104.703072,39.002814,39.022814
CO0103055,GLENDALE CITY OF,"601 S Elm St, Denver, Colorado, 80246",80246,Colorado,Region 8,Community water system,4490,GLENDALE,Arapahoe,4,0,5,-104.929625,39.705937,-104.929625,39.705937,-104.939625,-104.919625,39.695937,39.715937
CO0159070,KINGDOM PARK COURT,"225 S Meramec Ave, Saint Louis, Missouri, 63105",63105,Colorado,Region 8,Community water system,70,,Summit,3,1,5,-90.340172,38.646756,-90.340172,38.646756,-90.350172,-90.330172,38.636756,38.656756
CO0360192,CRAGS CAMPGROUND NO 2 UPPER,"601 S Weber St, Colorado Springs, Colorado, 80903",80903,Colorado,Region 8,Transient non-community system,61,,Teller,2,2,4,-104.820287,38.825099,-104.819821,38.82509,-104.821287,-104.819287,38.824099,38.826099
CO0360690,RED ROCKS CG,"601 S Weber St, Colorado Springs, Colorado, 80903",80903,Colorado,Region 8,Transient non-community system,105,,Teller,4,1,2,-104.820287,38.825099,-104.819821,38.82509,-104.821287,-104.819287,38.824099,38.826099
CO0121150,COLORADO SPRINGS UTILITIES,"701 E Las Vegas St, Colorado Springs, Colorado, 80903",80903,Colorado,Region 8,Community water system,418096,,El Paso,81,2,4,-104.807522,38.814404,-104.808471,38.81285,-104.808522,-104.806522,38.813404,38.815404
CO0144035,WIGGINS TOWN OF,"304 Central Ave, Wiggins, Colorado, 80654",80654,Colorado,Region 8,Community water system,1000,,Morgan,7,19,5,-104.07551,40.232833,-104.075481,40.23259,-104.07651,-104.07451,40.231833,40.233833
CO0145330,HOLBROOK CENTER SOFT WA,"510 Main St, La Junta, Colorado, 81050",81050,Colorado,Region 8,Community water system,51,,Otero,5,50,6,-103.531386,38.00112,-103.531361,38.00113,-103.532386,-103.530386,38.00012,38.00212
CO0224174,TAGGERTS INC,"14936 Highway 119, Black Hawk, Colorado, 80422",80422,Colorado,Region 8,Transient non-community system,43,,Gilpin,3,4,5,-105.465976,39.865026,-105.465621,39.865,-105.466976,-105.464976,39.864026,39.866026
CO0221260,CRYSTAL KANGAROO CAMPGROUND,"80829, Manitou Spgs, Colorado",80829,Colorado,Region 8,Transient non-community system,51,,El Paso,7,5,5,-104.917819,38.857723,-104.917819,38.857723,-104.987819,-104.847819,38.787723,38.927723
CO0135553,NORTH CARTER LAKE WD,"80513, Berthoud, Colorado",80513,Colorado,Region 8,Community water system,293,,Larimer,6,1,3,-105.079635,40.306328,-105.079635,40.306328,-105.237635,-104.921635,40.148328,40.464328
CO0221750,RD NIXON PLANT CLEAR SPRING RANCH,"701 E Las Vegas St, Colorado Springs, Colorado, 80903",80903,Colorado,Region 8,Non-Transient non-community system,124,,El Paso,11,1,3,-104.807522,38.814404,-104.808471,38.81285,-104.808522,-104.806522,38.813404,38.815404
CO0101080,HIGH PLAINS WUA,"80614, Eastlake, Colorado",80614,Colorado,Region 8,Community water system,200,,Adams,7,5,4,-104.958422,39.9222,-104.958422,39.9222,-104.963422,-104.953422,39.9172,39.9272
CO0125288,FRASER TOWN OF,"80442, Fraser, Colorado",80442,Colorado,Region 8,Community water system,1200,,Grand,21,10,7,-105.81722,39.948944,-105.81722,39.948944,-106.01722,-105.61722,39.748944,40.148944
CO0143719,SPRING VIEW TP,"1905 Ouray Dr, Montrose, Colorado, 81401",81401,Colorado,Region 8,Community water system,145,,Montrose,4,92,5,-107.842438,38.46554,-107.842201,38.46565,-107.843438,-107.841438,38.46454,38.46654
CO0139180,CLIFTON WD,"510 34 Rd, Clifton, Colorado, 81520",81520,Colorado,Region 8,Community water system,34500,,Mesa,14,8,6,-108.422362,39.080172,-108.422362,39.080172,-108.432362,-108.412362,39.070172,39.090172
CO0321685,RAMPART RA,"601 S Weber St, Colorado Springs, Colorado, 80903",80903,Colorado,Region 8,Transient non-community system,389,,El Paso,4,2,2,-104.820287,38.825099,-104.819821,38.82509,-104.821287,-104.819287,38.824099,38.826099
CO0111600,LA JARA TOWN OF,"81140, La Jara, Colorado",81140,Colorado,Region 8,Community water system,825,,Conejos,3,56,8,-105.978973,37.230512,-105.978973,37.230512,-106.601973,-105.355973,36.607512,37.853512
CO0221446,FUEL BS CONVENIENCE STORE,"23580 CO-94, Calhan, Colorado, 80808",80808,Colorado,Region 8,Transient non-community system,100,,El Paso,3,8,5,-104.388822,38.838328,-104.388841,38.83908,-104.389822,-104.387822,38.837328,38.839328
CO0134450,HERMOSA VILLAGE,"425 Florida Acres Dr, Durango, Colorado, 81303",81303,Colorado,Region 8,Community water system,120,,La Plata,7,7,4,-107.788937,37.223572,-107.787991,37.22357,-107.789937,-107.787937,37.222572,37.224572
CO0152188,CROSS L ESTATES,"283 Love Ln, Meeker, Colorado, 81641",81641,Colorado,Region 8,Community water system,50,,Rio Blanco,5,83,2,-107.973256,40.028102,-107.974401,40.02803,-107.974256,-107.972256,40.027102,40.029102
CO0251470,KOA PUEBLO S COLORADO CITY,"I-25 S, Pueblo, Colorado, 81004",81004,Colorado,Region 8,Transient non-community system,124,,Pueblo,3,3,5,-104.688487,38.097737,-104.688487,38.097737,-104.851487,-104.525487,37.934737,38.260737
CO0230019,CONIFER WA,"2392 S Fig St, Lakewood, Colorado, 80228",80228,Colorado,Region 8,Non-Transient non-community system,125,,Jefferson,5,2,6,-105.160206,39.672252,-105.159951,39.67226,-105.161206,-105.159206,39.671252,39.673252
CO0108900,TRAILS WEST ASSOC,"18300 Rio Hondo Dr, Buena Vista, Colorado, 81211",81211,Colorado,Region 8,Community water system,249,,Chaffee,7,5,3,-106.206267,38.840753,-106.206267,38.840753,-106.216267,-106.196267,38.830753,38.850753
CO0130085,MORRISON TOWN OF,"4396 S Vivian Way, Morrison, Colorado, 80465",80465,Colorado,Region 8,Community water system,930,,Jefferson,9,42,5,-105.138765,39.636756,-105.138911,39.63693,-105.139765,-105.137765,39.635756,39.637756
CO0235285,FOX ACRES COMM SERV CORP,"80545, Red Feather Lakes, Colorado",80545,Colorado,Region 8,Non-Transient non-community system,306,,Larimer,6,1,7,-105.671263,40.856006,-105.671263,40.856006,-106.195263,-105.147263,40.332006,41.380006
CO0101100,MOUNTAIN VIEW WUA,"80601, Brighton, Colorado",80601,Colorado,Region 8,Community water system,320,,Adams,9,16,6,-104.803045,39.989546,-104.803045,39.989546,-104.907045,-104.699045,39.885546,40.093546
CO0101140,SOUTH ADAMS COUNTY WSD,"80037, Commerce City, Colorado",80037,Colorado,Region 8,Community water system,51465,,Adams,52,0,6,-104.911112,39.830231,-104.911112,39.830231,-104.916112,-104.906112,39.825231,39.835231
CO0107610,PINE BROOK HILLS WD,"1903 Linden Dr, Boulder, Colorado, 80304",80304,Colorado,Region 8,Community water system,1100,,Boulder,27,4,6,-105.310479,40.050257,-105.311021,40.04824,-105.311479,-105.309479,40.049257,40.051257
CO0137015,LIMON TOWN OF,"80828, Limon, Colorado",80828,Colorado,Region 8,Community water system,5080,,Lincoln,17,14,6,-103.695926,39.264191,-103.695926,39.264191,-104.028926,-103.362926,38.931191,39.597191
CO0151200,COLORADO CITY MD,"81019, Colorado City, Colorado",81019,Colorado,Region 8,Community water system,1811,,Pueblo,9,18,7,-104.829835,37.951622,-104.829835,37.951622,-104.894835,-104.764835,37.886622,38.016622
CO0259018,SOLITUDE STATION COPPER MOUNTAIN,"80443, Frisco, Colorado",80443,Colorado,Region 8,Transient non-community system,3006,,Summit,9,4,7,-106.103692,39.575741,-106.103692,39.575741,-106.258692,-105.948692,39.420741,39.730741
CO0101675,RIVERDALE PEAKS II MD,"141 Union Blvd, Lakewood, Colorado, 80228",80228,Colorado,Region 8,Community water system,70,,Adams,5,4,1,-105.133315,39.71564,-105.134441,39.71583,-105.134315,-105.132315,39.71464,39.71664
CO0162710,ROCKY MOUNTAIN VISTA MHP,"20905 County Road 2, Brighton, Colorado, 80603",80603,Colorado,Region 8,Community water system,200,,Weld,3,34,6,-104.676274,40.000551,-104.676274,40.000551,-104.686274,-104.666274,39.990551,40.010551
CO0201024,HIDEAWAY STEAKHOUSE,"8210 E 128th Pl, Thornton, Colorado, 80602",80602,Colorado,Region 8,Transient non-community system,150,,Adams,4,11,3,-104.891451,39.929804,-104.891441,39.92953,-104.892451,-104.890451,39.928804,39.930804
CO0145060,BENTS FORT WC,"510 Main St, La Junta, Colorado, 81050",81050,Colorado,Region 8,Community water system,900,,Otero,19,67,5,-103.531386,38.00112,-103.531361,38.00113,-103.532386,-103.530386,38.00012,38.00212
CO0223185,COLORADO WEST REGIONAL MENTAL HEALTH CTR,"751 Horizon Dr, Grand Junction, Colorado, 81506",81506,Colorado,Region 8,Transient non-community system,37,,Garfield,6,2,3,-108.538808,39.112495,-108.539911,39.11326,-108.539808,-108.537808,39.111495,39.113495
CO0143600,PARADOX PIPELINE CO,"81429, Paradox, Colorado",81429,Colorado,Region 8,Community water system,68,,Montrose,4,68,7,-108.964722,38.368176,-108.964722,38.368176,-109.219722,-108.709722,38.113176,38.623176
CO0227467,LAKE SAN CRISTOBAL HOA,"81224, Crested Butte, Colorado",81224,Colorado,Region 8,Transient non-community system,31,,Hinsdale,3,7,2,-106.887482,38.815141,-106.887482,38.815141,-107.198482,-106.576482,38.504141,39.126141
CO0120717,SPRING VALLEY MD NO 1,"141 Union Blvd, Lakewood, Colorado, 80228",80228,Colorado,Region 8,Community water system,475,,Elbert,7,52,2,-105.133315,39.71564,-105.134441,39.71583,-105.134315,-105.132315,39.71464,39.71664
CO0203500,MAY FARMS WS AND ENTERTAINMENT CENTER,"80103, Byers, Colorado",80103,Colorado,Region 8,Transient non-community system,356,,Arapahoe,6,0,3,-104.223437,39.706948,-104.223437,39.706948,-104.595437,-103.851437,39.334948,40.078948
CO0126718,OXBOW MINING WW,"81434, Somerset, Colorado",81434,Colorado,Region 8,Community water system,200,,Gunnison,8,26,8,-107.362306,39.024386,-107.362306,39.024386,-107.670306,-107.054306,38.716386,39.332386
CO0260360,FLORISSANT FOSSIL BEDS NTL MON,"80816, Florissant, Colorado",80816,Colorado,Region 8,Transient non-community system,174,,Teller,5,5,6,-105.321517,38.945656,-105.321517,38.945656,-105.704517,-104.938517,38.562656,39.328656
CO0218035,FRANKTOWN PLAZA ONE,"589 S Highway 83, Franktown, Colorado, 80116",80116,Colorado,Region 8,Transient non-community system,66,,Douglas,3,9,3,-104.741929,39.354087,-104.744491,39.35225,-104.742929,-104.740929,39.353087,39.355087
CO0101031,ESTATES AT BROMLEY,"80642, Hudson, Colorado",80642,Colorado,Region 8,Community water system,150,,Adams,17,842,3,-104.567946,39.971365,-104.567946,39.971365,-104.853946,-104.281946,39.685365,40.257365
CO0240150,BLUE CREEK LODGE,"11682 CO-149, South Fork, Colorado, 81154",81154,Colorado,Region 8,Transient non-community system,63,,Mineral,6,4,8,-106.801547,37.768268,-106.802601,37.76931,-106.802547,-106.800547,37.767268,37.769268
CO0107489,LARK MEADOWS WA,"8632 Hollyhock Ln, Lafayette, Colorado, 80026",80026,Colorado,Region 8,Community water system,87,,Boulder,5,4,5,-105.15154,40.001913,-105.151491,40.00153,-105.15254,-105.15054,40.000913,40.002913
CO0162486,LOCHBUIE TOWN OF,"80603, Brighton, Colorado",80603,Colorado,Region 8,Community water system,4900,,Weld,7,34,5,-104.720052,40.005181,-104.720052,40.005181,-104.961052,-104.479052,39.764181,40.246181
CO0130116,ALAMEDA WSD,"359 S Harlan St, Lakewood, Colorado, 80226",80226,Colorado,Region 8,Community water system,1600,,Jefferson,6,0,4,-105.062747,39.710177,-105.062747,39.710177,-105.072747,-105.052747,39.700177,39.720177
CO0134180,DURANGO WEST MD NO 1,"119 Holly Hock Trl, Durango, Colorado, 81303",81303,Colorado,Region 8,Community water system,750,,La Plata,9,23,5,-107.995008,37.263508,-107.995041,37.26372,-107.996008,-107.994008,37.262508,37.264508
CO0130065,INDIAN HILLS WD,"80454, Indian Hills, Colorado",80454,Colorado,Region 8,Community water system,1300,,Jefferson,22,11,7,-105.238235,39.619725,-105.238235,39.619725,-105.278235,-105.198235,39.579725,39.659725
CO0230159,BULK WATER RUNNER,"14056 W 74th Pl, Arvada, Colorado, 80005",80005,Colorado,Region 8,Community water system,25,,Jefferson,5,9,1,-105.157142,39.831624,-105.157161,39.8311,-105.158142,-105.156142,39.830624,39.832624
CO0253320,ALPINE TRAILS RV PARK,"664 Aspen Dr, South Fork, Colorado, 81154",81154,Colorado,Region 8,Transient non-community system,84,,Rio Grande,3,12,3,-106.654521,37.668422,-106.654171,37.66865,-106.655521,-106.653521,37.667422,37.669422
CO0253695,ROCKAWAY CAFE,"81154, South Fork, Colorado",81154,Colorado,Region 8,Transient non-community system,154,,Rio Grande,3,6,4,-106.576302,37.684176,-106.576302,37.684176,-106.900302,-106.252302,37.360176,38.008176
CO0143755,TRI COUNTY WCD,"647 N 7th St, Montrose, Colorado, 81401",81401,Colorado,Region 8,Community water system,17000,,Montrose,25,1,5,-107.879809,38.486834,-107.879941,38.48701,-107.880809,-107.878809,38.485834,38.487834
CO0145300,HILLTOP WC,"1821 Hopkins Ave, Rocky Ford, Colorado, 81067",81067,Colorado,Region 8,Community water system,285,,Otero,6,1,7,-103.71133,38.042208,-103.711311,38.04257,-103.71233,-103.71033,38.041208,38.043208
CO0149155,BRUSH CREEK WD,"500 Juniper Hills Rd, Aspen, Colorado, 81611",81611,Colorado,Region 8,Community water system,90,,Pitkin,6,5,3,-106.892033,39.256343,-106.892033,39.256343,-106.902033,-106.882033,39.246343,39.266343
CO0101025,BRIGHTON CITY OF,"500 S 4th Ave, Brighton, Colorado, 80601",80601,Colorado,Region 8,Community water system,32700,,Adams,31,35,6,-104.818086,39.978521,-104.817381,39.97852,-104.819086,-104.817086,39.977521,39.979521
CO0222705,SELLEN WATER,"28 Buckhorn Ct, Canon City, Colorado, 81212",81212,Colorado,Region 8,Transient non-community system,25,,Fremont,3,0,1,-105.559029,38.636838,-105.559029,38.636838,-105.569029,-105.549029,38.626838,38.646838
CO0139510,MIDLANDS VILLAGE,"81402, Montrose, Colorado",81402,Colorado,Region 8,Community water system,755,,Mesa,2,3,1,-107.876611,38.478571,-107.876611,38.478571,-107.881611,-107.871611,38.473571,38.483571
CO0224917,YOUTH WITH A MISSION EAGLE ROCK,"2392 S Fig St, Lakewood, Colorado, 80228",80228,Colorado,Region 8,Transient non-community system,55,,Gilpin,5,4,4,-105.160206,39.672252,-105.159951,39.67226,-105.161206,-105.159206,39.671252,39.673252
CO0221450,GOLDEN EAGLE RANCH,"710 Rock Creek Canyon Rd, Colorado Springs, Colorado, 80926",80926,Colorado,Region 8,Transient non-community system,47,,El Paso,10,5,3,-104.838073,38.704998,-104.839721,38.7068,-104.839073,-104.837073,38.703998,38.705998
CO0257613,PLACERVILLE PARK,"81435, Mountain Village, Colorado",81435,Colorado,Region 8,Transient non-community system,100,,San Miguel,3,0,0,-107.850342,37.935801,-107.850342,37.935801,-107.971342,-107.729342,37.814801,38.056801
CO0143515,SUBURBAN WATER,"81402, Montrose, Colorado",81402,Colorado,Region 8,Community water system,859,,Montrose,2,3,2,-107.876611,38.478571,-107.876611,38.478571,-107.881611,-107.871611,38.473571,38.483571
CO0247720,SPINNEY MOUNTAIN RESERVOIR,"18301 E Quincy Ave, Aurora, Colorado, 80015",80015,Colorado,Region 8,Transient non-community system,25,,Arapahoe,2,0,1,-104.773832,39.638628,-104.773831,39.6394,-104.774832,-104.772832,39.637628,39.639628
CO0103050,FOXRIDGE FARMS MHP,"26900 E Colfax Ave, Aurora, Colorado, 80018",80018,Colorado,Region 8,Community water system,852,,Arapahoe,11,23,6,-104.673402,39.739713,-104.673411,39.73801,-104.674402,-104.672402,39.738713,39.740713
CO0160450,ROSEWOOD HILLS PROPERTY HOA,"267 Homestead Dr, Woodland Park, Colorado, 80863",80863,Colorado,Region 8,Community water system,198,,Teller,5,27,3,-105.097789,38.974644,-105.097891,38.97442,-105.098789,-105.096789,38.973644,38.975644
CO0151700,RYE TOWN OF,"81069, Rye, Colorado",81069,Colorado,Region 8,Community water system,244,,Pueblo,8,131,7,-104.925909,37.907017,-104.925909,37.907017,-105.233909,-104.617909,37.599017,38.215017
CO0150850,PROSPERITY LANE WA,"81052, Lamar, Colorado",81052,Colorado,Region 8,Community water system,260,,Prowers,2,10,3,-102.621973,38.086885,-102.621973,38.086885,-103.064973,-102.178973,37.643885,38.529885
CO0113900,SUGAR CITY TOWN OF,"81076, Sugar City, Colorado",81076,Colorado,Region 8,Community water system,240,,Crowley,8,4,7,-103.660453,38.23206,-103.660453,38.23206,-104.062453,-103.258453,37.83006,38.63406
CO0241866,YAMPA VALLEY GOLF ASSOC,"81626, Craig, Colorado",81626,Colorado,Region 8,Transient non-community system,75,,Moffat,3,9,4,-107.547872,40.514241,-107.547872,40.514241,-107.552872,-107.542872,40.509241,40.519241
CO0126580,NORTH VALLEY SUBDIVISION UTILITY COMPANY,"81230, Gunnison, Colorado",81230,Colorado,Region 8,Community water system,79,,Gunnison,4,1,2,-106.929071,38.546811,-106.929071,38.546811,-107.613071,-106.245071,37.862811,39.230811
CO0201008,BARR LAKE STATE PARK,"6981 Locust St, Commerce City, Colorado, 80022",80022,Colorado,Region 8,Transient non-community system,606,,Adams,3,8,5,-104.914447,39.823359,-104.914711,39.82336,-104.915447,-104.913447,39.822359,39.824359
CO0223343,HIDEOUT CABINS AND CG,"80121, Centennial, Colorado",80121,Colorado,Region 8,Non-Transient non-community system,56,,Garfield,6,90,4,-104.961641,39.60287,-104.961641,39.60287,-105.000641,-104.922641,39.56387,39.64187
CO0255850,VALLEY VIEW HOT SPRINGS,"81155, Villa Grove, Colorado",81155,Colorado,Region 8,Transient non-community system,87,,Saguache,4,10,6,-106.138087,38.28879,-106.138087,38.28879,-106.435087,-105.841087,37.99179,38.58579
CO0125320,GRANBY JONES MHP,"14566 W Byers Pl, Golden, Colorado, 80401",80401,Colorado,Region 8,Community water system,201,,Grand,6,3,3,-105.162712,39.711893,-105.162721,39.71151,-105.163712,-105.161712,39.710893,39.712893
CO0208610,MONARCH SPUR RV PARK,"81242, Poncha Spgs, Colorado",81242,Colorado,Region 8,Transient non-community system,100,,Chaffee,4,2,5,-106.076972,38.513791,-106.076972,38.513791,-106.194972,-105.958972,38.395791,38.631791
CO0235416,JOHN TIMOTHY STONE CLIFFS ASSOC,"425 John Deere Dr, Fort Collins, Colorado, 80524",80524,Colorado,Region 8,Transient non-community system,60,,Larimer,4,2,3,-105.004957,40.582741,-105.005361,40.58307,-105.005957,-105.003957,40.581741,40.583741
CO0257220,DOWN VALLEY PARK,"81435, Mountain Village, Colorado",81435,Colorado,Region 8,Transient non-community system,50,,San Miguel,3,2,1,-107.850342,37.935801,-107.850342,37.935801,-107.971342,-107.729342,37.814801,38.056801
CO0134500,IGNACIO TOWN OF,"81137, Southern Ute Indian Reservat, Colorado",81137,Colorado,Region 8,Community water system,1242,,La Plata,2,14,3,-107.635422,37.118071,-107.635422,37.118071,-107.866422,-107.404422,36.887071,37.349071
CO0248146,BLISTIES,"37974 County Road 40, Holyoke, Colorado, 80734",80734,Colorado,Region 8,Transient non-community system,63,,Phillips,2,1,2,-102.29618,40.719853,-102.29618,40.719853,-102.30618,-102.28618,40.709853,40.729853
CO0230236,CONIFER MEDICAL CENTER,"26659 Pleasant Park Rd, Conifer, Colorado, 80433",80433,Colorado,Region 8,Transient non-community system,60,,Jefferson,5,0,7,-105.302342,39.518644,-105.303381,39.51891,-105.303342,-105.301342,39.517644,39.519644
CO0208700,NOAHS ARK WHITEWATER RAFTING,"81211, Buena Vista, Colorado",81211,Colorado,Region 8,Transient non-community system,506,,Chaffee,3,6,7,-106.152196,38.835851,-106.152196,38.835851,-106.422196,-105.882196,38.565851,39.105851
CO0225289,FRASER VALLEY SPORTS COMPLEX,"80482, Winter Park, Colorado",80482,Colorado,Region 8,Transient non-community system,54,,Grand,3,3,3,-105.787502,39.92377,-105.787502,39.92377,-105.985502,-105.589502,39.72577,40.12177
CO0225918,YOUNG LIFE CROOKED CREEK,"80442, Fraser, Colorado",80442,Colorado,Region 8,Transient non-community system,560,,Grand,5,2,4,-105.81722,39.948944,-105.81722,39.948944,-106.01722,-105.61722,39.748944,40.148944
CO0221179,COTTONWOOD HOT SPRINGS,"18999 CR-306, Buena Vista, Colorado, 81211",81211,Colorado,Region 8,Transient non-community system,39,,Chaffee,10,5,1,-106.21893,38.812156,-106.21893,38.812156,-106.22893,-106.20893,38.802156,38.822156
CO0121455,MERIDIAN SERVICE MD,"11886 Stapleton Dr, Peyton, Colorado, 80831",80831,Colorado,Region 8,Community water system,2740,,El Paso,17,46,2,-104.60515,38.969841,-104.60515,38.969841,-104.61515,-104.59515,38.959841,38.979841
CO0130138,BEAR CREEK WSD,"2517 S Flower St, Lakewood, Colorado, 80227",80227,Colorado,Region 8,Community water system,31150,,Jefferson,2,0,4,-105.09991,39.671293,-105.100021,39.67126,-105.10091,-105.09891,39.670293,39.672293
CO0107152,BOULDER CITY OF,"1094 Betasso Rd, Boulder, Colorado, 80302",80302,Colorado,Region 8,Community water system,166080,,Boulder,17,1,5,-105.336707,40.013266,-105.337261,40.01255,-105.337707,-105.335707,40.012266,40.014266
CO0117700,RICO TOWN OF,"81332, Rico, Colorado",81332,Colorado,Region 8,Community water system,350,,Dolores,4,53,5,-108.031852,37.69251,-108.031852,37.69251,-108.106852,-107.956852,37.61751,37.76751
CO0162466,LA SALLE TOWN OF,"128 N 2nd St, La Salle, Colorado, 80645",80645,Colorado,Region 8,Community water system,2000,,Weld,3,3,4,-104.703159,40.351179,-104.702751,40.35096,-104.704159,-104.702159,40.350179,40.352179
CO0211025,CENTAURI HS CENTAURI MS,"81140, La Jara, Colorado",81140,Colorado,Region 8,Non-Transient non-community system,700,,Conejos,6,145,4,-105.978973,37.230512,-105.978973,37.230512,-106.601973,-105.355973,36.607512,37.853512
CO0122600,PARK CENTER WD,"81215, Canon City, Colorado",81215,Colorado,Region 8,Community water system,3800,,Fremont,7,12,6,-105.226722,38.447231,-105.226722,38.447231,-105.231722,-105.221722,38.442231,38.452231
CO0126121,ARROWHEAD RANCH WC,"101 N Uncompahgre Ave, Montrose, Colorado, 81401",81401,Colorado,Region 8,Community water system,225,,Gunnison,6,1,5,-107.87656,38.481022,-107.87656,38.481022,-107.88656,-107.86656,38.471022,38.491022
CO0157300,LAST DOLLAR PUD,"81435, Mountain Village, Colorado",81435,Colorado,Region 8,Community water system,55,,San Miguel,6,9,5,-107.850342,37.935801,-107.850342,37.935801,-107.971342,-107.729342,37.814801,38.056801
CO0161001,AKRON TOWN OF,"80720, Akron, Colorado",80720,Colorado,Region 8,Community water system,2379,,Washington,16,69,7,-103.211276,40.16124,-103.211276,40.16124,-103.602276,-102.820276,39.77024,40.55224
CO0215538,MAD DOG WC,"81415, Maher, Colorado",81415,Colorado,Region 8,Community water system,50,,Delta,4,21,6,-107.611072,38.703795,-107.611072,38.703795,-107.862072,-107.360072,38.452795,38.954795
CO0235503,MCGREGOR MTN LODGE,"2815 Fall River Rd, Estes Park, Colorado, 80517",80517,Colorado,Region 8,Transient non-community system,71,,Larimer,4,7,7,-105.57584,40.399976,-105.575381,40.4006,-105.57684,-105.57484,40.398976,40.400976
CO0159030,COPPER MOUNTAIN CONSOLIDATED MD,"80443, Frisco, Colorado",80443,Colorado,Region 8,Community water system,5000,,Summit,10,1,5,-106.103692,39.575741,-106.103692,39.575741,-106.258692,-105.948692,39.420741,39.730741
CO0159035,DILLON TOWN OF,"80435, Montezuma, Colorado",80435,Colorado,Region 8,Community water system,2992,,Summit,8,4,5,-106.005446,39.595631,-106.005446,39.595631,-106.235446,-105.775446,39.365631,39.825631
CO0254712,KOA SKI TOWN CG,"3603 Lincoln Ave, Steamboat Springs, Colorado, 80487",80487,Colorado,Region 8,Transient non-community system,310,,Routt,5,4,9,-106.876765,40.505315,-106.877801,40.50429,-106.877765,-106.875765,40.504315,40.506315
CO0131800,SHERIDAN LAKE WC,"81071, Brandon, Colorado",81071,Colorado,Region 8,Community water system,80,,Kiowa,6,53,4,-102.082565,38.470096,-102.082565,38.470096,-102.537565,-101.627565,38.015096,38.925096
CO0107719,SPRING VALLEY MUTUAL WA,"3825 Spring Valley Rd, Boulder, Colorado, 80304",80304,Colorado,Region 8,Community water system,100,,Boulder,5,0,6,-105.294798,40.045077,-105.295151,40.04506,-105.295798,-105.293798,40.044077,40.046077
CO0207166,CAL WOOD,"80455, Jamestown, Colorado",80455,Colorado,Region 8,Transient non-community system,66,,Boulder,4,12,5,-105.366253,40.08226,-105.366253,40.08226,-105.525253,-105.207253,39.92326,40.24126
CO0207485,BGCMD GATES CAMP,"2895 County Road 100, Ward, Colorado, 80481",80481,Colorado,Region 8,Transient non-community system,100,,Boulder,7,6,5,-105.470234,40.104052,-105.472121,40.10618,-105.471234,-105.469234,40.103052,40.105052
CO0229466,LAKE JOHN RESORT,"80480, Walden, Colorado",80480,Colorado,Region 8,Transient non-community system,54,,Jackson,3,2,5,-106.279791,40.734884,-106.279791,40.734884,-106.872791,-105.686791,40.141884,41.327884
CO0229452,KOA NORTH PARK,"56750 Highway 14, Walden, Colorado, 80480",80480,Colorado,Region 8,Transient non-community system,27,,Jackson,3,8,5,-106.008486,40.511502,-106.008486,40.511502,-106.018486,-105.998486,40.501502,40.521502
CO0207505,GIRL SCOUTS MEADOW MTN RANCH,"425 John Deere Dr, Fort Collins, Colorado, 80524",80524,Colorado,Region 8,Transient non-community system,175,,Boulder,8,36,3,-105.004957,40.582741,-105.005361,40.58307,-105.005957,-105.003957,40.581741,40.583741
CO0253842,WH160 LLC,"177 Craft Dr, Alamosa, Colorado, 81101",81101,Colorado,Region 8,Non-Transient non-community system,35,,Rio Grande,2,0,0,-105.893671,37.477381,-105.893671,37.477381,-105.903671,-105.883671,37.467381,37.487381
CO0226730,GUNNISON LAKESIDE RESORT INC,"28357 US-50, Gunnison, Colorado, 81230",81230,Colorado,Region 8,Transient non-community system,65,,Gunnison,7,2,6,-107.105339,38.484827,-107.104401,38.48922,-107.106339,-107.104339,38.483827,38.485827
CO0207852,WONDER VU CAFE,"33492 Highway 72, Golden, Colorado, 80403",80403,Colorado,Region 8,Transient non-community system,33,,Boulder,4,11,4,-105.396383,39.924537,-105.396221,39.92442,-105.397383,-105.395383,39.923537,39.925537
CO0208200,CHATEAU CHAPARREL CG,"10795 CR-197A, Nathrop, Colorado, 81236",81236,Colorado,Region 8,Community water system,240,,Chaffee,9,1,2,-106.075424,38.742238,-106.075471,38.7426,-106.076424,-106.074424,38.741238,38.743238
CO0127467,LAKE CITY TOWN OF,"81235, Lake City, Colorado",81235,Colorado,Region 8,Community water system,408,,Hinsdale,7,1,6,-107.289736,38.093928,-107.289736,38.093928,-107.992736,-106.586736,37.390928,38.796928
CO0218029,SPRUCEWOOD INN,"491 S State Highway 67, Sedalia, Colorado, 80135",80135,Colorado,Region 8,Transient non-community system,30,,Douglas,3,5,4,-105.120705,39.34796,-105.121131,39.3493,-105.121705,-105.119705,39.34696,39.34896
CO0163001,ECKLEY TOWN OF,"80727, Eckley, Colorado",80727,Colorado,Region 8,Community water system,306,,Yuma,6,8,8,-102.488128,40.110154,-102.488128,40.110154,-102.813128,-102.163128,39.785154,40.435154
CO0207115,ALPINE BROOK WS,"80510, Allenspark, Colorado",80510,Colorado,Region 8,Transient non-community system,100,,Boulder,6,13,4,-105.522069,40.241394,-105.522069,40.241394,-105.678069,-105.366069,40.085394,40.397394
CO0101150,THORNTON CITY OF,"9500 Civic Center Dr, Thornton, Colorado, 80229",80229,Colorado,Region 8,Community water system,136977,,Adams,21,3,6,-104.984513,39.869127,-104.984251,39.8696,-104.985513,-104.983513,39.868127,39.870127
CO0253560,MONTE VISTA CO OP,"81144, Monte Vista, Colorado",81144,Colorado,Region 8,Non-Transient non-community system,80,,Rio Grande,2,3,4,-106.146599,37.577746,-106.146599,37.577746,-106.457599,-105.835599,37.266746,37.888746
CO0230045,MONTESSORI CHILDRENS HOUSE,"80437, Evergreen, Colorado",80437,Colorado,Region 8,Non-Transient non-community system,31,,Jefferson,3,1,8,-105.343571,39.649401,-105.343571,39.649401,-105.348571,-105.338571,39.644401,39.654401
CO0133100,LAKE FORK MHP,"2 W Dry Creek Cir, Littleton, Colorado, 80120",80120,Colorado,Region 8,Community water system,400,,Lake,6,16,6,-104.989636,39.580688,-104.989161,39.58103,-104.990636,-104.988636,39.579688,39.581688
CO0149609,ELLAMAE PHILLIPS COMPANY RLLP,"76 Service Center Rd, Aspen, Colorado, 81611",81611,Colorado,Region 8,Community water system,44,,Pitkin,3,3,5,-106.864745,39.225136,-106.865221,39.22565,-106.865745,-106.863745,39.224136,39.226136
CO0123601,PANORAMIC MESA SUBD,"475 Panoramic Dr, Silt, Colorado, 81652",81652,Colorado,Region 8,Community water system,45,,Garfield,6,53,4,-107.663168,39.570117,-107.663168,39.570117,-107.673168,-107.653168,39.560117,39.580117
CO0134150,DURANGO CITY OF,"949 E 2nd Ave, Durango, Colorado, 81301",81301,Colorado,Region 8,Community water system,30000,,La Plata,20,12,5,-107.879273,37.273881,-107.879501,37.27393,-107.880273,-107.878273,37.272881,37.274881
CO0210023,KING MURPHY ELEMENTARY,"11919 W I-70 Frontage Rd N, Wheat Ridge, Colorado, 80033",80033,Colorado,Region 8,Non-Transient non-community system,276,,Clear Creek,3,8,5,-105.132463,39.784822,-105.132463,39.784822,-105.142463,-105.122463,39.774822,39.794822
CO0105800,VILAS TOWN OF,"81087, Vilas, Colorado",81087,Colorado,Region 8,Community water system,147,,Baca,9,84,8,-102.446252,37.373546,-102.446252,37.373546,-102.549252,-102.343252,37.270546,37.476546
CO0125552,NORTH SHORE WSD,"80447, Grand Lake, Colorado",80447,Colorado,Region 8,Community water system,378,,Grand,6,3,4,-105.868882,40.194796,-105.868882,40.194796,-106.174882,-105.562882,39.888796,40.500796
CO0134210,EL RANCHO FLORIDA MD,"81122, Chimney Rock, Colorado",81122,Colorado,Region 8,Community water system,400,,La Plata,9,9,3,-107.594952,37.240191,-107.594952,37.240191,-107.993952,-107.195952,36.841191,37.639191
CO0207133,BALARAT OUTDOOR LABORATORY,"80455, Jamestown, Colorado",80455,Colorado,Region 8,Transient non-community system,132,,Boulder,4,5,2,-105.366253,40.08226,-105.366253,40.08226,-105.525253,-105.207253,39.92326,40.24126
CO0260975,WISHING WELL MOTEL,"8525 W Colfax Ave, Lakewood, Colorado, 80215",80215,Colorado,Region 8,Transient non-community system,29,,Teller,3,26,2,-105.092092,39.740348,-105.092101,39.74076,-105.093092,-105.091092,39.739348,39.741348
CO0145180,FAYETTE WC,"13410 US-50, Manzanola, Colorado, 81058",81058,Colorado,Region 8,Community water system,75,,Otero,7,38,6,-103.830542,38.097604,-103.831531,38.09608,-103.831542,-103.829542,38.096604,38.098604
CO0121600,PARK FOREST,"7340 McFerran Rd, Colorado Springs, Colorado, 80908",80908,Colorado,Region 8,Community water system,1200,,El Paso,10,98,5,-104.69007,38.993784,-104.690741,38.99438,-104.69107,-104.68907,38.992784,38.994784
CO0221540,ULTRAMAR DIAMOND SHMRK  1173,"11919 W I-70 Frontage Rd N, Wheat Ridge, Colorado, 80033",80033,Colorado,Region 8,Transient non-community system,613,,El Paso,3,3,3,-105.132463,39.784822,-105.132463,39.784822,-105.142463,-105.122463,39.774822,39.794822
CO0234360,DURANGO SKI CORP DANTES REST,"81302, Durango, Colorado",81302,Colorado,Region 8,Transient non-community system,115,,La Plata,6,3,3,-107.882552,37.27206,-107.882552,37.27206,-107.887552,-107.877552,37.26706,37.27706
CO0121080,CAMELOT PROPERTY OWNERS ASSOC,"9548 Waterbury Dr, Peyton, Colorado, 80831",80831,Colorado,Region 8,Community water system,38,,El Paso,4,129,2,-104.61555,38.970774,-104.615771,38.97035,-104.61655,-104.61455,38.969774,38.971774
CO0235170,CDOT VIRGINIA DALE REST AREA,"80536, Livermore, Colorado",80536,Colorado,Region 8,Transient non-community system,250,,Larimer,3,0,6,-105.429282,40.739818,-105.429282,40.739818,-105.736282,-105.122282,40.432818,41.046818
CO0103040,EAST VALLEY MD,"80134, Parker, Colorado",80134,Colorado,Region 8,Community water system,230,,Arapahoe,6,4,6,-104.848552,39.531161,-104.848552,39.531161,-105.034552,-104.662552,39.345161,39.717161
CO0125155,COLUMBINE LAKE WSD,"80447, Grand Lake, Colorado",80447,Colorado,Region 8,Community water system,241,,Grand,8,20,7,-105.868882,40.194796,-105.868882,40.194796,-106.174882,-105.562882,39.888796,40.500796
CO0225325,GRAND LAKE GOLF COURSE,"80447, Grand Lake, Colorado",80447,Colorado,Region 8,Transient non-community system,43,,Grand,3,15,6,-105.868882,40.194796,-105.868882,40.194796,-106.174882,-105.562882,39.888796,40.500796
CO0162125,AULT TOWN OF,"80610, Severance, Colorado",80610,Colorado,Region 8,Community water system,1460,,Weld,4,1,3,-104.734242,40.583171,-104.734242,40.583171,-105.065242,-104.403242,40.252171,40.914171
CO0221690,PAINT BRUSH HILLS,"Towner Ave, Peyton, Colorado, 80831",80831,Colorado,Region 8,Community water system,2650,,El Paso,24,530,2,-104.622906,38.965719,-104.622906,38.965719,-104.635906,-104.609906,38.952719,38.978719
CO0125708,THE SHORES OF SHADOW MOUNTAIN HOA,"80478, Tabernash, Colorado",80478,Colorado,Region 8,Community water system,138,,Grand,4,1,4,-105.846762,39.993441,-105.846762,39.993441,-106.032762,-105.660762,39.807441,40.179441
CO0235726,SUNDANCE TRAIL GUEST RANCH,"17931 W County Road 74E, Red Feather Lakes, Colorado, 80545",80545,Colorado,Region 8,Transient non-community system,27,,Larimer,8,9,2,-105.496557,40.767393,-105.497061,40.76609,-105.497557,-105.495557,40.766393,40.768393
CO0125707,SHOREWOOD SUBD,"80447, Grand Lake, Colorado",80447,Colorado,Region 8,Transient non-community system,56,,Grand,5,5,2,-105.868882,40.194796,-105.868882,40.194796,-106.174882,-105.562882,39.888796,40.500796
CO0226630,RAGGED MOUNTAIN CAMP,"3076 E Rd, Grand Junction, Colorado, 81504",81504,Colorado,Region 8,Transient non-community system,152,,Gunnison,3,9,3,-108.481733,39.077359,-108.481733,39.077359,-108.491733,-108.471733,39.067359,39.087359
CO0101610,PINE LAKES RANCH,"2392 S Fig St, Lakewood, Colorado, 80228",80228,Colorado,Region 8,Community water system,1965,,Adams,2,0,0,-105.160206,39.672252,-105.159951,39.67226,-105.161206,-105.159206,39.671252,39.673252
CO0334680,PINE POINT CG,"15 Burnett Ct, Durango, Colorado, 81301",81301,Colorado,Region 8,Transient non-community system,42,,La Plata,4,5,3,-107.892132,37.272839,-107.892132,37.272839,-107.902132,-107.882132,37.262839,37.282839
CO0135685,RMNP HEADQUARTERS EAST,"1000 US-36, Estes Park, Colorado, 80517",80517,Colorado,Region 8,Community water system,350,,Larimer,10,2,4,-105.57659,40.366695,-105.57659,40.366695,-105.58659,-105.56659,40.356695,40.376695
CO0230020,MILLERCOORS LLC,"80401, Evergreen, Colorado",80401,Colorado,Region 8,Non-Transient non-community system,3895,,Jefferson,6,3,6,-105.221071,39.75386,-105.221071,39.75386,-105.398071,-105.044071,39.57686,39.93086
CO0226844,YWAM HIGH PARK,"81220, Cimarron, Colorado",81220,Colorado,Region 8,Non-Transient non-community system,92,,Gunnison,6,15,6,-107.377811,38.357251,-107.377811,38.357251,-107.664811,-107.090811,38.070251,38.644251
CO0226845,SONRISE MOUNTAIN RANCH,"18876 6495 Rd, Montrose, Colorado, 81403",81403,Colorado,Region 8,Transient non-community system,110,,Gunnison,10,8,4,-107.874278,38.408997,-107.873001,38.40764,-107.875278,-107.873278,38.407997,38.409997
CO0221701,PEYTON ELEM SCHOOL GRADE K 5,"13550 Bradshaw Rd, Peyton, Colorado, 80831",80831,Colorado,Region 8,Non-Transient non-community system,348,,El Paso,8,36,2,-104.497234,39.02764,-104.497234,39.02764,-104.507234,-104.487234,39.01764,39.03764
CO0126677,RIVERLAND LOT OWNERS ASSOC,"81224, Crested Butte, Colorado",81224,Colorado,Region 8,Community water system,368,,Gunnison,6,84,3,-106.887482,38.815141,-106.887482,38.815141,-107.198482,-106.576482,38.504141,39.126141
CO0221601,PEYTON HIGH SCHOOL,"13550 Bradshaw Rd, Peyton, Colorado, 80831",80831,Colorado,Region 8,Non-Transient non-community system,245,,El Paso,5,144,2,-104.497234,39.02764,-104.497234,39.02764,-104.507234,-104.487234,39.01764,39.03764
CO0234676,RIVERMIST PRESCHOOL,"2441 CR-225, Durango, Colorado, 81301",81301,Colorado,Region 8,Transient non-community system,27,,La Plata,4,2,1,-107.778049,37.259413,-107.779081,37.25883,-107.779049,-107.777049,37.258413,37.260413
CO0235181,CSU SOUTH CAMPUS,"80523, Fort Collins, Colorado",80523,Colorado,Region 8,Non-Transient non-community system,6945,FORT COLLINS,Larimer,4,2,1,-105.080922,40.577956,-105.080922,40.577956,-105.085922,-105.075922,40.572956,40.582956
CO0235184,CSU MAIN AND WEST HOUSING CAMPUS,"80523, Fort Collins, Colorado",80523,Colorado,Region 8,Community water system,20607,,Larimer,10,5,1,-105.080922,40.577956,-105.080922,40.577956,-105.085922,-105.075922,40.572956,40.582956
CO0111200,CAPULIN WD,"81124, Capulin, Colorado",81124,Colorado,Region 8,Community water system,350,,Conejos,6,23,7,-106.22833,37.345293,-106.22833,37.345293,-106.34533,-106.11133,37.228293,37.462293
CO0342333,HOUSE CREEK CG,"15 Burnett Ct, Durango, Colorado, 81301",81301,Colorado,Region 8,Transient non-community system,80,,Montezuma,3,5,2,-107.892132,37.272839,-107.892132,37.272839,-107.902132,-107.882132,37.262839,37.282839
CO0207833,BOULDER MOUNTAIN LODGE,"91 Fourmile Canyon Dr, Boulder, Colorado, 80302",80302,Colorado,Region 8,Transient non-community system,81,,Boulder,3,6,5,-105.325535,40.017899,-105.326001,40.01767,-105.326535,-105.324535,40.016899,40.018899
CO0335485,LONGS PEAK CG,"1000 US-36, Estes Park, Colorado, 80517",80517,Colorado,Region 8,Transient non-community system,500,,Larimer,4,1,3,-105.57659,40.366695,-105.57659,40.366695,-105.58659,-105.56659,40.356695,40.376695
CO0219729,SYLVAN LAKE STATE PARK,"81631, Eagle, Colorado",81631,Colorado,Region 8,Transient non-community system,150,,Eagle,7,10,4,-106.824001,39.659661,-106.824001,39.659661,-107.122001,-106.526001,39.361661,39.957661
CO0160176,FOREST GLEN SPORTS ASSOC INC,"639 Forest Glen Trl, Florissant, Colorado, 80816",80816,Colorado,Region 8,Community water system,76,,Teller,4,73,4,-105.326773,38.952659,-105.326791,38.95292,-105.327773,-105.325773,38.951659,38.953659
CO0119467,LAKE CREEK MEADOWS MD,"28 2nd St, Edwards, Colorado, 81632",81632,Colorado,Region 8,Community water system,350,,Eagle,9,38,6,-106.591121,39.642716,-106.591121,39.642716,-106.601121,-106.581121,39.632716,39.652716
CO0219730,SYLVAN LAKE VISITOR CENTER,"81631, Eagle, Colorado",81631,Colorado,Region 8,Transient non-community system,109,,Eagle,3,0,4,-106.824001,39.659661,-106.824001,39.659661,-107.122001,-106.526001,39.361661,39.957661
CO0242500,PRIEST GULCH RV AND CAMPGROUND,"27646 Highway 145, Dolores, Colorado, 81323",81323,Colorado,Region 8,Transient non-community system,190,,Montezuma,7,4,3,-108.160035,37.586393,-108.159961,37.58619,-108.161035,-108.159035,37.585393,37.587393
CO0214142,BEAR CREEK LOA,"86 Bear Paw Ct N, Antonito, Colorado, 81120",81120,Colorado,Region 8,Community water system,133,,Conejos,6,162,3,-106.299746,37.073428,-106.299746,37.073428,-106.309746,-106.289746,37.063428,37.083428
CO0335343,HIDDEN VALLEY,"1000 US-36, Estes Park, Colorado, 80517",80517,Colorado,Region 8,Transient non-community system,250,,Larimer,5,1,3,-105.57659,40.366695,-105.57659,40.366695,-105.58659,-105.56659,40.356695,40.376695
CO0145780,VROMAN WC,"13410 US-50, Manzanola, Colorado, 81058",81058,Colorado,Region 8,Community water system,125,,Otero,4,41,5,-103.830542,38.097604,-103.831531,38.09608,-103.831542,-103.829542,38.096604,38.098604
CO0221700,PEYTON MIDDLE SCHOOL,"13550 Bradshaw Rd, Peyton, Colorado, 80831",80831,Colorado,Region 8,Non-Transient non-community system,400,,El Paso,4,114,5,-104.497234,39.02764,-104.497234,39.02764,-104.507234,-104.487234,39.01764,39.03764
CO0224543,LAST SHOT,"17268 Highway 119, Black Hawk, Colorado, 80422",80422,Colorado,Region 8,Transient non-community system,72,,Gilpin,3,3,7,-105.475544,39.886848,-105.475291,39.88735,-105.476544,-105.474544,39.885848,39.887848
CO0335315,GLACIER BASIN,"1000 US-36, Estes Park, Colorado, 80517",80517,Colorado,Region 8,Transient non-community system,500,,Larimer,5,0,4,-105.57659,40.366695,-105.57659,40.366695,-105.58659,-105.56659,40.356695,40.376695
CO0230166,CANYON SHOPPES THE,"11859 Pecos St, Westminster, Colorado, 80234",80234,Colorado,Region 8,Transient non-community system,36,,Jefferson,3,2,4,-105.006158,39.910652,-105.006821,39.91066,-105.007158,-105.005158,39.909652,39.911652
CO0133700,PARKVILLE WD,"2015 N Poplar St, Leadville, Colorado, 80461",80461,Colorado,Region 8,Community water system,8450,,Lake,15,76,5,-106.291752,39.261021,-106.291752,39.261021,-106.301752,-106.281752,39.251021,39.271021
CO0256517,MOLAS LAKE PARK,"81433, Silverton, Colorado",81433,Colorado,Region 8,Transient non-community system,60,,San Juan,3,5,1,-107.66445,37.811834,-107.66445,37.811834,-107.97545,-107.35345,37.500834,38.122834
CO0233325,GRAND WEST VILLAGE RESORT,"80461, Leadville, Colorado",80461,Colorado,Region 8,Transient non-community system,80,,Lake,4,1,4,-106.291732,39.248738,-106.291732,39.248738,-106.504732,-106.078732,39.035738,39.461738
CO0103666,RANGEVIEW MD,"34501 E Quincy Ave, Watkins, Colorado, 80137",80137,Colorado,Region 8,Community water system,600,,Arapahoe,7,3,3,-104.577152,39.637948,-104.577021,39.64573,-104.578152,-104.576152,39.636948,39.638948
CO0119720,TWO RIVERS VILLAGE,"28 2nd St, Edwards, Colorado, 81632",81632,Colorado,Region 8,Community water system,300,,Eagle,5,47,3,-106.591121,39.642716,-106.591121,39.642716,-106.601121,-106.581121,39.632716,39.652716
CO0262709,SHORTGRASS STEPPE CAMPUS,"80523, Fort Collins, Colorado",80523,Colorado,Region 8,Transient non-community system,36,,Weld,5,2,2,-105.080922,40.577956,-105.080922,40.577956,-105.085922,-105.075922,40.572956,40.582956
CO0210004,INTRAWEST RETAIL GROUP,"80435, Montezuma, Colorado",80435,Colorado,Region 8,Transient non-community system,1528,,Clear Creek,4,4,6,-106.005446,39.595631,-106.005446,39.595631,-106.235446,-105.775446,39.365631,39.825631
CO0144020,MORGAN COUNTY QUALITY WD,"80701, Fort Morgan, Colorado",80701,Colorado,Region 8,Community water system,6595,,Morgan,32,18,6,-103.799621,40.25443,-103.799621,40.25443,-104.243621,-103.355621,39.81043,40.69843
CO0107473,LAFAYETTE CITY OF,"1290 S Public Rd, Lafayette, Colorado, 80026",80026,Colorado,Region 8,Community water system,27651,,Boulder,15,43,7,-105.090485,39.98739,-105.089731,39.98739,-105.091485,-105.089485,39.98639,39.98839
CO0159055,FRISCO TOWN OF,"80443, Frisco, Colorado",80443,Colorado,Region 8,Community water system,4426,,Summit,17,160,6,-106.103692,39.575741,-106.103692,39.575741,-106.258692,-105.948692,39.420741,39.730741
CO0222730,ROYAL GORGE BRIDGE CO OF COLO,"81212, Brookside, Colorado",81212,Colorado,Region 8,Non-Transient non-community system,2230,,Fremont,4,49,4,-105.239709,38.446253,-105.239709,38.446253,-105.968709,-104.510709,37.717253,39.175253
CO0254605,PERRY MANSFIELD CAMP,"40755 CR-36, Steamboat Springs, Colorado, 80487",80487,Colorado,Region 8,Transient non-community system,206,,Routt,6,24,7,-106.823537,40.509671,-106.826931,40.50968,-106.824537,-106.822537,40.508671,40.510671
CO0235685,SHAMBHALA MOUNTAIN CENTER,"151 Shambhala Way, Red Feather Lakes, Colorado, 80545",80545,Colorado,Region 8,Community water system,285,,Larimer,18,4,4,-105.545838,40.737986,-105.546071,40.73781,-105.546838,-105.544838,40.736986,40.738986
CO0111700,MANASSA TOWN OF,"81141, Manassa, Colorado",81141,Colorado,Region 8,Community water system,991,,Conejos,5,15,6,-105.932401,37.17448,-105.932401,37.17448,-105.993401,-105.871401,37.11348,37.23548
CO0219806,PINEY RIVER RANCH,"81658, Vail, Colorado",81658,Colorado,Region 8,Transient non-community system,100,,Eagle,6,16,3,-106.404076,39.638978,-106.404076,39.638978,-106.409076,-106.399076,39.633978,39.643978
CO0130344,HIGH VIEW WD,"1002 Kipling St, Lakewood, Colorado, 80215",80215,Colorado,Region 8,Community water system,2278,,Jefferson,8,0,5,-105.109586,39.73337,-105.109221,39.73337,-105.110586,-105.108586,39.73237,39.73437
CO0147030,FAIRPLAY MHP,"15 Rhea Mills Cir, Prosper, Texas, 75078",75078,Colorado,Region 8,Community water system,107,,Park,6,12,8,-96.738368,33.249508,-96.738368,33.249508,-96.748368,-96.728368,33.239508,33.259508
CO0342835,WEST DOLORES CAMPGROUND,"15 Burnett Ct, Durango, Colorado, 81301",81301,Colorado,Region 8,Transient non-community system,40,,Dolores,3,4,1,-107.892132,37.272839,-107.892132,37.272839,-107.902132,-107.882132,37.262839,37.282839
CO0123667,RANCH AT ROARING FORK,"14913 Highway 82, Carbondale, Colorado, 81623",81623,Colorado,Region 8,Community water system,300,,Garfield,5,6,4,-107.176415,39.410753,-107.176831,39.40879,-107.177415,-107.175415,39.409753,39.411753
CO0226800,GARLIC MIKES,"2674 CO-135, Gunnison, Colorado, 81230",81230,Colorado,Region 8,Transient non-community system,50,,Gunnison,3,3,6,-106.922196,38.58219,-106.921261,38.58218,-106.923196,-106.921196,38.58119,38.58319
CO0147020,FAIRPLAY TOWN OF,"80440, Fairplay, Colorado",80440,Colorado,Region 8,Community water system,675,,Park,10,77,7,-105.932831,39.168991,-105.932831,39.168991,-106.209831,-105.655831,38.891991,39.445991
CO0210009,CDOT EISENHOWER JOHNSON TUNNEL,"80452, Idaho Springs, Colorado",80452,Colorado,Region 8,Non-Transient non-community system,50,,Clear Creek,4,11,4,-105.649872,39.815725,-105.649872,39.815725,-105.926872,-105.372872,39.538725,40.092725
CO0123595,PANORAMA RANCHES HOA,"165 Basalt Mountain Dr, Carbondale, Colorado, 81623",81623,Colorado,Region 8,Community water system,90,,Garfield,6,6,2,-107.121157,39.448916,-107.121157,39.448916,-107.131157,-107.111157,39.438916,39.458916
CO0108420,GARFIELD MONARCH MTN LODGE,"1400 Broadfield Blvd, Houston, Texas, 77084",77084,Colorado,Region 8,Community water system,525,,Chaffee,5,9,3,-95.659242,29.78789,-95.658561,29.78805,-95.660242,-95.658242,29.78689,29.78889
CO0121725,ROCK CREEK MESA,"180 Rock Creek Mesa Rd, Colorado Springs, Colorado, 80926",80926,Colorado,Region 8,Community water system,869,,El Paso,11,6,4,-104.830163,38.712426,-104.830163,38.712426,-104.840163,-104.820163,38.702426,38.722426
CO0317166,CAYTON CG,"15 Burnett Ct, Durango, Colorado, 81301",81301,Colorado,Region 8,Transient non-community system,55,,Dolores,4,0,1,-107.892132,37.272839,-107.892132,37.272839,-107.902132,-107.882132,37.262839,37.282839
CO0334800,TRANSFER CG,"15 Burnett Ct, Durango, Colorado, 81301",81301,Colorado,Region 8,Transient non-community system,40,,Montezuma,3,6,3,-107.892132,37.272839,-107.892132,37.272839,-107.902132,-107.882132,37.262839,37.282839
CO0211300,MOGOTE MEADOW,"34127 State Highway 17, Antonito, Colorado, 81120",81120,Colorado,Region 8,Transient non-community system,75,,Conejos,5,3,5,-106.099073,37.063464,-106.098631,37.06381,-106.100073,-106.098073,37.062464,37.064464
CO0135138,BERTHOUD TOWN OF,"328 Massachusetts Ave, Berthoud, Colorado, 80513",80513,Colorado,Region 8,Community water system,5000,,Larimer,10,36,6,-105.07894,40.306242,-105.07894,40.306242,-105.08894,-105.06894,40.296242,40.316242
CO0126834,CAMP GUNNISON INC,"606 CR-9, Gunnison, Colorado, 81230",81230,Colorado,Region 8,Community water system,35,,Gunnison,8,33,5,-106.876463,38.614015,-106.875361,38.61364,-106.877463,-106.875463,38.613015,38.615015
CO0156600,SILVERTON TOWN OF,"81433, Silverton, Colorado",81433,Colorado,Region 8,Community water system,1540,,San Juan,6,4,6,-107.66445,37.811834,-107.66445,37.811834,-107.97545,-107.35345,37.500834,38.122834
CO0254524,MT ELIM BIBLE CAMP,"80459, Kremmling, Colorado",80459,Colorado,Region 8,Transient non-community system,26,,Routt,4,25,8,-106.52881,40.111144,-106.52881,40.111144,-106.86281,-106.19481,39.777144,40.445144
CO0119139,BELLYACHE RIDGE MD,"28 2nd St, Edwards, Colorado, 81632",81632,Colorado,Region 8,Community water system,230,,Eagle,10,27,8,-106.591121,39.642716,-106.591121,39.642716,-106.601121,-106.581121,39.632716,39.652716
CO0143559,NUCLA TOWN OF,"81424, Nucla, Colorado",81424,Colorado,Region 8,Community water system,875,,Montrose,10,18,8,-108.531861,38.232201,-108.531861,38.232201,-108.897861,-108.165861,37.866201,38.598201
CO0123248,EL ROCKO MHP,"1011 Grand Ave, Glenwood Springs, Colorado, 81601",81601,Colorado,Region 8,Community water system,80,,Garfield,3,6,6,-107.324917,39.543521,-107.325201,39.54353,-107.325917,-107.323917,39.542521,39.544521
CO0353300,ELK CREEK CG,"1803 W US Highway 160, Monte Vista, Colorado, 81144",81144,Colorado,Region 8,Transient non-community system,32,,Conejos,4,0,2,-106.181622,37.582028,-106.181631,37.58273,-106.182622,-106.180622,37.581028,37.583028
CO0230617,WINDY POINT RETAIL CENTER,"4396 S Vivian Way, Morrison, Colorado, 80465",80465,Colorado,Region 8,Transient non-community system,25,,Jefferson,3,4,6,-105.138765,39.636756,-105.138911,39.63693,-105.139765,-105.137765,39.635756,39.637756
CO0123860,WOODEN DEER HOA,"165 Basalt Mountain Dr, Carbondale, Colorado, 81623",81623,Colorado,Region 8,Community water system,36,,Garfield,4,1,2,-107.121157,39.448916,-107.121157,39.448916,-107.131157,-107.111157,39.438916,39.458916
CO0218700,SANCTUARY GOLF COURSE,"7543 Daniels Park Rd, Sedalia, Colorado, 80135",80135,Colorado,Region 8,Transient non-community system,220,,Douglas,5,2,4,-104.916957,39.471485,-104.916957,39.471485,-104.926957,-104.906957,39.461485,39.481485
CO0230514,MONTESSORI MIDDLE SCHOOL,"80437, Evergreen, Colorado",80437,Colorado,Region 8,Non-Transient non-community system,40,,Jefferson,3,3,8,-105.343571,39.649401,-105.343571,39.649401,-105.348571,-105.338571,39.644401,39.654401
CO0151500,PUEBLO BOARD OF WW,"319 W 4th St, Pueblo, Colorado, 81003",81003,Colorado,Region 8,Community water system,108221,,Pueblo,25,33,6,-104.611293,38.270648,-104.611321,38.27125,-104.612293,-104.610293,38.269648,38.271648
CO0108050,PINON PINES PROPERTY  LLC,"2100 E Colfax Ave, Denver, Colorado, 80206",80206,Colorado,Region 8,Community water system,100,,Chaffee,3,9,4,-104.962061,39.739963,-104.962061,39.73986,-104.963061,-104.961061,39.738963,39.740963
CO0335123,ASPEN GLEN CG,"1000 US-36, Estes Park, Colorado, 80517",80517,Colorado,Region 8,Transient non-community system,250,,Larimer,6,2,3,-105.57659,40.366695,-105.57659,40.366695,-105.58659,-105.56659,40.356695,40.376695
CO0335138,BEAR LAKE,"1000 US-36, Estes Park, Colorado, 80517",80517,Colorado,Region 8,Transient non-community system,250,,Larimer,4,0,3,-105.57659,40.366695,-105.57659,40.366695,-105.58659,-105.56659,40.356695,40.376695
CO0138001,BUFFALO HILLS CAMPGROUND,"E Chestnut St, Sterling, Colorado, 80751",80751,Colorado,Region 8,Community water system,96,,Logan,5,20,5,-103.20037,40.623342,-103.20037,40.623342,-103.20837,-103.19237,40.615342,40.631342
CO0121700,RED ROCK VALLEY WD,"9548 Waterbury Dr, Peyton, Colorado, 80831",80831,Colorado,Region 8,Community water system,200,,El Paso,15,30,6,-104.61555,38.970774,-104.615771,38.97035,-104.61655,-104.61455,38.969774,38.971774
CO0335266,FALL RIVER PASS,"1000 US-36, Estes Park, Colorado, 80517",80517,Colorado,Region 8,Transient non-community system,3300,,Larimer,7,3,3,-105.57659,40.366695,-105.57659,40.366695,-105.58659,-105.56659,40.356695,40.376695
CO0253300,GRANDVIEW CABINS AND RV LLC,"81154, South Fork, Colorado",81154,Colorado,Region 8,Transient non-community system,250,,Rio Grande,3,7,4,-106.576302,37.684176,-106.576302,37.684176,-106.900302,-106.252302,37.360176,38.008176
CO0335845,WILD BASIN ES,"1000 US-36, Estes Park, Colorado, 80517",80517,Colorado,Region 8,Transient non-community system,250,,Boulder,3,0,3,-105.57659,40.366695,-105.57659,40.366695,-105.58659,-105.56659,40.356695,40.376695
CO0103005,AURORA CITY OF,"18301 E Quincy Ave, Aurora, Colorado, 80015",80015,Colorado,Region 8,Community water system,325000,,Arapahoe,63,4,7,-104.773832,39.638628,-104.773831,39.6394,-104.774832,-104.772832,39.637628,39.639628
CO0260820,CATHEDRAL RIDGE,"1364 CR-75, Woodland Park, Colorado, 80863",80863,Colorado,Region 8,Transient non-community system,54,,Teller,5,8,3,-105.089937,39.049461,-105.089937,39.049461,-105.099937,-105.079937,39.039461,39.059461
CO0221220,COLORADO HEIGHTS CAMPING RESORT,"6041 Santana Dr, Colorado Springs, Colorado, 80923",80923,Colorado,Region 8,Transient non-community system,145,,El Paso,4,1,4,-104.730106,38.922821,-104.729891,38.9228,-104.731106,-104.729106,38.921821,38.923821
CO0235183,PINGREE PARK PALMER CENTER,"80523, Fort Collins, Colorado",80523,Colorado,Region 8,Transient non-community system,155,,Larimer,3,2,8,-105.080922,40.577956,-105.080922,40.577956,-105.085922,-105.075922,40.572956,40.582956
CO0253720,RIVERBEND RESORT,"33846 US-160, South Fork, Colorado, 81154",81154,Colorado,Region 8,Transient non-community system,49,,Rio Grande,7,3,7,-106.679096,37.63,-106.679096,37.63,-106.689096,-106.669096,37.62,37.64
CO0136400,KIM TOWN OF,"81049, Villegreen, Colorado",81049,Colorado,Region 8,Community water system,132,,Las Animas,8,23,5,-103.355357,37.246691,-103.355357,37.246691,-103.752357,-102.958357,36.849691,37.643691
CO0201291,CITY OF AURORA AT FRONT RANGE AIRPORT,"18301 E Quincy Ave, Aurora, Colorado, 80015",80015,Colorado,Region 8,Non-Transient non-community system,0,,Adams,7,1,3,-104.773832,39.638628,-104.773831,39.6394,-104.774832,-104.772832,39.637628,39.639628
CO0204200,HAPPY CAMPERS RV PARK,"9260 W Highway 160, Pagosa Springs, Colorado, 81147",81147,Colorado,Region 8,Transient non-community system,45,,Archuleta,5,551,4,-107.14744,37.241043,-107.147401,37.24047,-107.14844,-107.14644,37.240043,37.242043
CO0147200,WILL O WISP METRO DISTRICT,"956 Wisp Creek Dr, Bailey, Colorado, 80421",80421,Colorado,Region 8,Community water system,300,,Park,8,67,2,-105.41143,39.449703,-105.411311,39.44977,-105.41243,-105.41043,39.448703,39.450703
CO0149588,ORCHARD ESTATES,"334 Apple Dr, Basalt, Colorado, 81621",81621,Colorado,Region 8,Community water system,64,,Pitkin,3,1,5,-107.074492,39.360853,-107.074491,39.36039,-107.075492,-107.073492,39.359853,39.361853
CO0230235,CONIFER DENTAL MEDICAL GROUP,"2392 S Fig St, Lakewood, Colorado, 80228",80228,Colorado,Region 8,Non-Transient non-community system,100,,Jefferson,3,4,6,-105.160206,39.672252,-105.159951,39.67226,-105.161206,-105.159206,39.671252,39.673252
CO0238709,SHADS STEAK HOUSE,"425 John Deere Dr, Fort Collins, Colorado, 80524",80524,Colorado,Region 8,Transient non-community system,200,,Logan,4,2,4,-105.004957,40.582741,-105.005361,40.58307,-105.005957,-105.003957,40.581741,40.583741
