PWSID,PWS Name,Approximate Address,Postal,Primacy Agency,EPA Region,PWS Type,Population Served Count,Cities Served,Counties Served,# of Facilities,# of Violations,# of Site Visits,Longitude,Latitude,DisplayX,DisplayY,Xmin,Xmax,Ymin,Ymax
IN2464109,J-MART AMOCO FOOD SHOP/ARBYS,"46320, Hammond, Indiana",46320,Indiana,Region 5,Transient non-community system,504,WESTVILLE,LaPorte,4,5,3,-87.519002,41.61702,-87.519002,41.61702,-87.612002,-87.426002,41.52402,41.71002
IN2431052,CENTER/CENTER-WEST WELL,"16521 San Carlos Blvd, Fort Myers, Florida, 33908",33908,Indiana,Region 5,Transient non-community system,50,WARSAW,Kosciusko,4,1,6,-81.943461,26.501391,-81.942991,26.5014,-81.944461,-81.942461,26.500391,26.502391
IN2430987,PATONA BAY CAMPGROUND,"162 Ems T33 Ln, Leesburg, Indiana, 46538",46538,Indiana,Region 5,Transient non-community system,150,LEESBURG,Kosciusko,9,11,3,-85.782108,41.334701,-85.781741,41.33464,-85.783108,-85.781108,41.333701,41.335701
IN2560820,LASALLE FISH & WILDLIFE AREA,"4752 W 1050 N, Lake Village, Indiana, 46349",46349,Indiana,Region 5,Transient non-community system,156,LAKE VILLAGE,Newton,4,7,4,-87.482921,41.152278,-87.482871,41.15543,-87.483921,-87.481921,41.151278,41.153278
IN2300926,"CARROLLTON UNITED METHODIST CHURCH, INC.","10975 N 200 W, Fountaintown, Indiana, 46130",46130,Indiana,Region 5,Transient non-community system,60,FINLY (CARROLLTON) (REEDVILLE),Hancock,2,17,5,-85.819857,39.68283,-85.820151,39.68283,-85.820857,-85.818857,39.68183,39.68383
IN2500814,CINDYS COUNTRY PRIDE FAMILY RESTAURANT,"12355 Michigan Rd, Plymouth, Indiana, 46563",46563,Indiana,Region 5,Transient non-community system,53,PLYMOUTH,Marshall,4,12,10,-86.275548,41.299021,-86.275548,41.299021,-86.285548,-86.265548,41.289021,41.309021
IN2350012,ST. PAULS CHILDCARE,"3995 N 1000 W, Andrews, Indiana, 46702",46702,Indiana,Region 5,Transient non-community system,97,ANDREWS,Huntington,3,2,2,-85.641575,40.885041,-85.641221,40.88505,-85.642575,-85.640575,40.884041,40.886041
IN2090856,LOGAN ROLLER RINK,"10677 W County Road 575 N, Royal Center, Indiana, 46978",46978,Indiana,Region 5,Transient non-community system,78,LOGANSPORT,Cass,2,53,10,-86.575582,40.849483,-86.575601,40.84917,-86.576582,-86.574582,40.848483,40.850483
IN2700008,FLATROCK AMISH SCHOOL,"4362 W State Road 244, Milroy, Indiana, 46156",46156,Indiana,Region 5,Transient non-community system,30,MILROY,Rush,3,18,6,-85.521592,39.496928,-85.525461,39.4996,-85.522592,-85.520592,39.495928,39.497928
IN5284005,J & T WATER COMPANY,"4501 N Fruitridge Ave, Terre Haute, Indiana, 47805",47805,Indiana,Region 5,Community water system,50,TERRE HAUTE,Vigo,2,38,11,-87.360256,39.521011,-87.359941,39.52091,-87.361256,-87.359256,39.520011,39.522011
IN2910801,VICTORIAN BAY RESORT,"47920, Battle Ground, Indiana",47920,Indiana,Region 5,Transient non-community system,25,,White,2,23,8,-86.835358,40.511189,-86.835358,40.511189,-86.920358,-86.750358,40.426189,40.596189
IN5207001,BROWN COUNTY WATER UTILITY,"5130 N State Road 135, Morgantown, Indiana, 46160",46160,Indiana,Region 5,Community water system,11300,,Brown,22,38,28,-86.249417,39.26951,-86.250041,39.2695,-86.250417,-86.248417,39.26851,39.27051
IN2760939,WAGGONERS R.V. PARK,"2425 Woodland Trl, Auburn, Indiana, 46706",46706,Indiana,Region 5,Transient non-community system,40,FREMONT,Steuben,2,1,3,-85.07255,41.286638,-85.072521,41.28696,-85.07355,-85.07155,41.285638,41.287638
IN2660061,BETHEL BIBLE CHURCH,"6966 W State Road 14, Winamac, Indiana, 46996",46996,Indiana,Region 5,Transient non-community system,125,WINAMAC,Pulaski,2,2,2,-86.737881,41.056098,-86.737861,41.05632,-86.738881,-86.736881,41.055098,41.057098
IN2710946,DAIRY QUEEN - GRANGER,"12422 State Road 23, Granger, Indiana, 46530",46530,Indiana,Region 5,Transient non-community system,265,GRANGER,St. Joseph,3,2,4,-86.109352,41.753513,-86.109351,41.75309,-86.110352,-86.108352,41.752513,41.754513
IN2680016,PIZZA HUT,"18077 River Rd, Noblesville, Indiana, 46062",46062,Indiana,Region 5,Transient non-community system,58,WINCHESTER,Randolph,4,2,1,-86.028145,40.05022,-86.029081,40.05037,-86.029145,-86.027145,40.04922,40.05122
IN2300035,DOLLAR GENERAL STORE - WILKINSON,"100 Mission Rdg, Goodlettsville, Tennessee, 37072",37072,Indiana,Region 5,Transient non-community system,52,WILKINSON,Hancock,3,2,2,-86.699243,36.309643,-86.699301,36.30908,-86.700243,-86.698243,36.308643,36.310643
IN2200935,"VEADA INDIANA, INC.- OFFICE #1","46553, New Paris, Indiana",46553,Indiana,Region 5,Non-Transient non-community system,80,NEW PARIS,Elkhart,3,35,6,-85.825937,41.499106,-85.825937,41.499106,-85.924937,-85.726937,41.400106,41.598106
IN2710840,WESTWOOD MOTEL,"25200 State Road 2, South Bend, Indiana, 46619",46619,Indiana,Region 5,Transient non-community system,25,SOUTH BEND,St. Joseph,2,33,3,-86.355342,41.671753,-86.355331,41.67111,-86.356342,-86.354342,41.670753,41.672753
IN2300024,"WILD HEART RESORT, LLC - KOA CAMPGROUND","5896 W 200 N, Greenfield, Indiana, 46140",46140,Indiana,Region 5,Transient non-community system,200,GREENFIELD,Hancock,3,16,7,-85.911221,39.812368,-85.911251,39.81602,-85.912221,-85.910221,39.811368,39.813368
IN2060809,CHRIST COVENANT CHURCH,"6070 N County Road 900 E, Sheridan, Indiana, 46069",46069,Indiana,Region 5,Transient non-community system,140,SHERIDAN,Boone,4,9,6,-86.298837,40.12988,-86.299391,40.12987,-86.299837,-86.297837,40.12888,40.13088
IN2431091,WAWASEE EPISCOPAL CONF. CENTER,"422 Niles Ave, Mishawaka, Indiana, 46544",46544,Indiana,Region 5,Transient non-community system,35,SYRACUSE,Kosciusko,4,10,4,-86.165195,41.665141,-86.164931,41.66514,-86.166195,-86.164195,41.664141,41.666141
IN2570887,"FASHION FARM, INC. - RESTAURANT","1680 Lincolnway W, Ligonier, Indiana, 46767",46767,Indiana,Region 5,Transient non-community system,320,LIGONIER,Noble,4,10,2,-85.620771,41.466367,-85.620781,41.46674,-85.621771,-85.619771,41.465367,41.467367
IN2680847,SARATOGA LIONS CLUB,"7660 N US-27, Ridgeville, Indiana, 47380",47380,Indiana,Region 5,Transient non-community system,25,RIDGEVILLE,Randolph,4,16,6,-84.976377,40.27435,-84.978341,40.27435,-84.977377,-84.975377,40.27335,40.27535
IN5273003,MORRISTOWN WATER DEPARTMENT,"418 W Main St, Morristown, Indiana, 46161",46161,Indiana,Region 5,Community water system,1100,MORRISTOWN,Shelby,11,61,16,-85.705115,39.675167,-85.704971,39.6755,-85.706115,-85.704115,39.674167,39.676167
IN2910944,RIVIERA COMPLEX,"5057 E Indiana Beach Rd, Monticello, Indiana, 47960",47960,Indiana,Region 5,Transient non-community system,28,MONTICELLO,White,4,9,3,-86.773201,40.791678,-86.773201,40.79195,-86.774201,-86.772201,40.790678,40.792678
IN5229012,TALL TIMBERS MOBILE HOME PARK-EAST,"59639, Lincoln, Montana",59639,Indiana,Region 5,Community water system,90,NOBLESVILLE,Hamilton,3,20,11,-112.679117,46.95528,-112.679117,46.95528,-113.024117,-112.334117,46.61028,47.30028
IN2170867,LAKEWOOD PARK BAPTIST CHURCH/SCHOOL,"5555 County Road 29, Auburn, Indiana, 46706",46706,Indiana,Region 5,Non-Transient non-community system,1210,AUBURN,DeKalb,6,4,5,-85.050655,41.333191,-85.045851,41.33322,-85.051655,-85.049655,41.332191,41.334191
IN2431051,CENTER/CENTER SHOPPING CENTER-EAST WELL,"16521 San Carlos Blvd, Fort Myers, Florida, 33908",33908,Indiana,Region 5,Transient non-community system,50,WARSAW,Kosciusko,4,0,5,-81.943461,26.501391,-81.942991,26.5014,-81.944461,-81.942461,26.500391,26.502391
IN2431111,AIRPORT HANGAR,"345 E Main St, Warsaw, Indiana, 46580",46580,Indiana,Region 5,Transient non-community system,25,WARSAW,Kosciusko,3,0,2,-85.854072,41.239098,-85.854091,41.23959,-85.855072,-85.853072,41.238098,41.240098
IN2020097,LEO CAFE,"16915 Van Zile Rd, Grabill, Indiana, 46741",46741,Indiana,Region 5,Transient non-community system,82,LEO,Allen,4,43,3,-84.974851,41.242667,-84.975021,41.24294,-84.975851,-84.973851,41.241667,41.243667
IN2200097,CRYSTAL SPRINGS PAROCHIAL AMISH SCHOOL,"11467 County Road 20, Middlebury, Indiana, 46540",46540,Indiana,Region 5,Transient non-community system,40,MIDDLEBURY,Elkhart,2,3,2,-85.685611,41.639628,-85.685551,41.64136,-85.686611,-85.684611,41.638628,41.640628
IN2430181,CLUNETTE ELEVATOR CO. INC.,"4316 W 600 N, Leesburg, Indiana, 46538",46538,Indiana,Region 5,Transient non-community system,32,LEESBURG,Kosciusko,4,7,8,-85.926202,41.319768,-85.927461,41.32041,-85.927202,-85.925202,41.318768,41.320768
IN2330823,WESTWOOD GOLF CLUB,"1742 W Country Club Dr, New Castle, Indiana, 47362",47362,Indiana,Region 5,Transient non-community system,100,NEW CASTLE,Henry,4,4,12,-85.418709,39.920835,-85.421081,39.92269,-85.419709,-85.417709,39.919835,39.921835
IN2460846,ST. MARYS CHURCH & HALL,"46390, Wanatah, Indiana",46390,Indiana,Region 5,Transient non-community system,260,OTIS,LaPorte,7,17,11,-86.899352,41.431921,-86.899352,41.431921,-86.997352,-86.801352,41.333921,41.529921
IN2480124,"AIRPORT RESTAURANT, INC.","10130 N State Road 37, Elwood, Indiana, 46036",46036,Indiana,Region 5,Transient non-community system,99,ELWOOD,Madison,3,16,7,-85.840205,40.249866,-85.839861,40.24956,-85.841205,-85.839205,40.248866,40.250866
IN2520142,HONEY BEAR HOLLOW FAMILY CAMPGROUND,"4252 W 200 N, Peru, Indiana, 46970",46970,Indiana,Region 5,Transient non-community system,40,PERU,Miami,2,6,5,-86.153741,40.793158,-86.151771,40.79638,-86.154741,-86.152741,40.792158,40.794158
IN2520837,COE-MISSISSINEWA LAKE,"5613 E Mississinewa Dam Rd, Peru, Indiana, 46970",46970,Indiana,Region 5,Transient non-community system,30,PERU,Miami,2,2,2,-85.964736,40.712116,-85.963491,40.71102,-85.965736,-85.963736,40.711116,40.713116
IN2010124,WEST MISSIONARY CHURCH,"4295 W State Road 218, Berne, Indiana, 46711",46711,Indiana,Region 5,Transient non-community system,251,BERNE,Adams,5,15,6,-85.018921,40.656288,-85.018891,40.65666,-85.019921,-85.017921,40.655288,40.657288
IN2201058,BEER AND SLABAUGH INC.,"23965 US Highway 6, Nappanee, Indiana, 46550",46550,Indiana,Region 5,Transient non-community system,66,NAPPANEE,Elkhart,2,9,3,-85.923472,41.443976,-85.923911,41.44458,-85.924472,-85.922472,41.442976,41.444976
IN2800815,TRI-CENTRAL ELEMENTARY SCHOOL,"4774 N 200 W, Sharpsville, Indiana, 46068",46068,Indiana,Region 5,Non-Transient non-community system,600,SHARPSVILLE,Tipton,4,5,9,-86.051142,40.372914,-86.051142,40.372914,-86.061142,-86.041142,40.362914,40.382914
IN5208001,CAMDEN WATER UTILITY,"Ohio St, Camden, Indiana, 46917",46917,Indiana,Region 5,Community water system,583,CAMDEN,Carroll,6,2,13,-86.536587,40.610091,-86.536587,40.610091,-86.539587,-86.533587,40.607091,40.613091
IN2430989,PATONA BAY CAMPGROUND CRIPPLE GATE WOODS,"162 Ems T33 Ln, Leesburg, Indiana, 46538",46538,Indiana,Region 5,Transient non-community system,60,LEESBURG,Kosciusko,3,9,3,-85.782108,41.334701,-85.781741,41.33464,-85.783108,-85.781108,41.333701,41.335701
IN2200946,LEER MIDWEST PLANT #2,"28858 Ventura Dr, Elkhart, Indiana, 46517",46517,Indiana,Region 5,Non-Transient non-community system,100,ELKHART,Elkhart,3,45,6,-86.020049,41.646379,-86.020049,41.646379,-86.030049,-86.010049,41.636379,41.656379
IN2200525,WATERFORD MENNONITE CHURCH,"65975 State Road 15, Goshen, Indiana, 46526",46526,Indiana,Region 5,Transient non-community system,335,GOSHEN,Elkhart,2,17,4,-85.828128,41.53727,-85.829261,41.53726,-85.829128,-85.827128,41.53627,41.53827
IN2300117,PHILADELPHIA UNITED METHODIST,"2265 W US Highway 40, Greenfield, Indiana, 46140",46140,Indiana,Region 5,Transient non-community system,60,GREENFIELD,Hancock,4,8,8,-85.84454,39.781663,-85.844511,39.78143,-85.84554,-85.84354,39.780663,39.782663
IN2440814,TOWNLINE MENNONITE CHURCH,"50868 County Road 25, Bristol, Indiana, 46507",46507,Indiana,Region 5,Transient non-community system,90,SHIPSHEWANA,LaGrange,2,22,5,-85.798382,41.757097,-85.796611,41.75587,-85.799382,-85.797382,41.756097,41.758097
IN2460424,DOOR VILLAGE UNITED METHODIST,"3502 W Joliet Rd, La Porte, Indiana, 46350",46350,Indiana,Region 5,Transient non-community system,100,LA PORTE,LaPorte,4,14,5,-86.770506,41.574324,-86.770711,41.57367,-86.771506,-86.769506,41.573324,41.575324
IN2020222,SUBURBAN BETHLEHEM LUTHERAN CHURCH,"6318 W California Rd, Fort Wayne, Indiana, 46818",46818,Indiana,Region 5,Transient non-community system,89,FORT WAYNE,Allen,4,9,7,-85.223935,41.11766,-85.223935,41.11766,-85.233935,-85.213935,41.10766,41.12766
IN2030124,COUNTRY DINER,"6304 S Jonesville Rd, Columbus, Indiana, 47201",47201,Indiana,Region 5,Transient non-community system,78,COLUMBUS,Bartholomew,3,28,9,-85.912334,39.142849,-85.912641,39.14272,-85.913334,-85.911334,39.141849,39.143849
IN2020014,SUBURBAN LUTHERAN SCHOOL,"6318 W California Rd, Fort Wayne, Indiana, 46818",46818,Indiana,Region 5,Non-Transient non-community system,220,FORT WAYNE,Allen,2,7,5,-85.225091,41.117668,-85.225091,41.11775,-85.226091,-85.224091,41.116668,41.118668
IN2710166,COMMUNITY GOSPEL CHURCH,"68893 State Road 331, Bremen, Indiana, 46506",46506,Indiana,Region 5,Transient non-community system,453,BREMEN,St. Joseph,3,2,1,-86.156348,41.496181,-86.157951,41.49617,-86.157348,-86.155348,41.495181,41.497181
IN2440082,BUCK CREEK AMISH SCHOOL,"2060 W US-20, Lagrange, Indiana, 46761",46761,Indiana,Region 5,Transient non-community system,30,LAGRANGE (LA GRANGE),LaGrange,2,0,0,-85.464071,41.641064,-85.464051,41.63992,-85.465071,-85.463071,41.640064,41.642064
IN2800814,TRI-CENTRAL HIGH SCHOOL,"4774 N 200 W, Sharpsville, Indiana, 46068",46068,Indiana,Region 5,Non-Transient non-community system,600,SHARPSVILLE,Tipton,4,5,14,-86.051142,40.372914,-86.051142,40.372914,-86.061142,-86.041142,40.362914,40.382914
IN5264033,L-A-C UTILITIES,"1805 Burlington Beach Rd, Valparaiso, Indiana, 46383",46383,Indiana,Region 5,Community water system,2489,VALPARAISO,Porter,5,5,6,-87.038732,41.507319,-87.038741,41.50749,-87.039732,-87.037732,41.506319,41.508319
IN5286003,WEST LEBANON WATER WORKS,"47991, West Lebanon, Indiana",47991,Indiana,Region 5,Community water system,900,WEST LEBANON,Warren,5,67,16,-87.388762,40.270241,-87.388762,40.270241,-87.530762,-87.246762,40.128241,40.412241
IN2520859,WOODYS CAMP & BAIT,"5686 E 375 S, Peru, Indiana, 46970",46970,Indiana,Region 5,Transient non-community system,175,PERU,Miami,2,5,3,-85.962972,40.715358,-85.962991,40.71633,-85.963972,-85.961972,40.714358,40.716358
IN2660816,VAN BUREN TWP.-FELLOWSHIPHALL & PARK,"5827 S 500 E, Star City, Indiana, 46985",46985,Indiana,Region 5,Transient non-community system,26,STAR CITY,Pulaski,7,31,2,-86.506668,40.96546,-86.507901,40.96545,-86.507668,-86.505668,40.96446,40.96646
IN2710169,COFFMAN OFFICE BUILDING,"46561, Osceola, Indiana",46561,Indiana,Region 5,Transient non-community system,60,OSCEOLA,St. Joseph,3,0,1,-86.093079,41.666596,-86.093079,41.666596,-86.166079,-86.020079,41.593596,41.739596
IN2420002,MELON ACRES HACIENDA,"47561, Emison, Indiana",47561,Indiana,Region 5,Transient non-community system,146,OAKTOWN,Knox,5,1,2,-87.440323,38.872979,-87.440323,38.872979,-87.572323,-87.308323,38.740979,39.004979
IN2710947,"LIBERTY LANES, INC.","603 S State St, North Liberty, Indiana, 46554",46554,Indiana,Region 5,Transient non-community system,37,NORTH LIBERTY,St. Joseph,3,12,9,-86.433727,41.52851,-86.433727,41.52851,-86.443727,-86.423727,41.51851,41.53851
IN2464117,VFW POST 9423,"46371, Rolling Pr, Indiana",46371,Indiana,Region 5,Transient non-community system,75,ROLLING PRAIRIE,LaPorte,2,13,3,-86.616309,41.67502,-86.616309,41.67502,-86.696309,-86.536309,41.59502,41.75502
IN2431159,G.R. PATON TESTAMENT TRUST,"162 Ems T33 Ln, Leesburg, Indiana, 46538",46538,Indiana,Region 5,Transient non-community system,59,LEESBURG,Kosciusko,2,8,2,-85.782108,41.334701,-85.781741,41.33464,-85.783108,-85.781108,41.333701,41.335701
IN2200967,"VEADA IND., INC. - WOODSHOP #3","46553, New Paris, Indiana",46553,Indiana,Region 5,Non-Transient non-community system,38,NEW PARIS,Elkhart,3,11,9,-85.825937,41.499106,-85.825937,41.499106,-85.924937,-85.726937,41.400106,41.598106
IN2760934,SALEM CENTER PRESBYTERIAN CHURCH,"50 N Flint Rd, Angola, Indiana, 46703",46703,Indiana,Region 5,Transient non-community system,50,HUDSON,Steuben,2,4,4,-85.131135,41.64299,-85.130711,41.64259,-85.132135,-85.130135,41.64199,41.64399
IN2730831,FAIRLAND RECREATION CENTER - CAMPGROUND,"34 W Rampart St, Shelbyville, Indiana, 46176",46176,Indiana,Region 5,Transient non-community system,25,SHELBYVILLE,Shelby,4,11,15,-85.777832,39.547498,-85.777861,39.54908,-85.778832,-85.776832,39.546498,39.548498
IN2010001,MAPLE LANE AMISH SCHOOL,"3371 W 300 S, Monroe, Indiana, 46772",46772,Indiana,Region 5,Transient non-community system,62,MONROE,Adams,2,5,3,-85.002512,40.700058,-85.002531,40.70178,-85.003512,-85.001512,40.699058,40.701058
IN2910824,SITKA BAPTIST CHURCH,"4953 N 700 E, Monticello, Indiana, 47960",47960,Indiana,Region 5,Transient non-community system,91,,White,2,12,9,-86.735326,40.824691,-86.735071,40.8247,-86.736326,-86.734326,40.823691,40.825691
IN2610811,WATERMAN BAPTIST CHURCH,"8560 W State Road 234, Kingman, Indiana, 47952",47952,Indiana,Region 5,Transient non-community system,100,,Parke,2,6,5,-87.40396,39.950568,-87.403941,39.95073,-87.40496,-87.40296,39.949568,39.951568
IN2200941,NEW PARIS MISSIONARY CHURCH,"46553, New Paris, Indiana",46553,Indiana,Region 5,Transient non-community system,210,NEW PARIS,Elkhart,2,31,5,-85.825937,41.499106,-85.825937,41.499106,-85.924937,-85.726937,41.400106,41.598106
IN2440862,COTTONWOOD GROVE AMISH SCHOOL,"4820 W 300 S, Topeka, Indiana, 46571",46571,Indiana,Region 5,Transient non-community system,40,TOPEKA,LaGrange,2,0,7,-85.516717,41.597456,-85.516717,41.597456,-85.526717,-85.506717,41.587456,41.607456
IN2680853,RANDOLPH FRIENDS,"5597 W County Road 700 N, Ridgeville, Indiana, 47380",47380,Indiana,Region 5,Transient non-community system,60,RIDGEVILLE,Randolph,3,35,5,-85.085682,40.264833,-85.085641,40.26122,-85.086682,-85.084682,40.263833,40.265833
IN2240019,FRANKLIN COUNTY PARK,"7178 Blue Creek Rd, Brookville, Indiana, 47012",47012,Indiana,Region 5,Transient non-community system,200,BROOKVILLE,Franklin,5,5,13,-85.01565,39.399284,-85.01565,39.399284,-85.02565,-85.00565,39.389284,39.409284
IN2440890,WOODRUFF GROVE UNITED METHODIST CHURCH,"4860 S 450 E, Wolcottville, Indiana, 46795",46795,Indiana,Region 5,Transient non-community system,70,WOLCOTTVILLE,LaGrange,4,7,4,-85.330576,41.570971,-85.330991,41.57116,-85.331576,-85.329576,41.569971,41.571971
IN2800820,PIONEER HI-BRED INTL/PRODUC PLANT,"1000 W Jefferson St, Tipton, Indiana, 46072",46072,Indiana,Region 5,Non-Transient non-community system,100,TIPTON,Tipton,6,14,11,-86.058272,40.281838,-86.058461,40.28584,-86.059272,-86.057272,40.280838,40.282838
IN5277006,PAXTON WATER CORPORATION,"S County Road 100 E, Carlisle, Indiana, 47838",47838,Indiana,Region 5,Community water system,1722,PAXTON,Sullivan,9,12,14,-87.3941,38.981492,-87.3941,38.981492,-87.4591,-87.3291,38.916492,39.046492
IN5283010,ST. BERNICE WATER CORP.,"47842, Clinton, Indiana",47842,Indiana,Region 5,Community water system,1100,ST. BERNICE,Vermillion,4,21,8,-87.404103,39.659186,-87.404103,39.659186,-87.533103,-87.275103,39.530186,39.788186
IN5221001,CONNERSVILLE UTILITIES,"Ohio Ave, Connersville, Indiana, 47331",47331,Indiana,Region 5,Community water system,13480,CONNERSVILLE,Fayette,14,2,19,-85.130421,39.661618,-85.130421,39.661618,-85.142421,-85.118421,39.649618,39.673618
IN2410030,SPEEDCO #340,"73126, Oklahoma City, Oklahoma",73126,Indiana,Region 5,Transient non-community system,35,WHITELAND,Johnson,4,8,11,-97.521072,35.47204,-97.521072,35.47204,-97.526072,-97.516072,35.46704,35.47704
IN5210012,"SUNFLOWER VALLEY WATER CO, INC.","319 St Joe Rd E, Sellersburg, Indiana, 47172",47172,Indiana,Region 5,Community water system,75,SELLERSBURG,Clark,2,33,7,-85.761977,38.412786,-85.762291,38.4131,-85.762977,-85.760977,38.411786,38.413786
IN2200969,"VEADA IND., INC. - CANVAS PLANT #4","46553, New Paris, Indiana",46553,Indiana,Region 5,Non-Transient non-community system,61,NEW PARIS,Elkhart,3,35,6,-85.825937,41.499106,-85.825937,41.499106,-85.924937,-85.726937,41.400106,41.598106
IN2500149,TYNER METHODIST CHURCH,"18819 5th Rd, Plymouth, Indiana, 46563",46563,Indiana,Region 5,Transient non-community system,52,TYNER,Marshall,2,17,3,-86.421541,41.404423,-86.421541,41.40403,-86.422541,-86.420541,41.403423,41.405423
IN2660867,"RISING SUN CAMPGROUNDS, LLC","7510 N 250 E, Monterey, Indiana, 46960",46960,Indiana,Region 5,Transient non-community system,25,MONTEREY,Pulaski,2,16,6,-86.557132,41.166095,-86.556391,41.16607,-86.558132,-86.556132,41.165095,41.167095
IN2570051,HALF ACRE CAFE,"23 S State Road 9, Albion, Indiana, 46701",46701,Indiana,Region 5,Transient non-community system,100,ALBION,Noble,4,7,6,-85.424403,41.351972,-85.424403,41.351972,-85.434403,-85.414403,41.341972,41.361972
IN2300867,MAXWELL MIDDLE SCHOOL,"700 N Broadway St, Greenfield, Indiana, 46140",46140,Indiana,Region 5,Non-Transient non-community system,600,MAXWELL,Hancock,4,30,19,-85.779388,39.790299,-85.779781,39.79029,-85.780388,-85.778388,39.789299,39.791299
IN2450059,LOWELL COMMONS,"617 E 113th Pl, Crown Point, Indiana, 46307",46307,Indiana,Region 5,Transient non-community system,36,HEBRON,Lake,4,1,10,-87.328458,41.412155,-87.328301,41.41199,-87.329458,-87.327458,41.411155,41.413155
IN2560003,"FRANKIES VILLAGE RESTAURANT, LTD","10073 N State Road 55, Demotte, Indiana, 46310",46310,Indiana,Region 5,Transient non-community system,81,LAKE VILLAGE,Newton,3,10,6,-87.334005,41.14587,-87.333441,41.14587,-87.335005,-87.333005,41.14487,41.14687
IN2430217,CITY-COUNTY ATHLETIC COMPLEX,"3215 W Old Road 30, Warsaw, Indiana, 46580",46580,Indiana,Region 5,Transient non-community system,1120,WARSAW,Kosciusko,3,5,2,-85.904061,41.247554,-85.904021,41.24352,-85.905061,-85.903061,41.246554,41.248554
IN2210015,MANLOVE PARK,"2191 S County Road 450 E, Connersville, Indiana, 47331",47331,Indiana,Region 5,Transient non-community system,25,MILTON,Fayette,5,15,4,-85.054594,39.610004,-85.054594,39.610004,-85.064594,-85.044594,39.600004,39.620004
IN2680102,HARRISVILLE CHRISTIAN CHURCH,"1015 N 700 E, Union City, Indiana, 47390",47390,Indiana,Region 5,Transient non-community system,57,UNION CITY,Randolph,3,5,4,-84.840026,40.181054,-84.839371,40.18109,-84.841026,-84.839026,40.180054,40.182054
IN2480822,BETHEL BAPTIST CHURCH,"3308 S State Road 13, Lapel, Indiana, 46051",46051,Indiana,Region 5,Transient non-community system,30,LAPEL,Madison,4,2,6,-85.843836,40.055751,-85.842621,40.05575,-85.844836,-85.842836,40.054751,40.056751
IN2370858,LJS BAR AND GRILL,"11121 Oregon Ln, Crown Point, Indiana, 46307",46307,Indiana,Region 5,Transient non-community system,29,WHEATFIELD,Jasper,4,22,4,-87.300828,41.41615,-87.300361,41.41622,-87.301828,-87.299828,41.41515,41.41715
IN5274005,GRANDVIEW MUNICIPAL WATER UTILITY,"47615, Grandview, Indiana",47615,Indiana,Region 5,Community water system,874,GRANDVIEW (GRAND VIEW),Spencer,6,11,15,-86.984368,37.936019,-86.984368,37.936019,-87.114368,-86.854368,37.806019,38.066019
IN5255006,INDIANA AMERICAN WATER - MOORESVILLE,"153 N Emerson Ave, Greenwood, Indiana, 46143",46143,Indiana,Region 5,Community water system,9782,MOORESVILLE,Morgan,9,1,9,-86.082647,39.621265,-86.082647,39.621265,-86.092647,-86.072647,39.611265,39.631265
IN2760844,WALTERS DIMMICK PETRO (LAKELAND SHELL),"2829 E State Road 124, Bluffton, Indiana, 46714",46714,Indiana,Region 5,Transient non-community system,80,,Steuben,2,7,5,-85.168708,40.742707,-85.168521,40.74333,-85.169708,-85.167708,40.741707,40.743707
IN5231001,CORYDON WATER WORKS,"219 N Capitol Ave, Corydon, Indiana, 47112",47112,Indiana,Region 5,Community water system,5716,CORYDON,Harrison,12,18,9,-86.126376,38.211492,-86.126631,38.2115,-86.127376,-86.125376,38.210492,38.212492
IN2180927,CORNERSTONE BRETHREN CHURCH & MINISTRIES,"9601 S Cowan Rd, Muncie, Indiana, 47302",47302,Indiana,Region 5,Transient non-community system,51,MUNCIE,Delaware,4,18,6,-85.404017,40.10655,-85.404761,40.10654,-85.405017,-85.403017,40.10555,40.10755
IN2710103,KIDS KOVE DAYCARE,"13759 Jackson Rd, Mishawaka, Indiana, 46544",46544,Indiana,Region 5,Transient non-community system,28,MISHAWAKA,St. Joseph,4,3,2,-86.132963,41.622539,-86.133011,41.62328,-86.133963,-86.131963,41.621539,41.623539
IN2170034,PARAGON STEEL - HEADQUARTERS,"4211 County Road 61, Butler, Indiana, 46721",46721,Indiana,Region 5,Transient non-community system,37,BUTLER,DeKalb,2,0,2,-84.90054,41.380176,-84.898861,41.37975,-84.90154,-84.89954,41.379176,41.381176
IN2430224,WORTH FINANCIAL SERVICE,"46590, Winona Lake, Indiana",46590,Indiana,Region 5,Transient non-community system,30,WARSAW,Kosciusko,4,1,1,-85.819382,41.22455,-85.819382,41.22455,-85.860382,-85.778382,41.18355,41.26555
IN2900016,"LIGHTED GARDENS, INC.","616 N Jefferson St, Ossian, Indiana, 46777",46777,Indiana,Region 5,Transient non-community system,32,OSSIAN,Wells,2,6,2,-85.166546,40.884474,-85.166546,40.884474,-85.176546,-85.156546,40.874474,40.894474
IN2180179,EDEN CHURCH,"11205 N State Road 3, Muncie, Indiana, 47303",47303,Indiana,Region 5,Transient non-community system,25,MUNCIE,Delaware,5,4,7,-85.368137,40.290712,-85.368137,40.290712,-85.378137,-85.358137,40.280712,40.300712
IN2200944,SIMONTON LAKE MARATHON,"51451 State Road 19, Elkhart, Indiana, 46514",46514,Indiana,Region 5,Transient non-community system,25,ELKHART,Elkhart,2,24,6,-85.974577,41.746146,-85.975001,41.74612,-85.975577,-85.973577,41.745146,41.747146
IN5243015,MID-LAKES MOBILE HOME PARK,"100 Lane 201A Lake George, Fremont, Indiana, 46737",46737,Indiana,Region 5,Community water system,122,NORTH WEBSTER,Kosciusko,3,33,14,-85.005797,41.749026,-85.005741,41.74921,-85.006797,-85.004797,41.748026,41.750026
IN5273002,INDIANA AMERICAN WATER - SHELBYVILLE,"153 N Emerson Ave, Greenwood, Indiana, 46143",46143,Indiana,Region 5,Community water system,17539,SHELBYVILLE,Shelby,12,1,9,-86.082647,39.621265,-86.082647,39.621265,-86.092647,-86.072647,39.611265,39.631265
IN5251002,CRANE WATER WORKS,"23148 Harper Hill Rd, Loogootee, Indiana, 47553",47553,Indiana,Region 5,Community water system,329,CRANE,Martin,2,5,9,-86.899848,38.836302,-86.898771,38.83614,-86.900848,-86.898848,38.835302,38.837302
IN5285003,INDIANA AMERICAN WATER - WABASH,"153 N Emerson Ave, Greenwood, Indiana, 46143",46143,Indiana,Region 5,Community water system,11880,WABASH,Wabash,16,1,13,-86.082647,39.621265,-86.082647,39.621265,-86.092647,-86.072647,39.611265,39.631265
IN5272002,STUCKER FORK WATER UTILITY,"47170, Little York, Indiana",47170,Indiana,Region 5,Community water system,14000,AUSTIN,Scott,22,100,26,-85.772516,38.684581,-85.772516,38.684581,-86.060516,-85.484516,38.396581,38.972581
IN5218012,INDIANA AMERICAN WATER - MUNCIE,"153 N Emerson Ave, Greenwood, Indiana, 46143",46143,Indiana,Region 5,Community water system,72303,MUNCIE,Delaware,11,1,15,-86.082647,39.621265,-86.082647,39.621265,-86.092647,-86.072647,39.611265,39.631265
IN5248010,INDIANA AMERICAN WATER - SUMMITVILLE,"153 N Emerson Ave, Greenwood, Indiana, 46143",46143,Indiana,Region 5,Community water system,1015,SUMMITVILLE,Madison,5,1,9,-86.082647,39.621265,-86.082647,39.621265,-86.092647,-86.072647,39.611265,39.631265
IN5254012,INDIANA AMERICAN WATER - WAVELAND,"153 N Emerson Ave, Greenwood, Indiana, 46143",46143,Indiana,Region 5,Community water system,599,WAVELAND,Montgomery,4,181,12,-86.082647,39.621265,-86.082647,39.621265,-86.092647,-86.072647,39.611265,39.631265
IN2840906,OUTDOOR RECREATION CLUB,"47878, Seelyville, Indiana",47878,Indiana,Region 5,Transient non-community system,35,,Vigo,5,18,6,-87.270282,39.493747,-87.270282,39.493747,-87.275282,-87.265282,39.488747,39.498747
IN5234007,INDIANA AMERICAN WATER - KOKOMO,"153 N Emerson Ave, Greenwood, Indiana, 46143",46143,Indiana,Region 5,Community water system,55239,KOKOMO,Howard,37,9,24,-86.082647,39.621265,-86.082647,39.621265,-86.092647,-86.072647,39.611265,39.631265
IN5229015,INDIANA AMERICAN WATER - NOBLESVILLE,"153 N Emerson Ave, Greenwood, Indiana, 46143",46143,Indiana,Region 5,Community water system,37881,NOBLESVILLE,Hamilton,10,1,17,-86.082647,39.621265,-86.082647,39.621265,-86.092647,-86.072647,39.611265,39.631265
IN2020242,ZION LUTHERAN CHURCH,"7616 Bull Rapids Rd, Woodburn, Indiana, 46797",46797,Indiana,Region 5,Transient non-community system,127,WOODBURN,Allen,4,11,5,-84.881177,41.157451,-84.879581,41.1582,-84.882177,-84.880177,41.156451,41.158451
IN5271020,UNIVERSITY OF NOTRE DAME,"100 Facilities Building, Notre Dame, Indiana, 46556",46556,Indiana,Region 5,Community water system,7400,NOTRE DAME,St. Joseph,8,23,16,-86.235674,41.706344,-86.235674,41.706344,-86.245674,-86.225674,41.696344,41.716344
IN5284012,INDIANA AMERICAN WATER - TERRE HAUTE,"153 N Emerson Ave, Greenwood, Indiana, 46143",46143,Indiana,Region 5,Community water system,65772,TERRE HAUTE,Vigo,12,24,15,-86.082647,39.621265,-86.082647,39.621265,-86.092647,-86.072647,39.611265,39.631265
IN5289012,INDIANA AMERICAN WATER - RICHMOND,"153 N Emerson Ave, Greenwood, Indiana, 46143",46143,Indiana,Region 5,Community water system,40948,RICHMOND,Wayne,18,9,15,-86.082647,39.621265,-86.082647,39.621265,-86.092647,-86.072647,39.611265,39.631265
IN5239003,HANOVER WATER DEPARTMENT,"11 N Madison Ave, Hanover, Indiana, 47243",47243,Indiana,Region 5,Community water system,3300,HANOVER,Jefferson,3,6,10,-85.467305,38.714024,-85.467305,38.714024,-85.477305,-85.457305,38.704024,38.724024
IN5240001,BURNT PINES WATER ASSOCIATION,"2980 W County Road 200 S, North Vernon, Indiana, 47265",47265,Indiana,Region 5,Community water system,900,NORTH VERNON,Jennings,2,14,8,-85.667458,38.954398,-85.667401,38.95465,-85.668458,-85.666458,38.953398,38.955398
IN5228005,LINTON MUNICIPAL WATER UTILITY,"86 S Main St, Linton, Indiana, 47441",47441,Indiana,Region 5,Community water system,8856,LINTON,Greene,8,21,16,-87.166177,39.03309,-87.166361,39.03309,-87.167177,-87.165177,39.03209,39.03409
IN5243030,INDIANA AMERICAN WATER - WARSAW,"153 N Emerson Ave, Greenwood, Indiana, 46143",46143,Indiana,Region 5,Community water system,12274,WARSAW,Kosciusko,28,35,22,-86.082647,39.621265,-86.082647,39.621265,-86.092647,-86.072647,39.611265,39.631265
IN2493112,CAMP SERTOMA,"46219, Warren Park, Indiana",46219,Indiana,Region 5,Transient non-community system,25,INDIANAPOLIS,Marion,6,25,13,-86.044038,39.78308,-86.044038,39.78308,-86.085038,-86.003038,39.74208,39.82408
IN2020241,CEDAR CREEK CHURCH OF CHRIST #1,"12606 Leo Rd, Fort Wayne, Indiana, 46845",46845,Indiana,Region 5,Transient non-community system,88,LEO,Allen,7,9,5,-85.039594,41.199774,-85.039701,41.19964,-85.040594,-85.038594,41.198774,41.200774
IN2200428,JAMESTOWN UNITED METHODIST,"59218 County Road 3, Elkhart, Indiana, 46517",46517,Indiana,Region 5,Transient non-community system,150,ELKHART,Elkhart,4,2,3,-86.023865,41.634658,-86.023865,41.634658,-86.033865,-86.013865,41.624658,41.644658
IN2270034,MAR BROOK CAMPGROUND,"19323 Morrison Way, Noblesville, Indiana, 46060",46060,Indiana,Region 5,Transient non-community system,25,MARION,Grant,2,12,4,-86.003514,40.068358,-86.003551,40.06857,-86.004514,-86.002514,40.067358,40.069358
IN2670003,HERITAGE LAKE CAMPGROUND,"46121, Coatesville, Indiana",46121,Indiana,Region 5,Transient non-community system,140,,Putnam,3,10,6,-86.669821,39.686696,-86.669821,39.686696,-86.776821,-86.562821,39.579696,39.793696
IN2320014,MILL CREEK WEST ELEMENTARY SCHOOL,"6631 S County Road 200 W, Clayton, Indiana, 46118",46118,Indiana,Region 5,Non-Transient non-community system,350,AMO,Hendricks,3,55,27,-86.560096,39.664631,-86.559671,39.66463,-86.561096,-86.559096,39.663631,39.665631
IN2540921,L.B. SOMMER ELEMENTARY SCHOOL,"480 W County Road 580 N, Crawfordsville, Indiana, 47933",47933,Indiana,Region 5,Non-Transient non-community system,298,CRAWFORDSVILLE,Montgomery,10,190,6,-86.912405,40.123051,-86.912405,40.123051,-86.922405,-86.902405,40.113051,40.133051
IN2430825,HAPPY WOK RESTAURANT,"46555, North Webster, Indiana",46555,Indiana,Region 5,Transient non-community system,54,NORTH WEBSTER,Kosciusko,5,22,9,-85.6952,41.32555,-85.6952,41.32555,-85.7382,-85.6522,41.28255,41.36855
IN2200162,ZION EVANGELICAL LUTHERAN CHURCH,"20943 County Road 6, Bristol, Indiana, 46507",46507,Indiana,Region 5,Transient non-community system,67,BRISTOL,Elkhart,2,0,1,-85.869602,41.724106,-85.869602,41.724106,-85.879602,-85.859602,41.714106,41.734106
IN2430199,TIPPY BALLROOM,"162 Ems T33 Ln, Leesburg, Indiana, 46538",46538,Indiana,Region 5,Transient non-community system,26,LEESBURG,Kosciusko,4,0,1,-85.782108,41.334701,-85.781741,41.33464,-85.783108,-85.781108,41.333701,41.335701
IN2430146,"R & B CAR CO., INC.","3811 S Michigan St, South Bend, Indiana, 46614",46614,Indiana,Region 5,Transient non-community system,62,WARSAW,Kosciusko,4,9,4,-86.250397,41.635545,-86.251221,41.63559,-86.251397,-86.249397,41.634545,41.636545
IN2200912,EAST LOCKE AMISH SCHOOL,"28568 Yarian St, Nappanee, Indiana, 46550",46550,Indiana,Region 5,Transient non-community system,26,NAPPANEE,Elkhart,2,11,6,-86.012582,41.470603,-86.012621,41.46694,-86.013582,-86.011582,41.469603,41.471603
IN2460162,ITR CONCESSIONS CO. - TRAVEL PLAZA 3,"5940 W Raymond St, Indianapolis, Indiana, 46241",46241,Indiana,Region 5,Non-Transient non-community system,675,ROLLING PRAIRIE,LaPorte,6,0,9,-86.262311,39.735588,-86.262321,39.73608,-86.263311,-86.261311,39.734588,39.736588
IN2680840,REHOBOTH UNITED METHODIST,"8948 W 900 S, Modoc, Indiana, 47358",47358,Indiana,Region 5,Transient non-community system,25,PARKER CITY,Randolph,2,5,6,-85.14468,40.034008,-85.144651,40.03448,-85.14568,-85.14368,40.033008,40.035008
IN2700066,CHRIST FELLOWSHIP CHURCH,"214 E 2nd St, Rushville, Indiana, 46173",46173,Indiana,Region 5,Transient non-community system,45,RUSHVILLE,Rush,2,21,6,-85.442672,39.608248,-85.442671,39.60843,-85.443672,-85.441672,39.607248,39.609248
IN2020202,NINE MILE UNITED METHODIST CHURCH,"6303 Winters Rd, Fort Wayne, Indiana, 46809",46809,Indiana,Region 5,Transient non-community system,26,FORT WAYNE,Allen,3,2,4,-85.222281,40.975088,-85.222281,40.97514,-85.223281,-85.221281,40.974088,40.976088
IN2020235,PRINCE OF PEACE LUTHERAN CHURCH,"12640 Saint Joe Rd, Grabill, Indiana, 46741",46741,Indiana,Region 5,Transient non-community system,75,GRABILL,Allen,4,20,5,-85.009867,41.198655,-85.009761,41.19857,-85.010867,-85.008867,41.197655,41.199655
IN2010125,MT. HOPE CHURCH OF NAZARENE,"1344 S 650 E, Decatur, Indiana, 46733",46733,Indiana,Region 5,Transient non-community system,150,BERNE,Adams,3,9,5,-84.811918,40.727431,-84.814291,40.72743,-84.812918,-84.810918,40.726431,40.728431
IN2430192,BARBEE HOTEL AND RESTAURANT,"3620 N Barbee Rd, Warsaw, Indiana, 46582",46582,Indiana,Region 5,Transient non-community system,205,WARSAW,Kosciusko,4,4,3,-85.715529,41.288359,-85.715401,41.2883,-85.716529,-85.714529,41.287359,41.289359
IN5232019,PITTSBORO WATER COMPANY,"46167, Pittsboro, Indiana",46167,Indiana,Region 5,Community water system,1588,PITTSBORO,Hendricks,5,12,15,-86.452741,39.859091,-86.452741,39.859091,-86.533741,-86.371741,39.778091,39.940091
IN2170035,COUNTRY HERITAGE WINERY & VINEYARD,"46763, Laotto, Indiana",46763,Indiana,Region 5,Transient non-community system,51,LAOTTO (LA OTTO),Noble,4,0,1,-85.198882,41.29049,-85.198882,41.29049,-85.346882,-85.050882,41.14249,41.43849
IN5291015,WOLCOTT WATER WORKS,"47995, Wolcott, Indiana",47995,Indiana,Region 5,Community water system,989,WOLCOTT,White,4,15,7,-87.04287,40.75958,-87.04287,40.75958,-87.17087,-86.91487,40.63158,40.88758
IN5277003,INDIANA AMERICAN WATER - FARMERSBURG,"153 N Emerson Ave, Greenwood, Indiana, 46143",46143,Indiana,Region 5,Community water system,1868,FARMERSBURG,Sullivan,4,13,9,-86.082647,39.621265,-86.082647,39.621265,-86.092647,-86.072647,39.611265,39.631265
IN5285002,INDIANA AMERICAN WATER - SOMERSET,"153 N Emerson Ave, Greenwood, Indiana, 46143",46143,Indiana,Region 5,Community water system,240,SOMERSET,Wabash,5,2,10,-86.082647,39.621265,-86.082647,39.621265,-86.092647,-86.072647,39.611265,39.631265
IN5287004,INDIANA AMERICAN WATER - NEWBURGH,"153 N Emerson Ave, Greenwood, Indiana, 46143",46143,Indiana,Region 5,Community water system,19648,NEWBURGH,Warrick,10,0,16,-86.082647,39.621265,-86.082647,39.621265,-86.092647,-86.072647,39.611265,39.631265
IN5228001,"ELLIS WATER COMPANY, INC.","47441, Linton, Indiana",47441,Indiana,Region 5,Community water system,2892,LINTON,Greene,5,1,6,-87.163337,39.037772,-87.163337,39.037772,-87.259337,-87.067337,38.941772,39.133772
IN2790015,KEN DO FISHING LAKE,"9212 Heaton Rd, Clarks Hill, Indiana, 47930",47930,Indiana,Region 5,Transient non-community system,26,CLARKS HILL,Tippecanoe,3,9,3,-86.698073,40.284155,-86.698281,40.28391,-86.699073,-86.697073,40.283155,40.285155
IN5228006,LYONS WATER UTILITY,"47443, Lyons, Indiana",47443,Indiana,Region 5,Community water system,748,LYONS,Greene,6,140,10,-87.082848,38.989075,-87.082848,38.989075,-87.240848,-86.924848,38.831075,39.147075
IN2790964,FREDS MINI MART,"2523 State Road 25 W, Shadeland, Indiana, 47909",47909,Indiana,Region 5,Transient non-community system,800,LAFAYETTE,Tippecanoe,3,0,4,-86.952738,40.371546,-86.952491,40.3713,-86.953738,-86.951738,40.370546,40.372546
IN2330897,KENNARD BAPTIST CHURCH,"6931 W County Road 100 S, Shirley, Indiana, 47384",47384,Indiana,Region 5,Transient non-community system,25,KENNARD,Henry,2,22,6,-85.518701,39.916903,-85.518701,39.91664,-85.519701,-85.517701,39.915903,39.917903
IN2010002,FAIRVIEW AMISH SCHOOL,"210 W 50 S, Monroe, Indiana, 46772",46772,Indiana,Region 5,Transient non-community system,41,MONROE,Adams,2,4,3,-84.946597,40.738395,-84.946597,40.738395,-84.956597,-84.936597,40.728395,40.748395
IN2460061,LAPORTE ASSEMBLY OF GOD CHURCH,"244 E Boyd Blvd, La Porte, Indiana, 46350",46350,Indiana,Region 5,Transient non-community system,203,LA PORTE,LaPorte,3,3,5,-86.697482,41.584053,-86.697491,41.58344,-86.698482,-86.696482,41.583053,41.585053
IN5245029,LOWELL WATER DEPARTMENT,"46356, Lowell, Indiana",46356,Indiana,Region 5,Community water system,9276,LOWELL,Lake,16,108,27,-87.415801,41.291712,-87.415801,41.291712,-87.549801,-87.281801,41.157712,41.425712
IN5219004,FERDINAND WATER DEPARTMENT,"543 W 5th St, Ferdinand, Indiana, 47532",47532,Indiana,Region 5,Community water system,2318,FERDINAND,Dubois,6,35,13,-86.867827,38.221503,-86.867911,38.22124,-86.868827,-86.866827,38.220503,38.222503
IN5246020,MICHIGAN CITY DEPARTMENT OF WATER WORKS,"46361, Michigan City, Indiana",46361,Indiana,Region 5,Community water system,33181,MICHIGAN CITY,LaPorte,9,29,16,-86.903171,41.71936,-86.903171,41.71936,-86.908171,-86.898171,41.71436,41.72436
IN5251005,LOOGOOTEE WATER WORKS,"47553, Loogootee, Indiana",47553,Indiana,Region 5,Community water system,3800,LOOGOOTEE,Martin,9,56,12,-86.914131,38.676986,-86.914131,38.676986,-87.101131,-86.727131,38.489986,38.863986
IN5283007,HILLSDALE WATER CORPORATION,"47854, Hillsdale, Indiana",47854,Indiana,Region 5,Community water system,600,HILLSDALE,Vermillion,6,21,8,-87.39281,39.782164,-87.39281,39.782164,-87.50781,-87.27781,39.667164,39.897164
IN2800823,BREEZE IN PUB,"46049, Kempton, Indiana",46049,Indiana,Region 5,Transient non-community system,52,KEMPTON,Tipton,4,2,3,-86.230709,40.288535,-86.230709,40.288535,-86.330709,-86.130709,40.188535,40.388535
IN2030003,SIMMONS WINERY,"6045 N 425 E, Columbus, Indiana, 47203",47203,Indiana,Region 5,Transient non-community system,43,COLUMBUS,Bartholomew,2,5,3,-85.833036,39.264171,-85.831871,39.26418,-85.834036,-85.832036,39.263171,39.265171
IN2329878,HAZELWOOD CHRISTIAN CHURCH,"9947 S County Road 0, Clayton, Indiana, 46118",46118,Indiana,Region 5,Transient non-community system,600,CLAYTON,Hendricks,3,15,3,-86.522116,39.616231,-86.521021,39.61622,-86.523116,-86.521116,39.615231,39.617231
IN5243053,LAKE VIEW MOBILE HOME PARK,"5219 E 500 N, Leesburg, Indiana, 46538",46538,Indiana,Region 5,Community water system,62,LEESBURG,Kosciusko,4,13,7,-85.743472,41.307843,-85.743891,41.30707,-85.744472,-85.742472,41.306843,41.308843
IN2790985,SUNRISE CHRISTIAN CHURCH,"909 E 500 S, Lafayette, Indiana, 47909",47909,Indiana,Region 5,Transient non-community system,303,LAFAYETTE,Tippecanoe,2,7,3,-86.88595,40.343333,-86.885871,40.34269,-86.88695,-86.88495,40.342333,40.344333
IN2170858,STORY LAKE RESORT - WELL #7,"46705, Ashley, Indiana",46705,Indiana,Region 5,Transient non-community system,120,HUDSON,DeKalb,5,15,9,-85.065772,41.524936,-85.065772,41.524936,-85.139772,-84.991772,41.450936,41.598936
IN2270001,LIBERTY BAPTIST CHURCH,"46987, Sweetser, Indiana",46987,Indiana,Region 5,Transient non-community system,655,SWEETSER,Grant,4,4,6,-85.769952,40.568141,-85.769952,40.568141,-85.789952,-85.749952,40.548141,40.588141
IN2710893,LAIDIG INC.,"14535 Dragoon Trl, Mishawaka, Indiana, 46544",46544,Indiana,Region 5,Non-Transient non-community system,88,MISHAWAKA,St. Joseph,3,1,8,-86.148053,41.638178,-86.147541,41.63909,-86.149053,-86.147053,41.637178,41.639178
IN2640937,SUNSET HILL FARM COUNTY PARK - MANAGER,"155 Indiana Ave, Valparaiso, Indiana, 46383",46383,Indiana,Region 5,Transient non-community system,255,VALPARAISO,Porter,4,11,7,-87.05904,41.46684,-87.05904,41.46684,-87.06904,-87.04904,41.45684,41.47684
IN2540944,NORTHRIDGE MIDDLE SCHOOL,"480 W County Road 580 N, Crawfordsville, Indiana, 47933",47933,Indiana,Region 5,Non-Transient non-community system,577,CRAWFORDSVILLE,Montgomery,3,4,6,-86.912405,40.123051,-86.912405,40.123051,-86.922405,-86.902405,40.113051,40.133051
IN2201064,"FOREST RIVER - RANCE ALUMINUM, DIV. 46","46515, Elkhart, Indiana",46515,Indiana,Region 5,Non-Transient non-community system,40,ELKHART,Elkhart,2,324,8,-85.971391,41.681421,-85.971391,41.681421,-85.976391,-85.966391,41.676421,41.686421
IN2460882,CRAFT STATION,"8693 E US-20, New Carlisle, Indiana, 46552",46552,Indiana,Region 5,Transient non-community system,405,NEW CARLISLE,LaPorte,3,34,5,-86.53073,41.701937,-86.531131,41.70263,-86.53173,-86.52973,41.700937,41.702937
IN2180005,BIBLE CHRISTIAN CHURCH,"1901 S Marigold St, Muncie, Indiana, 47302",47302,Indiana,Region 5,Transient non-community system,35,MUNCIE,Delaware,2,7,4,-85.429097,40.177841,-85.429471,40.17806,-85.430097,-85.428097,40.176841,40.178841
IN2560804,FAIR OAKS DAIRY ADVENTURE (FODP)- 1 & 3,"856 N 600 E, Fair Oaks, Indiana, 47943",47943,Indiana,Region 5,Transient non-community system,573,,Newton,4,5,4,-87.276118,41.01026,-87.278181,41.01027,-87.277118,-87.275118,41.00926,41.01126
IN2500918,HOUSE OF THE LORD,"16493 Lincoln Hwy, Plymouth, Indiana, 46563",46563,Indiana,Region 5,Transient non-community system,95,PLYMOUTH,Marshall,2,3,2,-86.376731,41.361353,-86.376731,41.36085,-86.377731,-86.375731,41.360353,41.362353
IN2201097,U.S. CARGO,"46515, Elkhart, Indiana",46515,Indiana,Region 5,Non-Transient non-community system,119,BRISTOL,Elkhart,2,19,3,-85.971391,41.681421,-85.971391,41.681421,-85.976391,-85.966391,41.676421,41.686421
IN2431147,LEESBURG GRACE BRETHREN CHURCH,"46538, Leesburg, Indiana",46538,Indiana,Region 5,Transient non-community system,80,LEESBURG,Kosciusko,4,2,3,-85.782172,41.326047,-85.782172,41.326047,-85.967172,-85.597172,41.141047,41.511047
IN2370881,ROBERT FASE SENIOR CENTER,"967 E Leopold St, Rensselaer, Indiana, 47978",47978,Indiana,Region 5,Non-Transient non-community system,69,DEMOTTE,Jasper,2,32,7,-87.140381,40.935658,-87.140381,40.935658,-87.150381,-87.130381,40.925658,40.945658
IN2430034,LAKELAND CONSERVATIVE GRACE BRETHREN,"511 Glessner St, Warsaw, Indiana, 46580",46580,Indiana,Region 5,Transient non-community system,70,WARSAW,Kosciusko,2,2,3,-85.850942,41.246418,-85.850951,41.24663,-85.851942,-85.849942,41.245418,41.247418
IN2020026,MONSON CHAPEL METHODIST CHURCH,"14803 Kress Rd, Roanoke, Indiana, 46783",46783,Indiana,Region 5,Transient non-community system,80,ROANOKE,Allen,4,3,3,-85.331942,40.982113,-85.331961,40.98121,-85.332942,-85.330942,40.981113,40.983113
IN2200118,FOREST RIVER SERVICE CENTER,"46515, Elkhart, Indiana",46515,Indiana,Region 5,Non-Transient non-community system,80,ELKHART,Elkhart,5,8,4,-85.971391,41.681421,-85.971391,41.681421,-85.976391,-85.966391,41.676421,41.686421
IN2440051,PARKVIEW MEDICAL GROUP - SHIPSHEWANA,"207 N Townline Rd, Lagrange, Indiana, 46761",46761,Indiana,Region 5,Transient non-community system,34,SHIPSHEWANA,LaGrange,2,6,3,-85.424978,41.645139,-85.425821,41.64513,-85.425978,-85.423978,41.644139,41.646139
IN2640029,TALTREE ARBORETUM & GARDENS,"444 W 100 N, Valparaiso, Indiana, 46385",46385,Indiana,Region 5,Transient non-community system,137,VALPARAISO,Porter,9,3,4,-87.151932,41.449083,-87.151931,41.44834,-87.152932,-87.150932,41.448083,41.450083
IN2710155,THE DENTAL CENTER,"12840 State Road 23, Granger, Indiana, 46530",46530,Indiana,Region 5,Transient non-community system,39,GRANGER,St. Joseph,4,0,2,-86.11833,41.753496,-86.11833,41.753496,-86.12833,-86.10833,41.743496,41.763496
IN2380019,FAIRVIEW UNITED METHODIST CHURCH,"2875 E 200 S, Portland, Indiana, 47371",47371,Indiana,Region 5,Transient non-community system,25,PORTLAND,Jay,2,2,1,-84.922512,40.411203,-84.922511,40.41089,-84.923512,-84.921512,40.410203,40.412203
IN2800016,CRIPE AUCTION SERVICE,"3247 E State Road 28, Tipton, Indiana, 46072",46072,Indiana,Region 5,Transient non-community system,25,TIPTON,Tipton,2,1,1,-85.952721,40.285233,-85.952731,40.28487,-85.953721,-85.951721,40.284233,40.286233
IN2760051,COLDWELL BANKER REAL ESTATE OFFICE,"2535 N 200 W, Angola, Indiana, 46703",46703,Indiana,Region 5,Transient non-community system,35,ANGOLA,Steuben,2,2,3,-85.028909,41.67932,-85.029781,41.67931,-85.029909,-85.027909,41.67832,41.68032
IN2520002,HOOSIER HOT SPOT INC.,"46926, Chili, Indiana",46926,Indiana,Region 5,Transient non-community system,96,DENVER,Miami,3,13,2,-86.079659,40.866065,-86.079659,40.866065,-86.216659,-85.942659,40.729065,41.003065
IN2460343,ST. ANTHONY CATHOLIC CHURCH,"7732 E State Road 4, Walkerton, Indiana, 46574",46574,Indiana,Region 5,Transient non-community system,151,FISH LAKE,LaPorte,4,0,4,-86.550616,41.566584,-86.550651,41.56638,-86.551616,-86.549616,41.565584,41.567584
IN2600008,JUNCTION MART,"4517 Estes Rd, Spencer, Indiana, 47460",47460,Indiana,Region 5,Transient non-community system,851,SPENCER,Owen,4,9,1,-86.74042,39.355943,-86.740401,39.35559,-86.74142,-86.73942,39.354943,39.356943
IN5261003,MARSHALL WATER WORKS,"47859, Marshall, Indiana",47859,Indiana,Region 5,Community water system,378,MARSHALL,Parke,10,187,12,-87.190166,39.849621,-87.190166,39.849621,-87.293166,-87.087166,39.746621,39.952621
IN5233011,NEW CASTLE UTILITIES,"415 Broad St, New Castle, Indiana, 47362",47362,Indiana,Region 5,Community water system,18000,NEW CASTLE,Henry,21,4,34,-85.380259,39.931447,-85.380259,39.931447,-85.390259,-85.370259,39.921447,39.941447
IN5233009,MOUNT SUMMIT WATER UTILITY,"47361, Mt Summit, Indiana",47361,Indiana,Region 5,Community water system,400,MOUNT SUMMIT,Henry,5,37,19,-85.385061,40.004636,-85.385061,40.004636,-85.392061,-85.378061,39.997636,40.011636
IN2910969,"GIRTZ INDUSTRIES, INC.","Shafer Dr, Monticello, Indiana, 47960",47960,Indiana,Region 5,Non-Transient non-community system,220,MONTICELLO,White,5,3,5,-86.769114,40.740079,-86.769114,40.740079,-86.771114,-86.767114,40.738079,40.742079
IN2120847,COLFAX WESLEYAN CHURCH,"611 W Ash St, Lebanon, Indiana, 46052",46052,Indiana,Region 5,Transient non-community system,100,COLFAX,Clinton,2,23,3,-86.474682,40.039923,-86.474691,40.03976,-86.475682,-86.473682,40.038923,40.040923
IN2710905,BELL-MART AMOCO - GRANGER,"46506, Bremen, Indiana",46506,Indiana,Region 5,Transient non-community system,306,GRANGER,St. Joseph,4,2,7,-86.147852,41.448346,-86.147852,41.448346,-86.276852,-86.018852,41.319346,41.577346
IN2480879,TIMBERLINE VALLEY RV RESORT,"3230 E 75 N, Anderson, Indiana, 46017",46017,Indiana,Region 5,Transient non-community system,37,ANDERSON,Madison,3,5,4,-85.611749,40.117364,-85.611749,40.117364,-85.621749,-85.601749,40.107364,40.127364
IN2200073,"UNITED EXPRESSLINE, INC.","19985 County Road 8, Bristol, Indiana, 46507",46507,Indiana,Region 5,Non-Transient non-community system,45,BRISTOL,Elkhart,3,8,3,-85.850322,41.717298,-85.850401,41.71902,-85.851322,-85.849322,41.716298,41.718298
IN2710035,MARY FRANK ELEMENTARY SCHOOL,"55900 Bittersweet Rd, Mishawaka, Indiana, 46545",46545,Indiana,Region 5,Non-Transient non-community system,445,GRANGER,St. Joseph,5,0,10,-86.109645,41.68171,-86.107851,41.68171,-86.110645,-86.108645,41.68071,41.68271
IN2560814,WILLOW SLOUGH F & W AREA,"6312 W 100 N, Morocco, Indiana, 47963",47963,Indiana,Region 5,Transient non-community system,60,MOROCCO,Newton,6,10,6,-87.513331,41.014058,-87.513341,41.01468,-87.514331,-87.512331,41.013058,41.015058
IN5292009,TIMBERLANE ESTATES MOBILE HOME PARK,"46748, Huntertown, Indiana",46748,Indiana,Region 5,Community water system,54,CHURUBUSCO,Whitley,3,30,8,-85.168163,41.227675,-85.168163,41.227675,-85.249163,-85.087163,41.146675,41.308675
IN2760974,OUTLET SHOPPES AT FREMONT #2,"5915 N State Road 127, Fremont, Indiana, 46737",46737,Indiana,Region 5,Transient non-community system,150,FREMONT,Steuben,4,0,5,-85.001302,41.728846,-85.001591,41.72877,-85.002302,-85.000302,41.727846,41.729846
IN2441050,B.J. BURRITOS,"6550 S State Road 5, Topeka, Indiana, 46571",46571,Indiana,Region 5,Transient non-community system,75,,LaGrange,5,11,3,-85.578128,41.5456,-85.578551,41.5456,-85.579128,-85.577128,41.5446,41.5466
IN2290232,AROMA UNITED METHODIST CHURCH,"16301 E 281st St, Atlanta, Indiana, 46031",46031,Indiana,Region 5,Transient non-community system,25,ATLANTA,Hamilton,2,9,3,-85.872051,40.199433,-85.872151,40.19908,-85.873051,-85.871051,40.198433,40.200433
IN2430269,PENTECOSTAL LIGHTHOUSE/LITTLE BLESSINGS,"125 Fawley St, Warsaw, Indiana, 46580",46580,Indiana,Region 5,Non-Transient non-community system,90,WARSAW,Kosciusko,4,17,11,-85.857076,41.220102,-85.857076,41.220102,-85.867076,-85.847076,41.210102,41.230102
IN5242008,MONROE CITY WATER UTILITIES,"47557, Monroe City, Indiana",47557,Indiana,Region 5,Community water system,543,MONROE CITY,Knox,5,14,13,-87.356553,38.619703,-87.356553,38.619703,-87.475553,-87.237553,38.500703,38.738703
IN2450825,HARRY OS,"13226 Wicker Ave, Cedar Lake, Indiana, 46303",46303,Indiana,Region 5,Transient non-community system,220,CEDAR LAKE,Lake,4,16,4,-87.470039,41.37838,-87.470281,41.37838,-87.471039,-87.469039,41.37738,41.37938
IN2290028,SHERIDAN SIX POINTS WESLEYAN,"1545 W 226th St, Sheridan, Indiana, 46069",46069,Indiana,Region 5,Transient non-community system,210,SHERIDAN,Hamilton,2,1,4,-86.181781,40.114923,-86.181771,40.1143,-86.182781,-86.180781,40.113923,40.115923
IN2430203,NORTH WEBSTER DOLLAR GENERAL,"100 Mission Rdg, Goodlettsville, Tennessee, 37072",37072,Indiana,Region 5,Transient non-community system,75,NORTH WEBSTER,Kosciusko,3,4,7,-86.699243,36.309643,-86.699301,36.30908,-86.700243,-86.698243,36.308643,36.310643
IN5214004,MONTGOMERY WATER WORKS,"47558, Montgomery, Indiana",47558,Indiana,Region 5,Community water system,750,MONTGOMERY,Daviess,4,3,11,-87.048667,38.662873,-87.048667,38.662873,-87.210667,-86.886667,38.500873,38.824873
IN5273001,BLUE RIVER ESTATES MOBILE HOME PARK,"46217, Southport, Indiana",46217,Indiana,Region 5,Community water system,99,EDINBURG,Shelby,6,43,9,-86.180581,39.665951,-86.180581,39.665951,-86.241581,-86.119581,39.604951,39.726951
IN5251004,EAST FORK WATER,"47581, Shoals, Indiana",47581,Indiana,Region 5,Community water system,3267,SHOALS,Martin,5,13,23,-86.794308,38.670406,-86.794308,38.670406,-86.955308,-86.633308,38.509406,38.831406
IN5290003,"STONEY CREEK ESTATES, LLC","53194, Woodworth, Wisconsin",53194,Indiana,Region 5,Community water system,62,ZANESVILLE,Wells,2,30,12,-88.000402,42.55818,-88.000402,42.55818,-88.005402,-87.995402,42.55318,42.56318
IN5240009,VERNON WATER DEPARTMENT,"47282, Vernon, Indiana",47282,Indiana,Region 5,Community water system,675,VERNON,Jennings,3,8,11,-85.609372,38.98593,-85.609372,38.98593,-85.619372,-85.599372,38.97593,38.99593
IN2850837,SOUTHWOOD JR./SR. HIGH SCHOOL,"204 N 300 W, Wabash, Indiana, 46992",46992,Indiana,Region 5,Non-Transient non-community system,500,WABASH,Wabash,3,2,5,-85.848848,40.82759,-85.849181,40.82759,-85.849848,-85.847848,40.82659,40.82859
IN2790950,FAIRVIEW COMMUNITY CENTER,"6623 E 300 N, Lafayette, Indiana, 47905",47905,Indiana,Region 5,Transient non-community system,25,LAFAYETTE,Tippecanoe,4,15,4,-86.776436,40.461055,-86.776436,40.461055,-86.786436,-86.766436,40.451055,40.471055
IN2710870,LOGAN COMMUNITY RESOURCES,"2505 E Jefferson Blvd, South Bend, Indiana, 46615",46615,Indiana,Region 5,Transient non-community system,45,GRANGER,St. Joseph,3,11,8,-86.21193,41.672962,-86.21193,41.672962,-86.22193,-86.20193,41.662962,41.682962
IN2431041,KOS CO FAIRGROUNDS WOMENS BLDG,"46581, Warsaw, Indiana",46581,Indiana,Region 5,Transient non-community system,60,WARSAW,Kosciusko,3,6,7,-85.860221,41.236321,-85.860221,41.236321,-85.865221,-85.855221,41.231321,41.241321
IN2320019,MILL CREEK EAST ELEMENTARY SCHOOL,"6631 S County Road 200 W, Clayton, Indiana, 46118",46118,Indiana,Region 5,Non-Transient non-community system,411,CLAYTON,Hendricks,2,37,10,-86.560096,39.664631,-86.559671,39.66463,-86.561096,-86.559096,39.663631,39.665631
IN2710907,MEADOWS EDGE ELEMENTARY SCHOOL,"55900 Bittersweet Rd, Mishawaka, Indiana, 46545",46545,Indiana,Region 5,Non-Transient non-community system,318,MISHAWAKA,St. Joseph,4,10,5,-86.109645,41.68171,-86.107851,41.68171,-86.110645,-86.108645,41.68071,41.68271
IN5213003,GRANTSBURG RURAL WATER COMPANY,"3678 S Atkins Ln, Grantsburg, Indiana, 47123",47123,Indiana,Region 5,Community water system,140,GRANTSBURG,Crawford,2,17,9,-86.469667,38.282181,-86.469321,38.28202,-86.470667,-86.468667,38.281181,38.283181
IN5216003,LAKE SANTEE RWWD,"13 SW Wrenn Pkwy, Greensburg, Indiana, 47240",47240,Indiana,Region 5,Community water system,1428,GREENSBURG,Decatur,15,93,21,-85.306588,39.396971,-85.306588,39.396971,-85.316588,-85.296588,39.386971,39.406971
IN5248008,FRANKTON WATER WORKS,"46044, Frankton, Indiana",46044,Indiana,Region 5,Community water system,1862,FRANKTON,Madison,9,23,28,-85.769352,40.219695,-85.769352,40.219695,-85.845352,-85.693352,40.143695,40.295695
IN2760853,DAVES LAKE SHACK,"1865 W State Road 120, Fremont, Indiana, 46737",46737,Indiana,Region 5,Transient non-community system,105,FREMONT,Steuben,2,5,5,-85.026958,41.736107,-85.027211,41.7361,-85.027958,-85.025958,41.735107,41.737107
IN5228004,JASONVILLE WATER DEPARTMENT,"204 W Main St, Jasonville, Indiana, 47438",47438,Indiana,Region 5,Community water system,4147,JASONVILLE,Greene,7,13,20,-87.200493,39.163054,-87.200511,39.16285,-87.201493,-87.199493,39.162054,39.164054
IN5243058,NORTH POINTE I & II APARTMENTS,"1331 E Main St, Warsaw, Indiana, 46580",46580,Indiana,Region 5,Community water system,132,WARSAW,Kosciusko,6,64,6,-85.838272,41.239018,-85.838261,41.23926,-85.839272,-85.837272,41.238018,41.240018
IN5283014,NEWPORT CHEMICAL DEPOT,"47854, Hillsdale, Indiana",47854,Indiana,Region 5,Community water system,45,NEWPORT,Vermillion,5,1,5,-87.39281,39.782164,-87.39281,39.782164,-87.50781,-87.27781,39.667164,39.897164
IN2180210,RIVERVIEW UNITED BAPTIST,"2101 N Buckles St, Muncie, Indiana, 47303",47303,Indiana,Region 5,Transient non-community system,91,ALBANY,Delaware,4,7,5,-85.391047,40.212099,-85.391281,40.21209,-85.392047,-85.390047,40.211099,40.213099
IN2160075,CLARKSBURG CHRISTIAN CHURCH,"6792 E 1000 S, Rushville, Indiana, 46173",46173,Indiana,Region 5,Transient non-community system,122,CLARKSBURG,Decatur,4,7,12,-85.326512,39.468149,-85.326512,39.468149,-85.336512,-85.316512,39.458149,39.478149
IN2710615,PRINCE OF PEACE CHURCH,"61233 Fellows St, South Bend, Indiana, 46614",46614,Indiana,Region 5,Transient non-community system,70,SOUTH BEND,St. Joseph,3,25,9,-86.244043,41.60342,-86.244043,41.60342,-86.254043,-86.234043,41.59342,41.61342
IN2710811,GRISSOM MIDDLE SCHOOL,"55900 Bittersweet Rd, Mishawaka, Indiana, 46545",46545,Indiana,Region 5,Non-Transient non-community system,695,MISHAWAKA,St. Joseph,4,1,6,-86.109645,41.68171,-86.107851,41.68171,-86.110645,-86.108645,41.68071,41.68271
IN2020919,POND-A-RIVER GOLF COURSE,"26025 River Rd, Woodburn, Indiana, 46797",46797,Indiana,Region 5,Transient non-community system,177,WOODBURN,Allen,4,5,3,-84.808672,41.171887,-84.808731,41.17196,-84.809672,-84.807672,41.170887,41.172887
IN2060831,OLD MILL RUN PARK,"8544 W 690 N, Thorntown, Indiana, 46071",46071,Indiana,Region 5,Transient non-community system,400,THORNTOWN,Boone,5,4,4,-86.627911,40.140558,-86.627911,40.14123,-86.628911,-86.626911,40.139558,40.141558
IN2761002,WILD WINDS BUFFALO PRESERVE,"301 W Butler St, Bryan, Ohio, 43506",43506,Indiana,Region 5,Transient non-community system,25,FREMONT,Steuben,5,6,6,-84.553758,41.473247,-84.553758,41.473247,-84.563758,-84.543758,41.463247,41.483247
IN2441008,HAWPATCH AMISH SCHOOL,"W 450 S, Lagrange, Indiana, 46761",46761,Indiana,Region 5,Transient non-community system,30,LAGRANGE (LA GRANGE),LaGrange,2,5,4,-85.447949,41.576112,-85.447949,41.576112,-85.477949,-85.417949,41.546112,41.606112
IN2431139,CHURCH OF JESUS CHRIST OF LATTER-DAY,"49515, Grand Rapids, Michigan",49515,Indiana,Region 5,Transient non-community system,100,WARSAW,Kosciusko,4,19,5,-85.625762,43.014131,-85.625762,43.014131,-85.630762,-85.620762,43.009131,43.019131
IN2441007,MEADOW VIEW AMISH SCHOOL,"6225 W 500 S, Topeka, Indiana, 46571",46571,Indiana,Region 5,Transient non-community system,41,TOPEKA,LaGrange,2,6,4,-85.544182,41.568429,-85.544211,41.56956,-85.545182,-85.543182,41.567429,41.569429
IN2340325,KOKOMO ZION UNITED METHODIST CHURCH,"5051 E County Road 400 N, Kokomo, Indiana, 46901",46901,Indiana,Region 5,Transient non-community system,150,KOKOMO,Howard,3,16,4,-86.031101,40.535423,-86.031101,40.53508,-86.032101,-86.030101,40.534423,40.536423
IN2710594,"NORTHWEST UNITED METHODIST CHURCH, INC.","21855 Brick Rd, South Bend, Indiana, 46628",46628,Indiana,Region 5,Non-Transient non-community system,138,SOUTH BEND,St. Joseph,3,109,7,-86.291101,41.737408,-86.291091,41.73831,-86.292101,-86.290101,41.736408,41.738408
IN2710945,AMERICAN LEGION POST 308,"46561, Osceola, Indiana",46561,Indiana,Region 5,Transient non-community system,53,OSCEOLA,St. Joseph,2,17,7,-86.093079,41.666596,-86.093079,41.666596,-86.166079,-86.020079,41.593596,41.739596
IN2431153,NORTH WEBSTER MEDICAL CLINIC,"46581, Warsaw, Indiana",46581,Indiana,Region 5,Transient non-community system,84,NORTH WEBSTER,Kosciusko,4,10,6,-85.860221,41.236321,-85.860221,41.236321,-85.865221,-85.855221,41.231321,41.241321
IN2440073,PARKVIEW LAGRANGE HOSPITAL,"207 N Townline Rd, Lagrange, Indiana, 46761",46761,Indiana,Region 5,Transient non-community system,25,LAGRANGE,LaGrange,2,2,5,-85.424978,41.645139,-85.425821,41.64513,-85.425978,-85.423978,41.644139,41.646139
IN2710148,WEST WINDS,"56629 Mayflower Rd, South Bend, Indiana, 46619",46619,Indiana,Region 5,Transient non-community system,55,SOUTH BEND,St. Joseph,3,1,1,-86.322149,41.66979,-86.322611,41.66979,-86.323149,-86.321149,41.66879,41.67079
IN2480830,RED GOLD - ELWOOD,"46036, Elwood, Indiana",46036,Indiana,Region 5,Non-Transient non-community system,390,ELWOOD,Madison,5,5,7,-85.838391,40.27575,-85.838391,40.27575,-85.969391,-85.707391,40.14475,40.40675
IN2200061,FOREST RIVER ODYSSEY DIVISION,"46515, Elkhart, Indiana",46515,Indiana,Region 5,Non-Transient non-community system,100,MIDDLEBURY,Elkhart,3,1,6,-85.971391,41.681421,-85.971391,41.681421,-85.976391,-85.966391,41.676421,41.686421
IN2790004,CROSSROADS CHRISTIAN CHURCH,"6435 State Road 43 N, West Lafayette, Indiana, 47906",47906,Indiana,Region 5,Transient non-community system,123,WEST LAFAYETTE,Tippecanoe,4,6,5,-86.868556,40.509841,-86.866991,40.50986,-86.869556,-86.867556,40.508841,40.510841
IN2540007,NORTH MONTGOMERY HIGH SCHOOL,"480 W County Road 580 N, Crawfordsville, Indiana, 47933",47933,Indiana,Region 5,Non-Transient non-community system,693,CRAWFORDSVILLE,Montgomery,4,11,11,-86.912405,40.123051,-86.912405,40.123051,-86.922405,-86.902405,40.113051,40.133051
IN2493091,EAGLE CREEK SAILING CLUB,"8901 W 46th St, Indianapolis, Indiana, 46234",46234,Indiana,Region 5,Transient non-community system,201,INDIANAPOLIS,Marion,2,14,12,-86.319461,39.837383,-86.319401,39.83473,-86.320461,-86.318461,39.836383,39.838383
IN2240014,MORGANS CANOE RENT (BROOKVILLE),"3518 Burch Ave, Cincinnati, Ohio, 45208",45208,Indiana,Region 5,Transient non-community system,65,BROOKVILLE,Franklin,4,29,6,-84.446996,39.140778,-84.446691,39.14076,-84.447996,-84.445996,39.139778,39.141778
IN2010811,ENGLE CREEK AMISH SCHOOL,"9279 S 150 E, Geneva, Indiana, 46740",46740,Indiana,Region 5,Transient non-community system,25,GENEVA,Adams,2,23,7,-84.906776,40.610911,-84.905601,40.61092,-84.907776,-84.905776,40.609911,40.611911
IN2710422,CRUMSTOWN TAVERN,"59400 Crumstown Hwy, North Liberty, Indiana, 46554",46554,Indiana,Region 5,Transient non-community system,40,NORTH LIBERTY,St. Joseph,3,10,5,-86.402159,41.630939,-86.401141,41.63037,-86.403159,-86.401159,41.629939,41.631939
IN2020831,ST. JOSEPH HESSEN CASSEL CATHOLIC SCHOOL,"11521 US-27 N, Fort Wayne, Indiana, 46816",46816,Indiana,Region 5,Non-Transient non-community system,140,FORT WAYNE,Allen,2,142,6,-85.082913,40.978162,-85.082913,40.978162,-85.092913,-85.072913,40.968162,40.988162
IN5271017,WALKERTON LIGHT & WATER,"301 Michigan St, Walkerton, Indiana, 46574",46574,Indiana,Region 5,Community water system,2250,WALKERTON,St. Joseph,5,14,12,-86.482603,41.467327,-86.482291,41.46712,-86.483603,-86.481603,41.466327,41.468327
IN5219008,"IRELAND UTILITIES, INC.","47545, Ireland, Indiana",47545,Indiana,Region 5,Community water system,3375,IRELAND,Dubois,8,2,10,-87.003917,38.413778,-87.003917,38.413778,-87.008917,-86.998917,38.408778,38.418778
IN5245015,INDIANA AMERICAN WATER - NORTHWEST,"153 N Emerson Ave, Greenwood, Indiana, 46143",46143,Indiana,Region 5,Community water system,181535,"GARY, MERRILLVILLE",Lake,18,10,98,-86.082647,39.621265,-86.082647,39.621265,-86.092647,-86.072647,39.611265,39.631265
IN5268003,INDIANA AMERICAN WATER - WINCHESTER,"153 N Emerson Ave, Greenwood, Indiana, 46143",46143,Indiana,Region 5,Community water system,5376,WINCHESTER,Randolph,6,2,9,-86.082647,39.621265,-86.082647,39.621265,-86.092647,-86.072647,39.611265,39.631265
IN5219001,BIRDSEYE WATER SYSTEM,"103 W State Road 64, Birdseye, Indiana, 47513",47513,Indiana,Region 5,Community water system,972,BIRDSEYE,Dubois,5,3,10,-86.696489,38.316753,-86.696461,38.31656,-86.697489,-86.695489,38.315753,38.317753
IN5219010,ST. ANTHONY WATER UTILITY,"47575, Kyana, Indiana",47575,Indiana,Region 5,Community water system,1755,ST. ANTHONY,Dubois,9,0,11,-86.824832,38.308404,-86.824832,38.308404,-86.900832,-86.748832,38.232404,38.384404
IN5279020,INDIANA AMERICAN WATER - WEST LAFAYETTE,"153 N Emerson Ave, Greenwood, Indiana, 46143",46143,Indiana,Region 5,Community water system,28871,WEST LAFAYETTE,Tippecanoe,24,1,13,-86.082647,39.621265,-86.082647,39.621265,-86.092647,-86.072647,39.611265,39.631265
IN5227023,VAN BUREN MUNICIPAL UTILITIES,"205 N 1st St, Van Buren, Indiana, 46991",46991,Indiana,Region 5,Community water system,861,VAN BUREN,Grant,6,17,50,-85.505008,40.618335,-85.505008,40.618335,-85.515008,-85.495008,40.608335,40.628335
IN2910043,REGAL DEVELOPMENT/SHAFER SHORES RESORT,"46411, Gary, Indiana",46411,Indiana,Region 5,Transient non-community system,36,MONTICELLO,White,2,23,8,-87.339141,41.472681,-87.339141,41.472681,-87.344141,-87.334141,41.467681,41.477681
IN2850838,SOUTHWOOD ELEMENTARY SCHOOL,"204 N 300 W, Wabash, Indiana, 46992",46992,Indiana,Region 5,Non-Transient non-community system,350,WABASH,Wabash,3,25,5,-85.848848,40.82759,-85.849181,40.82759,-85.849848,-85.847848,40.82659,40.82859
IN2790825,WEST POINT UNITED METHODIST CHURCH,"4923 Monroe St, Westpoint, Indiana, 47992",47992,Indiana,Region 5,Transient non-community system,25,WEST POINT,Tippecanoe,2,25,3,-87.041696,40.34561,-87.041481,40.3456,-87.042696,-87.040696,40.34461,40.34661
IN5204004,OTTERBEIN WATER DEPARTMENT,"47970, Otterbein, Indiana",47970,Indiana,Region 5,Community water system,1262,OTTERBEIN,Benton,5,5,10,-87.097486,40.488299,-87.097486,40.488299,-87.251486,-86.943486,40.334299,40.642299
IN2750036,BOWLAWAY LANES,"2355 S US Highway 35, Knox, Indiana, 46534",46534,Indiana,Region 5,Transient non-community system,55,KNOX,Starke,2,2,1,-86.620693,41.269198,-86.620693,41.269198,-86.630693,-86.610693,41.259198,41.279198
IN2370871,CRAZY DS REMINGTON,"13550 S US-231, Remington, Indiana, 47977",47977,Indiana,Region 5,Transient non-community system,248,REMINGTON,Jasper,4,141,11,-87.154258,40.81566,-87.155171,40.81566,-87.155258,-87.153258,40.81466,40.81666
IN2431039,KOS CO FAIR SHRINE BUILDING,"46581, Warsaw, Indiana",46581,Indiana,Region 5,Transient non-community system,100,WARSAW,Kosciusko,4,7,6,-85.860221,41.236321,-85.860221,41.236321,-85.865221,-85.855221,41.231321,41.241321
IN2430208,YE OLDE PUB,"46555, North Webster, Indiana",46555,Indiana,Region 5,Transient non-community system,100,NORTH WEBSTER,Kosciusko,4,15,4,-85.6952,41.32555,-85.6952,41.32555,-85.7382,-85.6522,41.28255,41.36855
IN2450071,DEEP RIVER CHURCH OF CHRIST,"7500 Grant St, Merrillville, Indiana, 46410",46410,Indiana,Region 5,Transient non-community system,98,MERRILLVILLE,Lake,2,10,2,-87.355345,41.482747,-87.355345,41.482747,-87.365345,-87.345345,41.472747,41.492747
IN2710153,ZOLMAN TIRE - GRANGER,"2014 E McKinley Ave, Mishawaka, Indiana, 46545",46545,Indiana,Region 5,Transient non-community system,45,GRANGER,St. Joseph,3,0,2,-86.147502,41.680358,-86.147511,41.68078,-86.148502,-86.146502,41.679358,41.681358
IN2320021,CASCADE SENIOR HIGH SCHOOL,"6631 S County Road 200 W, Clayton, Indiana, 46118",46118,Indiana,Region 5,Non-Transient non-community system,964,CLAYTON,Hendricks,3,78,9,-86.560096,39.664631,-86.559671,39.66463,-86.561096,-86.559096,39.663631,39.665631
IN2330822,CHARITY BAPTIST CHURCH,"47362, New Castle, Indiana",47362,Indiana,Region 5,Transient non-community system,50,NEW CASTLE,Henry,3,6,7,-85.368711,39.927815,-85.368711,39.927815,-85.536711,-85.200711,39.759815,40.095815
IN2540920,PLEASANT HILL ELEMENTARY SCHOOL,"480 W County Road 580 N, Crawfordsville, Indiana, 47933",47933,Indiana,Region 5,Non-Transient non-community system,351,CRAWFORDSVILLE,Montgomery,4,45,4,-86.912405,40.123051,-86.912405,40.123051,-86.922405,-86.902405,40.113051,40.133051
IN2540922,SUGAR CREEK ELEMENTARY,"480 W County Road 580 N, Crawfordsville, Indiana, 47933",47933,Indiana,Region 5,Non-Transient non-community system,325,DARLINGTON,Montgomery,10,56,6,-86.912405,40.123051,-86.912405,40.123051,-86.922405,-86.902405,40.113051,40.133051
IN2460816,SUPERIOR INDUSTRIAL PROPERTIES,"4744 E Oaknoll Rd, Rolling Prairie, Indiana, 46371",46371,Indiana,Region 5,Non-Transient non-community system,58,ROLLING PRAIRIE,LaPorte,4,30,9,-86.608479,41.667175,-86.608141,41.66682,-86.609479,-86.607479,41.666175,41.668175
IN2430926,PAR-KAN COMPANY,"2915 W 900 S, Silver Lake, Indiana, 46982",46982,Indiana,Region 5,Non-Transient non-community system,80,SILVER LAKE,Kosciusko,3,16,10,-85.890451,41.101123,-85.890431,41.10025,-85.891451,-85.889451,41.100123,41.102123
IN2200160,SUNNYSIDE PARK - NEW PARIS,"19166 County Road 46, New Paris, Indiana, 46553",46553,Indiana,Region 5,Transient non-community system,25,NEW PARIS,Elkhart,4,0,1,-85.831402,41.500454,-85.831401,41.50028,-85.832402,-85.830402,41.499454,41.501454
IN2570025,VINEYARD CHRISTIAN FELLOWSHIP,"705 Kelly Street Ext, Rome City, Indiana, 46784",46784,Indiana,Region 5,Transient non-community system,27,ROME CITY,Noble,2,8,3,-85.376485,41.489092,-85.376121,41.4891,-85.377485,-85.375485,41.488092,41.490092
IN2200429,ELKHART CHURCH OF CHRIST,"1910 Greenleaf Blvd, Elkhart, Indiana, 46514",46514,Indiana,Region 5,Transient non-community system,40,ELKHART,Elkhart,2,7,4,-85.946163,41.699778,-85.946191,41.69998,-85.947163,-85.945163,41.698778,41.700778
IN2370022,LAKE HOLIDAY CAMP RESORT,"11780 IN-10, Demotte, Indiana, 46310",46310,Indiana,Region 5,Transient non-community system,350,DEMOTTE,Jasper,3,10,5,-87.271541,41.144458,-87.271541,41.14521,-87.272541,-87.270541,41.143458,41.145458
IN2340807,BEAVER POINT CAMPGROUNDS,"10162 E 500 S, Windfall, Indiana, 46076",46076,Indiana,Region 5,Transient non-community system,25,WINDFALL CITY (CORPORATE NAME,Howard,4,0,3,-85.935252,40.406478,-85.935251,40.40791,-85.936252,-85.934252,40.405478,40.407478
IN2500181,SUNRISE CHAPEL & DAYCARE CENTER,"11802 Lincoln Hwy, Plymouth, Indiana, 46563",46563,Indiana,Region 5,Transient non-community system,90,PLYMOUTH,Marshall,3,461,6,-86.286118,41.336536,-86.285451,41.33722,-86.287118,-86.285118,41.335536,41.337536
IN2500828,INDIANA STATE POLICE/BREMEN DISTRICT,"8500 E 21st St, Indianapolis, Indiana, 46219",46219,Indiana,Region 5,Transient non-community system,25,BREMEN,Marshall,5,9,7,-86.018152,39.796638,-86.018151,39.79706,-86.019152,-86.017152,39.795638,39.797638
IN2570163,WOLF LAKE BAPTIST CHURCH,"46796, Wolflake, Indiana",46796,Indiana,Region 5,Transient non-community system,47,WOLF LAKE,Noble,4,7,5,-85.496602,41.33583,-85.496602,41.33583,-85.499602,-85.493602,41.33283,41.33883
IN2300827,SUGAR CREEK BAPTIST CHURCH,"3928 S 100 W, Greenfield, Indiana, 46140",46140,Indiana,Region 5,Transient non-community system,50,GREENFIELD,Hancock,2,24,18,-85.819818,39.728259,-85.820201,39.72812,-85.820818,-85.818818,39.727259,39.729259
IN2710906,NORTHPOINT ELEMENTARY SCHOOL,"55900 Bittersweet Rd, Mishawaka, Indiana, 46545",46545,Indiana,Region 5,Non-Transient non-community system,592,GRANGER,St. Joseph,5,1,7,-86.109645,41.68171,-86.107851,41.68171,-86.110645,-86.108645,41.68071,41.68271
IN2300913,REAL LIFE CHURCH,"971 W US Highway 40, Greenfield, Indiana, 46140",46140,Indiana,Region 5,Transient non-community system,250,GREENFIELD,Hancock,4,20,7,-85.82051,39.782763,-85.820441,39.78183,-85.82151,-85.81951,39.781763,39.783763
IN2550155,THREE POINT LAKE,"745 Indianapolis Rd, Mooresville, Indiana, 46158",46158,Indiana,Region 5,Transient non-community system,277,MOORESVILLE,Morgan,4,30,15,-86.365575,39.624241,-86.363031,39.62426,-86.366575,-86.364575,39.623241,39.625241
IN2700052,CENTER CHRISTIAN CHURCH,"9112 N 50 W, Knightstown, Indiana, 46148",46148,Indiana,Region 5,Transient non-community system,200,,Rush,3,8,5,-85.456276,39.745001,-85.455801,39.74501,-85.457276,-85.455276,39.744001,39.746001
IN2020837,THE HAYLOFT,"15112 Brunson Rd, Hoagland, Indiana, 46745",46745,Indiana,Region 5,Transient non-community system,42,HOAGLAND,Allen,3,1,5,-85.017077,40.944831,-85.017151,40.94483,-85.018077,-85.016077,40.943831,40.945831
IN5292007,SOUTH WHITLEY MUNICIPAL WATER,"46787, South Whitley, Indiana",46787,Indiana,Region 5,Community water system,1750,SOUTH WHITLEY,Whitley,8,9,11,-85.628112,41.086145,-85.628112,41.086145,-85.727112,-85.529112,40.987145,41.185145
IN2850009,NORTHFIELD JR./SR. HIGH SCHOOL,"204 N 300 W, Wabash, Indiana, 46992",46992,Indiana,Region 5,Non-Transient non-community system,500,WABASH,Wabash,5,2,4,-85.848848,40.82759,-85.849181,40.82759,-85.849848,-85.847848,40.82659,40.82859
IN2850839,METRO NORTH ELEMENTARY SCHOOL,"204 N 300 W, Wabash, Indiana, 46992",46992,Indiana,Region 5,Non-Transient non-community system,300,WABASH,Wabash,3,2,5,-85.848848,40.82759,-85.849181,40.82759,-85.849848,-85.847848,40.82659,40.82859
IN2710032,MADISON ELEMENTARY SCHOOL,"55900 Bittersweet Rd, Mishawaka, Indiana, 46545",46545,Indiana,Region 5,Non-Transient non-community system,195,WAKARUSA,St. Joseph,4,32,30,-86.109645,41.68171,-86.107851,41.68171,-86.110645,-86.108645,41.68071,41.68271
IN5247003,MITCHELL WATER DEPARTMENT,"407 S 6th St, Mitchell, Indiana, 47446",47446,Indiana,Region 5,Community water system,4800,MITCHELL,Lawrence,11,57,23,-86.470913,38.729638,-86.471281,38.72955,-86.471913,-86.469913,38.728638,38.730638
IN5252006,CONVERSE WATER WORKS,"4015 W 100 N, Huntington, Indiana, 46750",46750,Indiana,Region 5,Community water system,1137,CONVERSE,Miami,4,17,11,-85.527891,40.844114,-85.527851,40.84328,-85.528891,-85.526891,40.843114,40.845114
IN2840830,ROD AND GUN CLUB,"2525 E Lambert Ave, Rosedale, Indiana, 47874",47874,Indiana,Region 5,Transient non-community system,30,,Vigo,3,18,9,-87.376331,39.608034,-87.376311,39.6059,-87.377331,-87.375331,39.607034,39.609034
IN2760935,REDWOOD INN,"6675 N Old 27, Fremont, Indiana, 46737",46737,Indiana,Region 5,Transient non-community system,84,FREMONT,Steuben,7,18,7,-85.000538,41.739559,-85.001141,41.73955,-85.001538,-84.999538,41.738559,41.740559
IN2710862,ADMIRAL PETROLEUM COMPANY,"6915 Hillsdale Ct, Indianapolis, Indiana, 46250",46250,Indiana,Region 5,Transient non-community system,755,SOUTH BEND,St. Joseph,2,7,4,-86.047941,39.896108,-86.047941,39.896108,-86.057941,-86.037941,39.886108,39.906108
IN2730155,ST. GEORGE LUTHERAN CHURCH,"15909 N 170 W, Edinburgh, Indiana, 46124",46124,Indiana,Region 5,Transient non-community system,100,EDINBURGH,Shelby,3,4,3,-85.947346,39.344221,-85.945541,39.34424,-85.948346,-85.946346,39.343221,39.345221
IN2090007,ANDERSONS CLYMERS TERMINAL,"3389 W County Road 300 S, Logansport, Indiana, 46947",46947,Indiana,Region 5,Non-Transient non-community system,55,LOGANSPORT,Cass,3,3,8,-86.437851,40.721234,-86.437831,40.72053,-86.438851,-86.436851,40.720234,40.722234
IN5283012,VERMILLION COUNTY JAIL,"47854, Hillsdale, Indiana",47854,Indiana,Region 5,Community water system,150,NEWPORT,Vermillion,4,82,7,-87.39281,39.782164,-87.39281,39.782164,-87.50781,-87.27781,39.667164,39.897164
IN2450031,SUBWAY/AUSTGEN COMPLEX,"46303, Cedar Lake, Indiana",46303,Indiana,Region 5,Transient non-community system,129,CEDAR LAKE,Lake,3,0,2,-87.448272,41.373401,-87.448272,41.373401,-87.538272,-87.358272,41.283401,41.463401
IN2430031,SUPERIOR WOOD PRODUCTS (MAIN PLANT),"1058 W 400 N, Warsaw, Indiana, 46582",46582,Indiana,Region 5,Non-Transient non-community system,30,WARSAW,Kosciusko,4,43,5,-85.863891,41.291768,-85.863901,41.29232,-85.864891,-85.862891,41.290768,41.292768
IN2270332,WORLD GOSPEL MISSION,"3783 E State Road 18, Marion, Indiana, 46952",46952,Indiana,Region 5,Non-Transient non-community system,80,MARION,Grant,2,4,4,-85.605082,40.553498,-85.604271,40.5574,-85.606082,-85.604082,40.552498,40.554498
IN2270800,WALNUT CREEK GOLF COURSE,"46989, Upland, Indiana",46989,Indiana,Region 5,Transient non-community system,123,MARION,Grant,4,6,5,-85.498322,40.465715,-85.498322,40.465715,-85.598322,-85.398322,40.365715,40.565715
IN2200192,PHYLS CORNER,"57968 County Road 7, Elkhart, Indiana, 46517",46517,Indiana,Region 5,Transient non-community system,25,ELKHART,Elkhart,4,18,3,-85.984655,41.653821,-85.984321,41.65383,-85.985655,-85.983655,41.652821,41.654821
IN2200467,UNION CENTER CHURCH - BRETHREN,"70535 County Road 11, Nappanee, Indiana, 46550",46550,Indiana,Region 5,Non-Transient non-community system,245,NAPPANEE,Elkhart,2,4,6,-85.943938,41.47138,-85.944391,41.47138,-85.944938,-85.942938,41.47038,41.47238
IN2480001,ST. JOHNS LUTHERAN CHURCH,"9113 N State Road 37, Elwood, Indiana, 46036",46036,Indiana,Region 5,Transient non-community system,70,ELWOOD,Madison,4,5,5,-85.856745,40.23499,-85.857151,40.23506,-85.857745,-85.855745,40.23399,40.23599
IN2430809,NAOMIS LAKE BREEZE CAMPGROUND,"5512 W Palestine 2nd St, Mentone, Indiana, 46539",46539,Indiana,Region 5,Transient non-community system,50,MENTONE,Kosciusko,2,5,6,-85.948342,41.178498,-85.947521,41.17852,-85.949342,-85.947342,41.177498,41.179498
IN2520862,MIAMI COUNTY 4-H COUNTY GROUND,"1079 W 200 N, Peru, Indiana, 46970",46970,Indiana,Region 5,Transient non-community system,27,PERU,Miami,2,5,2,-86.094881,40.793004,-86.094881,40.79207,-86.095881,-86.093881,40.792004,40.794004
IN2710894,MICHIANA COMMUNITY CHURCH OF GOD,"51637 Ash Rd, Granger, Indiana, 46530",46530,Indiana,Region 5,Transient non-community system,102,GRANGER,St. Joseph,3,7,4,-86.062398,41.74427,-86.063041,41.74426,-86.063398,-86.061398,41.74327,41.74527
IN2420825,MCKINLEY ORCHARD,"14469 Old US-41 N, Oaktown, Indiana, 47561",47561,Indiana,Region 5,Transient non-community system,31,OAKTOWN,Knox,3,8,5,-87.440442,38.885844,-87.440871,38.88596,-87.441442,-87.439442,38.884844,38.886844
IN2740838,AMERICAN ELECTRIC POWER-HONEY CREEK FARM,"N US Highway 231, Rockport, Indiana, 47635",47635,Indiana,Region 5,Transient non-community system,49,ROCKPORT,Spencer,3,2,5,-87.036411,37.970256,-87.036411,37.970256,-87.062411,-87.010411,37.944256,37.996256
IN5263007,OTWELL WATER CORP. #2,"47564, Otwell, Indiana",47564,Indiana,Region 5,Community water system,693,OTWELL,Pike,2,0,5,-87.095366,38.452214,-87.095366,38.452214,-87.185366,-87.005366,38.362214,38.542214
IN2920878,ST. MATTHEWS UNITED METHODIST CHURCH,"1180 E 500 N, Albion, Indiana, 46701",46701,Indiana,Region 5,Transient non-community system,92,COLUMBIA CITY,Whitley,4,22,3,-85.401714,41.425104,-85.401714,41.425104,-85.411714,-85.391714,41.415104,41.435104
IN5256009,NEWTON CO. REGIONAL WATER & SEWER,"47963, Morocco, Indiana",47963,Indiana,Region 5,Community water system,70,MOROCCO,Newton,2,2,1,-87.453272,40.945206,-87.453272,40.945206,-87.630272,-87.276272,40.768206,41.122206
IN2570034,CORNERSTONE WESLEYAN CHURCH/SCHOOL,"916 State Road 205, Churubusco, Indiana, 46723",46723,Indiana,Region 5,Non-Transient non-community system,167,ALBION,Noble,5,12,5,-85.331535,41.223727,-85.331761,41.22396,-85.332535,-85.330535,41.222727,41.224727
IN2300010,NEW PALESTINE FAMILY MEDICINE,"801 N State St, Greenfield, Indiana, 46140",46140,Indiana,Region 5,Transient non-community system,40,NEW PALESTINE,Hancock,4,7,5,-85.769576,39.794631,-85.769081,39.79463,-85.770576,-85.768576,39.793631,39.795631
IN2750039,ST. LUKE COMMUNITY CHURCH,"46374, San Pierre, Indiana",46374,Indiana,Region 5,Transient non-community system,51,SAN PIERRE,Starke,3,1,1,-86.891302,41.196188,-86.891302,41.196188,-86.967302,-86.815302,41.120188,41.272188
IN2850010,POET BIOREFINING,"868 W 800 N, North Manchester, Indiana, 46962",46962,Indiana,Region 5,Non-Transient non-community system,40,NORTH MANCHESTER,Wabash,4,2,8,-85.807837,40.941978,-85.807837,40.941978,-85.817837,-85.797837,40.931978,40.951978
IN2431152,NIGHTSHIFT OF NORTH WEBSTER,"114 E Washington St, North Webster, Indiana, 46555",46555,Indiana,Region 5,Transient non-community system,75,NORTH WEBSTER,Kosciusko,4,22,8,-85.697282,41.325668,-85.697281,41.32585,-85.698282,-85.696282,41.324668,41.326668
IN2760036,ALVARADO AMISH SCHOOL,"4290 S 850 E, Hamilton, Indiana, 46742",46742,Indiana,Region 5,Transient non-community system,40,,Steuben,3,8,3,-84.827315,41.585551,-84.824991,41.58558,-84.828315,-84.826315,41.584551,41.586551
IN2640008,FAITH BAPTIST CHURCH OF PORTER,"84 N County Road 500 W, Valparaiso, Indiana, 46385",46385,Indiana,Region 5,Transient non-community system,156,VALPARAISO,Porter,2,6,3,-87.161918,41.445851,-87.163071,41.44585,-87.162918,-87.160918,41.444851,41.446851
IN2750014,BAILEYS DISCOUNT CENTER,"5900 S Range Rd, North Judson, Indiana, 46366",46366,Indiana,Region 5,Non-Transient non-community system,340,NORTH JUDSON,Starke,2,14,17,-86.698316,41.21735,-86.695811,41.21735,-86.699316,-86.697316,41.21635,41.21835
IN2200087,CUTTING EDGE MACHINE AND TOOL,"19149 County Road 146, New Paris, Indiana, 46553",46553,Indiana,Region 5,Non-Transient non-community system,69,NEW PARIS,Elkhart,3,1,5,-85.831839,41.493231,-85.831839,41.493231,-85.841839,-85.821839,41.483231,41.503231
IN2500919,IMMANUEL LUTHERAN CHURCH,"6835 Union Rd, Plymouth, Indiana, 46563",46563,Indiana,Region 5,Transient non-community system,85,PLYMOUTH,Marshall,3,6,3,-86.444339,41.377341,-86.444631,41.37734,-86.445339,-86.443339,41.376341,41.378341
IN2460059,SERENITY SPRINGS RESORT/CAMPGROUNDS,"5888 N US-35, La Porte, Indiana, 46350",46350,Indiana,Region 5,Transient non-community system,78,LA PORTE,LaPorte,22,14,14,-86.804224,41.691269,-86.809321,41.68868,-86.805224,-86.803224,41.690269,41.692269
IN2170036,COUNTRY STONE,"2397 County Road 27, Waterloo, Indiana, 46793",46793,Indiana,Region 5,Transient non-community system,29,WATERLOO,DeKalb,3,0,1,-85.063015,41.444732,-85.058341,41.44478,-85.064015,-85.062015,41.443732,41.445732
IN2200135,ARBYS - UNIT 608,"410 Pine Lake Ave, La Porte, Indiana, 46350",46350,Indiana,Region 5,Transient non-community system,210,ELKHART,Elkhart,2,4,5,-86.743472,41.634208,-86.744181,41.63382,-86.744472,-86.742472,41.633208,41.635208
IN2430180,NORTH WEBSTER CHURCH OF THE BRETHREN,"7281 E 600 N, North Webster, Indiana, 46555",46555,Indiana,Region 5,Transient non-community system,72,NORTH WEBSTER,Kosciusko,4,2,3,-85.706202,41.323093,-85.706181,41.32252,-85.707202,-85.705202,41.322093,41.324093
IN2300824,CIRCLE K 2286,"47202, Columbus, Indiana",47202,Indiana,Region 5,Transient non-community system,500,GREENFIELD,Hancock,5,5,7,-85.923181,39.20289,-85.923181,39.20289,-85.928181,-85.918181,39.19789,39.20789
IN2710015,PROVIDENT MINISTRIES,"3402 S Locust Rd, South Bend, Indiana, 46614",46614,Indiana,Region 5,Transient non-community system,162,SOUTH BEND,St. Joseph,3,5,5,-86.282807,41.639891,-86.282807,41.639891,-86.292807,-86.272807,41.629891,41.649891
IN2030837,BIGFOOT #63,"47202, Columbus, Indiana",47202,Indiana,Region 5,Transient non-community system,907,COLUMBUS,Bartholomew,4,154,11,-85.923181,39.20289,-85.923181,39.20289,-85.928181,-85.918181,39.19789,39.20789
IN2493115,"INDIANAPOLIS RACQUET CLUB, INC.","8249 Dean Rd, Indianapolis, Indiana, 46240",46240,Indiana,Region 5,Transient non-community system,80,INDIANAPOLIS,Marion,2,31,3,-86.098236,39.906331,-86.097191,39.90634,-86.099236,-86.097236,39.905331,39.907331
IN5244011,PIONEER COUNTRY ESTATES,"46543, Millersburg, Indiana",46543,Indiana,Region 5,Community water system,60,HOWE,LaGrange,3,111,11,-85.693599,41.522949,-85.693599,41.522949,-85.789599,-85.597599,41.426949,41.618949
IN2200176,PINE VIEW PAROCHIAL AMISH SCHOOL,"69266 W County Line Rd, Nappanee, Indiana, 46550",46550,Indiana,Region 5,Transient non-community system,31,WAKARUSA,Elkhart,4,0,1,-86.059455,41.489571,-86.058071,41.48957,-86.060455,-86.058455,41.488571,41.490571
IN2500020,DOLLAR GENERAL STORE #10756,"1410 S Clinton St, Chicago, Illinois, 60607",60607,Indiana,Region 5,Transient non-community system,240,LAPAZ,Marshall,4,1,3,-87.640592,41.863619,-87.640592,41.863619,-87.650592,-87.630592,41.853619,41.873619
IN2660834,JASPER-PULASKI FISH & WILDLIFE,"5822 Fish and Wildlife Ln, Medaryville, Indiana, 47957",47957,Indiana,Region 5,Transient non-community system,308,MEDARYVILLE,Pulaski,2,1,4,-86.91735,41.137385,-86.91735,41.137385,-86.92735,-86.90735,41.127385,41.147385
IN2200386,SIMONTON LAKE TAVERN,"51426 State Road 19, Elkhart, Indiana, 46514",46514,Indiana,Region 5,Transient non-community system,40,ELKHART,Elkhart,4,12,5,-85.974548,41.746492,-85.974351,41.7465,-85.975548,-85.973548,41.745492,41.747492
IN2370114,SORROWFUL MOTHER CHURCH,"46392, Wheatfield, Indiana",46392,Indiana,Region 5,Transient non-community system,1000,WHEATFIELD,Jasper,2,21,6,-87.054657,41.189795,-87.054657,41.189795,-87.182657,-86.926657,41.061795,41.317795
IN2441005,OAK HILL AMISH SCHOOL,"3540 E 300 S, Lagrange, Indiana, 46761",46761,Indiana,Region 5,Transient non-community system,41,LAGRANGE (LA GRANGE),LaGrange,2,10,4,-85.357479,41.598854,-85.357479,41.598854,-85.367479,-85.347479,41.588854,41.608854
IN2430054,BROWNS RESORT,"1584 S Grove Ave, Warsaw, Indiana, 46580",46580,Indiana,Region 5,Transient non-community system,100,CLAYPOOL,Kosciusko,3,0,4,-85.881997,41.210568,-85.881601,41.2106,-85.882997,-85.880997,41.209568,41.211568
IN2120831,CAMP CULLOM,"6815 W County Road 200 N, Frankfort, Indiana, 46041",46041,Indiana,Region 5,Transient non-community system,27,FRANKFORT,Clinton,8,2,6,-86.634711,40.315673,-86.634721,40.31387,-86.635711,-86.633711,40.314673,40.316673
IN2270852,SPORTS LAKE,"4209 S 700 E, Marion, Indiana, 46953",46953,Indiana,Region 5,Transient non-community system,77,MARION,Grant,3,22,5,-85.540015,40.49203,-85.537781,40.49204,-85.541015,-85.539015,40.49103,40.49303
IN5263001,OTWELL WATER CORPORATION,"47564, Otwell, Indiana",47564,Indiana,Region 5,Community water system,2262,OTWELL,Pike,6,6,9,-87.095366,38.452214,-87.095366,38.452214,-87.185366,-87.005366,38.362214,38.542214
IN2760008,TRAVELERS INN,"35 W State Road 120, Fremont, Indiana, 46737",46737,Indiana,Region 5,Transient non-community system,50,FREMONT,Steuben,5,6,6,-84.991221,41.729783,-84.991211,41.72939,-84.992221,-84.990221,41.728783,41.730783
IN2710866,UNIFRAX CORPORATION,"54401 Smilax Rd, New Carlisle, Indiana, 46552",46552,Indiana,Region 5,Non-Transient non-community system,167,NEW CARLISLE,St. Joseph,5,1,6,-86.447998,41.70298,-86.450261,41.70296,-86.448998,-86.446998,41.70198,41.70398
IN2760957,PEACE LUTHERAN CHURCH-PRESCHOOL & DAYCAR,"355 E State Road 120, Fremont, Indiana, 46737",46737,Indiana,Region 5,Non-Transient non-community system,240,FREMONT,Steuben,6,5,10,-84.983921,41.729863,-84.983911,41.72931,-84.984921,-84.982921,41.728863,41.730863
IN2431061,ROZELLA FORD GOLF COURSE,"1755 Golf Heights Rd, Warsaw, Indiana, 46580",46580,Indiana,Region 5,Transient non-community system,50,WARSAW,Kosciusko,5,9,10,-85.881978,41.227481,-85.880991,41.22559,-85.882978,-85.880978,41.226481,41.228481
IN2700069,RALEIGH CHRISTIAN CHURCH,"4019 E 900 S, Rushville, Indiana, 46173",46173,Indiana,Region 5,Transient non-community system,75,RUSHVILLE,Rush,3,11,5,-85.366556,39.482577,-85.366556,39.482577,-85.376556,-85.356556,39.472577,39.492577
IN2550001,FIRST UMC OF MARTINSVILLE,"785 E Timber Dr, Martinsville, Indiana, 46151",46151,Indiana,Region 5,Transient non-community system,250,MARTINSVILLE,Morgan,6,0,8,-86.411657,39.457623,-86.411101,39.45754,-86.412657,-86.410657,39.456623,39.458623
IN5245020,HAMMOND WATER WORKS DEPARTMENT,"6505 Columbia Ave, Hammond, Indiana, 46320",46320,Indiana,Region 5,Community water system,80757,HAMMOND,Lake,9,9,14,-87.500135,41.595151,-87.499411,41.59515,-87.501135,-87.499135,41.594151,41.596151
IN5248013,LAPEL MUNICIPAL WATER COMPANY,"46051, Lapel, Indiana",46051,Indiana,Region 5,Community water system,1825,LAPEL,Madison,9,34,35,-85.848284,40.066806,-85.848284,40.066806,-85.901284,-85.795284,40.013806,40.119806
IN2710533,FAITH CHRISTIAN CHAPEL,"6306 Cedar Ct, South Bend, Indiana, 46614",46614,Indiana,Region 5,Transient non-community system,71,LAKEVILLE,St. Joseph,3,23,4,-86.230105,41.60716,-86.229891,41.60716,-86.231105,-86.229105,41.60616,41.60816
IN2300869,"PLEASANT VIEW LODGE, INC.","46236, Indianapolis, Indiana",46236,Indiana,Region 5,Non-Transient non-community system,78,MCCORDSVILLE,Hancock,4,30,12,-85.955356,39.878973,-85.955356,39.878973,-86.017356,-85.893356,39.816973,39.940973
IN2740809,AMERICAN ELECTRIC POWER - ROCKPORT PLANT,"N US Highway 231, Rockport, Indiana, 47635",47635,Indiana,Region 5,Non-Transient non-community system,900,ROCKPORT,Spencer,8,0,7,-87.036411,37.970256,-87.036411,37.970256,-87.062411,-87.010411,37.944256,37.996256
IN2480002,FAST MAX/SUNOCO #55,"1585 Danielle Dr, Plainfield, Indiana, 46231",46231,Indiana,Region 5,Transient non-community system,809,ANDERSON,Madison,4,1,4,-86.333456,39.74045,-86.333141,39.74045,-86.334456,-86.332456,39.73945,39.74145
IN2200034,"FOREST RIVER, INC. WILDCAT DIVISION","57475 County Road 3, Elkhart, Indiana, 46517",46517,Indiana,Region 5,Non-Transient non-community system,120,ELKHART,Elkhart,3,73,3,-86.022529,41.66024,-86.024901,41.66023,-86.023529,-86.021529,41.65924,41.66124
IN2710052,NEW SALEM UMC - CHURCH,"52173 Ash Rd, Granger, Indiana, 46530",46530,Indiana,Region 5,Transient non-community system,85,GRANGER,St. Joseph,4,6,6,-86.062308,41.7367,-86.062781,41.7367,-86.063308,-86.061308,41.7357,41.7377
IN2440048,SHIPSHE MEADOWS AMISH SCHOOL,"1820 N 625 W, Shipshewana, Indiana, 46565",46565,Indiana,Region 5,Transient non-community system,29,SHIPSHEWANA,LaGrange,2,1,2,-85.546729,41.667009,-85.547011,41.66701,-85.547729,-85.545729,41.666009,41.668009
IN2030002,COLUMBUS SEVENTH-DAY ADVENTIST CHURCH,"1902 Central Ave, Columbus, Indiana, 47201",47201,Indiana,Region 5,Transient non-community system,60,COLUMBUS,Bartholomew,3,3,5,-85.904167,39.217651,-85.904501,39.21765,-85.905167,-85.903167,39.216651,39.218651
IN2710084,PITT STOP/MANCINOS,"13020 State Road 23, Granger, Indiana, 46530",46530,Indiana,Region 5,Transient non-community system,95,GRANGER,St. Joseph,2,6,5,-86.12087,41.752935,-86.120641,41.75262,-86.12187,-86.11987,41.751935,41.753935
IN2270011,SWEETSER CAFE,"46987, Sweetser, Indiana",46987,Indiana,Region 5,Transient non-community system,82,SWEETSER,Grant,4,0,0,-85.769952,40.568141,-85.769952,40.568141,-85.789952,-85.749952,40.548141,40.588141
IN2431109,YELLOW CREEK RESORT LLC,"4049 E 400 N, Rochester, Indiana, 46975",46975,Indiana,Region 5,Transient non-community system,85,,Kosciusko,2,2,4,-86.165981,41.112863,-86.165991,41.11063,-86.166981,-86.164981,41.111863,41.113863
IN2020805,CEDARVILLE COMMUNITY CHURCH,"12828 Main St, Leo, Indiana, 46765",46765,Indiana,Region 5,Transient non-community system,30,LEO,Allen,4,11,7,-85.021327,41.20346,-85.021327,41.20346,-85.031327,-85.011327,41.19346,41.21346
IN2760967,TIMBUKTOOS,"215 E State Road 120, Fremont, Indiana, 46737",46737,Indiana,Region 5,Transient non-community system,25,FREMONT,Steuben,4,14,5,-84.986841,41.729824,-84.986831,41.72941,-84.987841,-84.985841,41.728824,41.730824
IN2460175,USA TRUCK STOP,"9954 W US Highway 6, Westville, Indiana, 46391",46391,Indiana,Region 5,Transient non-community system,273,WESTVILLE,LaPorte,6,15,7,-86.892972,41.518387,-86.892972,41.518387,-86.902972,-86.882972,41.508387,41.528387
IN2020959,CEDAR CREEK CHURCH OF CHRIST/DAY CARE,"12606 Leo Rd, Fort Wayne, Indiana, 46845",46845,Indiana,Region 5,Non-Transient non-community system,131,LEO,Allen,4,32,4,-85.039594,41.199774,-85.039701,41.19964,-85.040594,-85.038594,41.198774,41.200774
IN2230803,HIGHWAY 341 COUNTRY CAFE,"IN-341, Hillsboro, Indiana, 47949",47949,Indiana,Region 5,Transient non-community system,52,WALLACE,Fountain,4,21,7,-87.15811,40.060911,-87.15811,40.060911,-87.22811,-87.08811,39.990911,40.130911
IN2700802,NEW SALEM METHODIST,"4178 E 450 S, Rushville, Indiana, 46173",46173,Indiana,Region 5,Transient non-community system,32,RUSHVILLE,Rush,4,23,5,-85.365481,39.547798,-85.365481,39.54817,-85.366481,-85.364481,39.546798,39.548798
IN5254005,INDIANA AMERICAN WATER - CRAWFORDSVILLE,"153 N Emerson Ave, Greenwood, Indiana, 46143",46143,Indiana,Region 5,Community water system,15800,CRAWFORDSVILLE,Montgomery,14,0,9,-86.082647,39.621265,-86.082647,39.621265,-86.092647,-86.072647,39.611265,39.631265
IN5210005,INDIANA AMERICAN WATER - S. INDIANA,"153 N Emerson Ave, Greenwood, Indiana, 46143",46143,Indiana,Region 5,Community water system,83228,JEFFERSONVILLE,Clark,30,1,12,-86.082647,39.621265,-86.082647,39.621265,-86.092647,-86.072647,39.611265,39.631265
IN2020017,ST. LOUIS CATHOLIC CHURCH & SCHOOL,"15535 Lincoln Hwy E, New Haven, Indiana, 46774",46774,Indiana,Region 5,Non-Transient non-community system,70,NEW HAVEN,Allen,5,97,4,-84.937731,41.050528,-84.937731,41.05063,-84.938731,-84.936731,41.049528,41.051528
IN5245019,GRIFFITH WATER DEPARTMENT,"111 N Broad St, Griffith, Indiana, 46319",46319,Indiana,Region 5,Community water system,16893,GRIFFITH,Lake,6,4,15,-87.427625,41.52342,-87.427401,41.52342,-87.428625,-87.426625,41.52242,41.52442
IN5270003,ANDERSON TOWNSHIP REGIONAL SEWER DIST.,"46156, Milroy, Indiana",46156,Indiana,Region 5,Community water system,900,MILROY,Rush,5,6,28,-85.465341,39.497756,-85.465341,39.497756,-85.606341,-85.324341,39.356756,39.638756
IN5248019,PENDLETON WATER COMPANY,"46064, Pendleton, Indiana",46064,Indiana,Region 5,Community water system,4253,PENDLETON,Madison,9,4,52,-85.747117,39.999293,-85.747117,39.999293,-85.862117,-85.632117,39.884293,40.114293
IN2760035,"HIDDEN VALLEY GOLF COURSE, INC.","5370 E Metz Rd, Angola, Indiana, 46703",46703,Indiana,Region 5,Transient non-community system,35,ANGOLA,Steuben,3,15,5,-84.887612,41.614798,-84.887611,41.61499,-84.888612,-84.886612,41.613798,41.615798
IN2431042,KOS CO FAIRGROUNDS MIDWAY,"46581, Warsaw, Indiana",46581,Indiana,Region 5,Transient non-community system,250,WARSAW,Kosciusko,11,18,6,-85.860221,41.236321,-85.860221,41.236321,-85.865221,-85.855221,41.231321,41.241321
IN2710508,KERN ROAD MENNONITE CHURCH,"18211 Kern Rd, South Bend, Indiana, 46614",46614,Indiana,Region 5,Transient non-community system,95,SOUTH BEND,St. Joseph,4,4,5,-86.222032,41.607718,-86.222041,41.60819,-86.223032,-86.221032,41.606718,41.608718
IN5271029,HOLSTON RENTALS,"Ohio St, Walkerton, Indiana, 46574",46574,Indiana,Region 5,Community water system,60,WALKERTON,St. Joseph,5,46,14,-86.485934,41.46613,-86.485934,41.46613,-86.489934,-86.481934,41.46213,41.47013
IN5261004,INDIANA-AMERICAN WATER - MECCA,"153 N Emerson Ave, Greenwood, Indiana, 46143",46143,Indiana,Region 5,Community water system,560,MECCA,Parke,10,163,15,-86.082647,39.621265,-86.082647,39.621265,-86.092647,-86.072647,39.611265,39.631265
IN2450823,CHINA HOUSE,"46303, Cedar Lake, Indiana",46303,Indiana,Region 5,Transient non-community system,103,CEDAR LAKE,Lake,4,15,4,-87.448272,41.373401,-87.448272,41.373401,-87.538272,-87.358272,41.283401,41.463401
IN2250129,FISH & FUN CAMPGROUND,"1417 W 375 N, Rochester, Indiana, 46975",46975,Indiana,Region 5,Transient non-community system,60,ROCHESTER,Fulton,2,18,7,-86.269581,41.109643,-86.269551,41.105,-86.270581,-86.268581,41.108643,41.110643
IN2350845,CORNERSTONE ALLIANCE CHURCH,"5833 E 900 N, Roanoke, Indiana, 46783",46783,Indiana,Region 5,Transient non-community system,142,ROANOKE,Huntington,6,9,3,-85.338702,40.960483,-85.338701,40.95976,-85.339702,-85.337702,40.959483,40.961483
IN5232005,MEMORY BOOK APARTMENTS,"8103 E US Highway 36, Avon, Indiana, 46123",46123,Indiana,Region 5,Community water system,35,LIZTON,Hendricks,7,1,2,-86.380412,39.763033,-86.380401,39.76246,-86.381412,-86.379412,39.762033,39.764033
IN5203004,EASTERN BARTHOLOMEW WATER,"47280, Taylorsville, Indiana",47280,Indiana,Region 5,Community water system,13470,TAYLORSVILLE,Bartholomew,12,35,23,-85.951303,39.294181,-85.951303,39.294181,-85.969303,-85.933303,39.276181,39.312181
IN2920035,CROOKED LAKE GOLF CLUB,"65 E Morsches Rd, Columbia City, Indiana, 46725",46725,Indiana,Region 5,Transient non-community system,127,COLUMBIA CITY,Whitley,4,6,3,-85.49002,41.264457,-85.490011,41.26452,-85.49102,-85.48902,41.263457,41.265457
IN2441072,FARMERS STATE BANK - HOWE,"220 S Detroit St, Lagrange, Indiana, 46761",46761,Indiana,Region 5,Transient non-community system,408,HOWE,LaGrange,2,3,3,-85.417969,41.64225,-85.418191,41.64225,-85.418969,-85.416969,41.64125,41.64325
IN2330015,BLUE RIVER VALLEY JR./SR. HIGH,"2512 N East Raintree Dr, New Castle, Indiana, 47362",47362,Indiana,Region 5,Non-Transient non-community system,770,NEW CASTLE,Henry,5,2,13,-85.377963,39.955522,-85.377963,39.955522,-85.387963,-85.367963,39.945522,39.965522
IN2120029,GOOD OIL COMPANY #11,"1201 N US Highway 35, Winamac, Indiana, 46996",46996,Indiana,Region 5,Transient non-community system,1200,FRANKFORT,Clinton,2,37,5,-86.603498,41.07286,-86.605481,41.07285,-86.604498,-86.602498,41.07186,41.07386
IN5222002,"FLOYDS KNOBS WATER COMPANY, INC.","7329 Voyles Rd, Greenville, Indiana, 47124",47124,Indiana,Region 5,Community water system,5846,FLOYDS KNOBS,Floyd,6,3,10,-85.994607,38.37956,-85.995001,38.37956,-85.995607,-85.993607,38.37856,38.38056
IN5277009,INDIANA AMERICAN WATER - SULLIVAN,"153 N Emerson Ave, Greenwood, Indiana, 46143",46143,Indiana,Region 5,Community water system,6251,TERRE HAUTE,Sullivan,6,0,9,-86.082647,39.621265,-86.082647,39.621265,-86.092647,-86.072647,39.611265,39.631265
IN5236005,INDIANA AMERICAN WATER - SEYMOUR,"153 N Emerson Ave, Greenwood, Indiana, 46143",46143,Indiana,Region 5,Community water system,19367,SEYMOUR,Jackson,14,8,15,-86.082647,39.621265,-86.082647,39.621265,-86.092647,-86.072647,39.611265,39.631265
IN5241005,INDIANA AMERICAN WATER - JOHNSON COUNTY,"153 N Emerson Ave, Greenwood, Indiana, 46143",46143,Indiana,Region 5,Community water system,77760,GREENWOOD,Johnson,29,1,18,-86.082647,39.621265,-86.082647,39.621265,-86.092647,-86.072647,39.611265,39.631265
IN2200183,DOLLAR GENERAL - NEW PARIS,"100 Mission Rdg, Goodlettsville, Tennessee, 37072",37072,Indiana,Region 5,Transient non-community system,58,NEW PARIS,Elkhart,4,0,0,-86.699243,36.309643,-86.699301,36.30908,-86.700243,-86.698243,36.308643,36.310643
IN2200584,OLD BRETHREN CHRISTIAN SCHOOL,"68064 County Road 11, Nappanee, Indiana, 46550",46550,Indiana,Region 5,Transient non-community system,80,NAPPANEE,Elkhart,2,2,4,-85.943914,41.507721,-85.943381,41.50773,-85.944914,-85.942914,41.506721,41.508721
IN2250832,HOOSIER HIDEAWAY EAST,"1105 N Main St, Kewanna, Indiana, 46939",46939,Indiana,Region 5,Transient non-community system,40,KEWANNA,Fulton,3,13,5,-86.464265,41.071749,-86.464091,41.07174,-86.465265,-86.463265,41.070749,41.072749
IN2710841,PRAIRIE VISTA ELEMENTARY SCHOOL,"55900 Bittersweet Rd, Mishawaka, Indiana, 46545",46545,Indiana,Region 5,Non-Transient non-community system,514,GRANGER,St. Joseph,4,2,6,-86.109645,41.68171,-86.107851,41.68171,-86.110645,-86.108645,41.68071,41.68271
IN2710157,"RIETH-RILEY CONSTRUCTION CO, INC.","46527, Goshen, Indiana",46527,Indiana,Region 5,Non-Transient non-community system,57,SOUTH BEND,St. Joseph,2,2,2,-85.839796,41.58926,-85.839796,41.58926,-85.844796,-85.834796,41.58426,41.59426
IN2570056,STONY ACRES PAROCHIAL AMISH SCHOOL,"3805 W 1100 N, Ligonier, Indiana, 46767",46767,Indiana,Region 5,Transient non-community system,53,LIGONIER,Noble,3,3,2,-85.497221,41.510823,-85.497231,41.50965,-85.498221,-85.496221,41.509823,41.511823
IN2520005,BEST WESTERN - CIRCUS CITY INN,"2642 S Business 31, Peru, Indiana, 46970",46970,Indiana,Region 5,Transient non-community system,56,PERU,Miami,5,5,3,-86.123863,40.726422,-86.123863,40.726422,-86.133863,-86.113863,40.716422,40.736422
IN2790971,MIRACLE BETHEL CHURCH,"7525 S 775 E, Lafayette, Indiana, 47905",47905,Indiana,Region 5,Transient non-community system,100,LAFAYETTE,Tippecanoe,2,159,10,-86.757912,40.308583,-86.757901,40.3083,-86.758912,-86.756912,40.307583,40.309583
IN2490739,CENTRAL BAPTIST CHURCH,"9039 W Washington St, Indianapolis, Indiana, 46231",46231,Indiana,Region 5,Transient non-community system,80,INDIANAPOLIS,Marion,2,7,3,-86.321039,39.730978,-86.321039,39.730978,-86.331039,-86.311039,39.720978,39.740978
IN2250834,HOOSIER HIDEAWAY WEST,"1105 N Main St, Kewanna, Indiana, 46939",46939,Indiana,Region 5,Transient non-community system,50,KEWANNA,Fulton,3,19,5,-86.464265,41.071749,-86.464091,41.07174,-86.465265,-86.463265,41.070749,41.072749
IN2330890,SPRINGPORT CHRISTIAN CHURCH,"7406 N County Road 100 W, Springport, Indiana, 47386",47386,Indiana,Region 5,Transient non-community system,40,SPRINGPORT,Henry,3,4,3,-85.403873,40.039013,-85.403873,40.039013,-85.413873,-85.393873,40.029013,40.049013
IN2710812,BITTERSWEET SCHOOL,"55900 Bittersweet Rd, Mishawaka, Indiana, 46545",46545,Indiana,Region 5,Non-Transient non-community system,517,MISHAWAKA,St. Joseph,4,3,9,-86.109645,41.68171,-86.107851,41.68171,-86.110645,-86.108645,41.68071,41.68271
IN2440919,FARMERS STATE BANK - STROH,"220 S Detroit St, Lagrange, Indiana, 46761",46761,Indiana,Region 5,Transient non-community system,28,STROH,LaGrange,3,1,6,-85.417969,41.64225,-85.418191,41.64225,-85.418969,-85.416969,41.64125,41.64325
IN2170853,PARAGON STEEL,"4211 County Road 61, Butler, Indiana, 46721",46721,Indiana,Region 5,Non-Transient non-community system,50,BUTLER,DeKalb,7,20,7,-84.90054,41.380176,-84.898861,41.37975,-84.90154,-84.89954,41.379176,41.381176
IN2710911,WALKERTON DAIRY QUEEN,"280 Liberty St, Walkerton, Indiana, 46574",46574,Indiana,Region 5,Transient non-community system,85,WALKERTON,St. Joseph,3,2,6,-86.481368,41.471739,-86.481911,41.47174,-86.482368,-86.480368,41.470739,41.472739
IN2441036,CLAY RIDGE AMISH SCHOOL,"62707 E County Line Rd, Goshen, Indiana, 46528",46528,Indiana,Region 5,Transient non-community system,52,SHIPSHEWANA,LaGrange,2,7,4,-85.656078,41.587029,-85.660881,41.58695,-85.657078,-85.655078,41.586029,41.588029
