PWSID,PWS Name,Approximate Address,Postal,Primacy Agency,EPA Region,PWS Type,Population Served Count,Cities Served,Counties Served,# of Facilities,# of Violations,# of Site Visits,Longitude,Latitude,DisplayX,DisplayY,Xmin,Xmax,Ymin,Ymax
MS0100007,REFORM WATER ASSOCIATION,"39735, Reform, Mississippi",39735,Mississippi,Region 4,Community water system,1675,,Choctaw,6,78,17,-89.174569,33.310841,-89.174569,33.310841,-89.322569,-89.026569,33.162841,33.458841
MS0530006,CLAYTON VILLAGE W/A #1-EAST,"13448 MS Highway 182, Starkville, Mississippi, 39759",39759,Mississippi,Region 4,Community water system,4900,,Oktibbeha,9,194,18,-88.747001,33.476928,-88.747001,33.476928,-88.757001,-88.737001,33.466928,33.486928
MS0340020,SOSO COMMUNITY WATER SYS. INC,"87 Duck Hill Rd, Soso, Mississippi, 39480",39480,Mississippi,Region 4,Community water system,2082,,Jones,8,70,20,-89.269384,31.73446,-89.270601,31.73448,-89.270384,-89.268384,31.73346,31.73546
MS0580004,OAK HILL WATER ASSN #1,"189 Reeder Hill Rd, Pontotoc, Mississippi, 38863",38863,Mississippi,Region 4,Community water system,2353,,Pontotoc,8,159,17,-88.948626,34.324557,-88.948626,34.324557,-88.958626,-88.938626,34.314557,34.334557
MS0730001,ALPINE WATER ASSOCIATION,"1108 Highway 9 N, Blue Springs, Mississippi, 38828",38828,Mississippi,Region 4,Community water system,1000,,Union,5,138,15,-88.798248,34.46721,-88.797811,34.46721,-88.799248,-88.797248,34.46621,34.46821
MS0710006,CITY OF IUKA,"118 S Pearl St, Iuka, Mississippi, 38852",38852,Mississippi,Region 4,Community water system,7113,IUKA,Tishomingo,8,81,16,-88.191612,34.81204,-88.191612,34.81204,-88.201612,-88.181612,34.80204,34.82204
MS0820024,"TERRA MISSISSIPPI NITROGEN, INC.","39194, Yazoo City, Mississippi",39194,Mississippi,Region 4,Non-Transient non-community system,115,,Yazoo,7,13,19,-90.409104,32.851768,-90.409104,32.851768,-90.742104,-90.076104,32.518768,33.184768
MS0340031,HATTIESBURG-LAUREL REG AIRPORT,"1002 Terminal Dr, Moselle, Mississippi, 39459",39459,Mississippi,Region 4,Non-Transient non-community system,220,,Jones,3,0,16,-89.330151,31.46939,-89.330151,31.46939,-89.340151,-89.320151,31.45939,31.47939
MS0610017,CITY OF PEARL,"39288, Pearl, Mississippi",39288,Mississippi,Region 4,Community water system,25500,PEARL,Rankin,24,222,19,-90.133514,32.280633,-90.133514,32.280633,-90.138514,-90.128514,32.275633,32.285633
MS0710010,TOWN OF TISHOMINGO,"38873, Tishomingo, Mississippi",38873,Mississippi,Region 4,Community water system,800,,Tishomingo,9,70,15,-88.261902,34.655931,-88.261902,34.655931,-88.398902,-88.124902,34.518931,34.792931
MS0360008,HOPEWELL WATER ASSOCIATION,"CR-366, Oxford, Mississippi, 38655",38655,Mississippi,Region 4,Community water system,1314,,Lafayette,4,76,18,-89.67388,34.351881,-89.67388,34.351881,-89.67688,-89.67088,34.348881,34.354881
MS0180008,CITY OF HATTIESBURG,"39403, Hattiesburg, Mississippi",39403,Mississippi,Region 4,Community water system,56000,HATTIESBURG,Forrest,32,207,16,-89.291202,31.326731,-89.291202,31.326731,-89.296202,-89.286202,31.321731,31.331731
MS0360010,LAFAYETTE SPRINGS WATER ASSN,"90 County Road 251, Oxford, Mississippi, 38655",38655,Mississippi,Region 4,Community water system,498,,Lafayette,5,479,17,-89.262433,34.315688,-89.261761,34.31549,-89.263433,-89.261433,34.314688,34.316688
MS0520024,SHUQUALAK-BUTLER W/A,"1975 Cotton Cemetery Rd, Shuqualak, Mississippi, 39361",39361,Mississippi,Region 4,Community water system,540,,Noxubee,3,72,11,-88.616613,33.004038,-88.616621,33.00433,-88.617613,-88.615613,33.003038,33.005038
MS0140011,RENA LARA WATER ASSOCIATION,"38767, Rena Lara, Mississippi",38767,Mississippi,Region 4,Community water system,350,,Coahoma,7,141,16,-90.775415,34.153403,-90.775415,34.153403,-90.780415,-90.770415,34.148403,34.158403
MS0610011,GREENFIELD WATER ASSOCIATION,"1608 Highway 469 N, Pearl, Mississippi, 39208",39208,Mississippi,Region 4,Community water system,3225,,Rankin,10,215,18,-90.040303,32.22085,-90.040303,32.22085,-90.050303,-90.030303,32.21085,32.23085
MS0680008,PAYNES WATER ASSOCIATION,"38921, Charleston, Mississippi",38921,Mississippi,Region 4,Community water system,582,,Tallahatchie,5,75,14,-90.054714,34.009256,-90.054714,34.009256,-90.451714,-89.657714,33.612256,34.406256
MS0540002,CITY OF BATESVILLE,"38606, Batesville, Mississippi",38606,Mississippi,Region 4,Community water system,9999,BATESVILLE,Panola,13,170,14,-89.952938,34.316994,-89.952938,34.316994,-90.207938,-89.697938,34.061994,34.571994
MS0360001,ABBEVILLE WATER ASSN,"38601, Abbeville, Mississippi",38601,Mississippi,Region 4,Community water system,450,,Lafayette,9,151,15,-89.498592,34.502601,-89.498592,34.502601,-89.670592,-89.326592,34.330601,34.674601
MS0250023,SOUTH TERRY WATER ASSN,"2428 Old Highway 51, Terry, Mississippi, 39170",39170,Mississippi,Region 4,Community water system,705,,Hinds,5,141,17,-90.30858,32.07892,-90.307051,32.07745,-90.30958,-90.30758,32.07792,32.07992
MS0570001,FERNWOOD WATER ASSOCIATION,"3044 Highway 98 E, Mccomb, Mississippi, 39648",39648,Mississippi,Region 4,Community water system,310,,Pike,2,7,14,-90.402015,31.215607,-90.402015,31.215607,-90.412015,-90.392015,31.205607,31.225607
MS0580017,TOCCOPOLA WATER ASSOCIATION #2,"102 Toccopola Junction Rd, Thaxton, Mississippi, 38871",38871,Mississippi,Region 4,Community water system,1560,,Pontotoc,7,140,17,-89.222324,34.294313,-89.223041,34.29435,-89.223324,-89.221324,34.293313,34.295313
MS0240009,CITY OF PASS CHRISTIAN,"200 W Scenic Dr, Pass Christian, Mississippi, 39571",39571,Mississippi,Region 4,Community water system,6235,PASS CHRISTIAN,Harrison,12,139,16,-89.249868,30.313399,-89.249868,30.313399,-89.259868,-89.239868,30.303399,30.323399
MS0600017,BIRDIE WATER ASSOCIATION,"38646, Marks, Mississippi",38646,Mississippi,Region 4,Community water system,219,,Quitman,3,58,12,-90.274172,34.254601,-90.274172,34.254601,-90.451172,-90.097172,34.077601,34.431601
MS0060007,DELTA STATE UNIVERSITY,"38733, Cleveland, Mississippi",38733,Mississippi,Region 4,Community water system,3000,,Bolivar,5,74,14,-90.732847,33.747426,-90.732847,33.747426,-90.737847,-90.727847,33.742426,33.752426
MS0040028,SPRINGDALE YOUTH CNT HWY 12-W,"39090, Kosciusko, Mississippi",39090,Mississippi,Region 4,Community water system,400,,Attala,2,7,17,-89.593439,33.06108,-89.593439,33.06108,-89.878439,-89.308439,32.77608,33.34608
MS0470004,TOWN OF POTTS CAMP,"38659, Potts Camp, Mississippi",38659,Mississippi,Region 4,Community water system,1566,,Marshall,5,143,14,-89.304741,34.646671,-89.304741,34.646671,-89.485741,-89.123741,34.465671,34.827671
MS0520023,PARKS UTILITIES,"MS-32, Houston, Mississippi, 38851",38851,Mississippi,Region 4,Community water system,918,,Noxubee,3,89,14,-88.976959,33.973032,-88.976959,33.973032,-89.029959,-88.923959,33.920032,34.026032
MS0340007,J P UTILITY DISTRICT,"2280 Highway 29 S, Ellisville, Mississippi, 39437",39437,Mississippi,Region 4,Community water system,4242,,Jones,11,306,19,-89.134135,31.526263,-89.134135,31.526263,-89.144135,-89.124135,31.516263,31.536263
MS0470057,WALL DOXEY STATE PARK,"3946 Highway 7 S, Holly Springs, Mississippi, 38635",38635,Mississippi,Region 4,Transient non-community system,300,,Marshall,3,1,18,-89.460473,34.664539,-89.460473,34.664539,-89.470473,-89.450473,34.654539,34.674539
MS0350006,PORTERVILLE W/A,"39352, Porterville, Mississippi",39352,Mississippi,Region 4,Community water system,2310,,Kemper,5,175,17,-88.491012,32.659405,-88.491012,32.659405,-88.613012,-88.369012,32.537405,32.781405
MS0310007,LOUIN WATER WORKS,"39338, Louin, Mississippi",39338,Mississippi,Region 4,Community water system,600,,Jasper,5,184,17,-89.220302,32.063874,-89.220302,32.063874,-89.416302,-89.024302,31.867874,32.259874
MS0010005,"BROADMOOR UTILITIES, INC","39121, Natchez, Mississippi",39121,Mississippi,Region 4,Community water system,1400,,Adams,7,75,18,-91.404382,31.563221,-91.404382,31.563221,-91.409382,-91.399382,31.558221,31.568221
MS0750003,EAGLE LAKE WATER DISTRICT,"39182, Vicksburg, Mississippi",39182,Mississippi,Region 4,Community water system,1560,,Warren,6,59,16,-90.881711,32.312161,-90.881711,32.312161,-90.886711,-90.876711,32.307161,32.317161
MS0640022,OKATOMA WATER ASSOCIATION #2,"39116, Mize, Mississippi",39116,Mississippi,Region 4,Community water system,5304,,Simpson,9,210,18,-89.557437,31.86592,-89.557437,31.86592,-89.710437,-89.404437,31.71292,32.01892
MS0690021,INDEPENDENCE METHODIST CHURCH,"38638, Independence, Mississippi",38638,Mississippi,Region 4,Transient non-community system,100,,Tate,3,8,17,-89.809845,34.705661,-89.809845,34.705661,-89.814845,-89.804845,34.700661,34.710661
MS0310003,BEAVERDAM W/A-NORTH,"39366, Vossburg, Mississippi",39366,Mississippi,Region 4,Community water system,1800,,Jasper,8,141,17,-88.843284,31.943637,-88.843284,31.943637,-89.033284,-88.653284,31.753637,32.133637
MS0220064,YOUNGS W/S DIST #1-DIVIDING R,"Graysport Crossing Rd, Coffeeville, Mississippi, 38922",38922,Mississippi,Region 4,Community water system,420,,Grenada,3,62,19,-89.58537,33.846002,-89.58537,33.846002,-89.63137,-89.53937,33.800002,33.892002
MS0410024,NORTH LEE W/A #1-BARNES CROSNG,"1004 Birmingham Ridge Rd, Saltillo, Mississippi, 38866",38866,Mississippi,Region 4,Community water system,3263,,Lee,23,423,15,-88.763557,34.390317,-88.763557,34.390317,-88.773557,-88.753557,34.380317,34.400317
MS0340017,SHADY GROVE UTILITY DISTRICT,"46 Woodson Dr, Laurel, Mississippi, 39443",39443,Mississippi,Region 4,Community water system,3296,,Jones,9,287,18,-89.146943,31.759171,-89.147091,31.75918,-89.147943,-89.145943,31.758171,31.760171
MS0070007,DUNCAN HILL WATER SUPPLY,"County Road 419, Derma, Mississippi, 38916",38916,Mississippi,Region 4,Community water system,414,,Calhoun,5,143,17,-89.269215,33.858157,-89.269215,33.858157,-89.271215,-89.267215,33.856157,33.860157
MS0410040,NORTH LEE W/A #5-RED HILL,"1004 Birmingham Ridge Rd, Saltillo, Mississippi, 38866",38866,Mississippi,Region 4,Community water system,304,,Lee,3,94,7,-88.763557,34.390317,-88.763557,34.390317,-88.773557,-88.753557,34.380317,34.400317
MS0260010,HOLMES JR COLLEGE,"39079, Goodman, Mississippi",39079,Mississippi,Region 4,Community water system,792,,Holmes,3,145,15,-89.913686,32.968911,-89.913686,32.968911,-90.029686,-89.797686,32.852911,33.084911
MS0140008,TOWN OF JONESTOWN,"38639, Jonestown, Mississippi",38639,Mississippi,Region 4,Community water system,1701,,Coahoma,7,153,13,-90.456322,34.320061,-90.456322,34.320061,-90.461322,-90.451322,34.315061,34.325061
MS0410035,NORTH LEE W/A #4-MACEDONIA,"1004 Birmingham Ridge Rd, Saltillo, Mississippi, 38866",38866,Mississippi,Region 4,Community water system,1087,,Lee,3,101,15,-88.763557,34.390317,-88.763557,34.390317,-88.773557,-88.753557,34.380317,34.400317
MS0430001,BOGUE CHITTO WATER ASSOCIATION,"39629, Bogue Chitto, Mississippi",39629,Mississippi,Region 4,Community water system,2500,,Lincoln,9,141,20,-90.455237,31.43447,-90.455237,31.43447,-90.624237,-90.286237,31.26547,31.60347
MS0570013,TOWN OF SUMMIT,"Ohio Ave, Summit, Mississippi, 39666",39666,Mississippi,Region 4,Community water system,1705,,Pike,10,141,17,-90.471615,31.290808,-90.471615,31.290808,-90.473615,-90.469615,31.288808,31.292808
MS0570014,SUNNYHILL WATER ASSOCIATION,"39649, Mccomb, Mississippi",39649,Mississippi,Region 4,Community water system,3859,,Pike,10,233,19,-90.457022,31.245741,-90.457022,31.245741,-90.462022,-90.452022,31.240741,31.250741
MS0410001,NORTH LEE W/A-AUBURN SYSTEM #1,"1004 Birmingham Ridge Rd, Saltillo, Mississippi, 38866",38866,Mississippi,Region 4,Community water system,1066,,Lee,5,138,16,-88.763557,34.390317,-88.763557,34.390317,-88.773557,-88.753557,34.380317,34.400317
MS0800019,LIBERTY-PLATTSBURG W/A #2,"39346, Noxapater, Mississippi",39346,Mississippi,Region 4,Community water system,1325,,Winston,6,133,16,-89.066072,32.99263,-89.066072,32.99263,-89.231072,-88.901072,32.82763,33.15763
MS0410042,NORTH LEE W/A-HUSHPUPPY,"1004 Birmingham Ridge Rd, Saltillo, Mississippi, 38866",38866,Mississippi,Region 4,Community water system,476,SALTILLO,Lee,3,8,0,-88.763557,34.390317,-88.763557,34.390317,-88.773557,-88.753557,34.380317,34.400317
MS0410041,NORTH LEE W/A-BEECH SPRINGS,"1004 Birmingham Ridge Rd, Saltillo, Mississippi, 38866",38866,Mississippi,Region 4,Community water system,1396,SALTILLO,Lee,5,15,0,-88.763557,34.390317,-88.763557,34.390317,-88.773557,-88.753557,34.380317,34.400317
MS0340002,ELLISVILLE STATE SCHOOL #1,"1101 Highway 11 S, Ellisville, Mississippi, 39437",39437,Mississippi,Region 4,Community water system,760,,Jones,3,67,17,-89.209292,31.592806,-89.209292,31.592806,-89.219292,-89.199292,31.582806,31.602806
MS0340032,ELLISVILLE STATE SCHOOL #2,"1101 Highway 11 S, Ellisville, Mississippi, 39437",39437,Mississippi,Region 4,Community water system,760,,Jones,4,69,16,-89.209292,31.592806,-89.209292,31.592806,-89.219292,-89.199292,31.582806,31.602806
MS0190015,FCWA-HAMBURG,"39653, Meadville, Mississippi",39653,Mississippi,Region 4,Community water system,651,,Franklin,3,67,5,-90.888951,31.470298,-90.888951,31.470298,-91.103951,-90.673951,31.255298,31.685298
MS0240258,THE WOODS,"39540, Diberville, Mississippi",39540,Mississippi,Region 4,Community water system,152,,Harrison,3,49,4,-88.895751,30.432341,-88.895751,30.432341,-88.996751,-88.794751,30.331341,30.533341
MS0220065,YOUNGS W/S DIST #2-YOUNGS SYS,"Graysport Crossing Rd, Coffeeville, Mississippi, 38922",38922,Mississippi,Region 4,Community water system,849,,Grenada,3,76,18,-89.58537,33.846002,-89.58537,33.846002,-89.63137,-89.53937,33.800002,33.892002
MS0180001,BARRONTOWN W/A,"1586 Highway 42, Petal, Mississippi, 39465",39465,Mississippi,Region 4,Community water system,6670,,Forrest,13,382,17,-89.16886,31.353667,-89.16886,31.353667,-89.17886,-89.15886,31.343667,31.363667
MS0300006,CITY OF PASCAGOULA,"1969 Market St, Pascagoula, Mississippi, 39567",39567,Mississippi,Region 4,Community water system,23692,PASCAGOULA,Jackson,19,67,19,-88.548514,30.355509,-88.548514,30.355509,-88.558514,-88.538514,30.345509,30.365509
MS0030003,TOWN OF GLOSTER,"39638, Gloster, Mississippi",39638,Mississippi,Region 4,Community water system,996,,Amite,5,71,20,-91.01898,31.195819,-91.01898,31.195819,-91.20498,-90.83298,31.009819,31.381819
MS0190014,FCWA - PLEASANT VALLEY,"39653, Meadville, Mississippi",39653,Mississippi,Region 4,Community water system,105,,Franklin,3,59,7,-90.888951,31.470298,-90.888951,31.470298,-91.103951,-90.673951,31.255298,31.685298
MS0190008,FCWA - OLDENBURG,"39653, Meadville, Mississippi",39653,Mississippi,Region 4,Community water system,1833,,Franklin,4,75,17,-90.888951,31.470298,-90.888951,31.470298,-91.103951,-90.673951,31.255298,31.685298
MS0580023,HOULKA-WASHINGTON EXT,"38850, New Houlka, Mississippi",38850,Mississippi,Region 4,Community water system,609,,Pontotoc,5,138,11,-89.020631,34.036243,-89.020631,34.036243,-89.320631,-88.720631,33.736243,34.336243
MS0190010,FCWA - BERRYTOWN,"39653, Meadville, Mississippi",39653,Mississippi,Region 4,Community water system,285,,Franklin,3,63,16,-90.888951,31.470298,-90.888951,31.470298,-91.103951,-90.673951,31.255298,31.685298
MS0410025,NORTH LEE W/A #2-BIRMINGHAM RD,"1004 Birmingham Ridge Rd, Saltillo, Mississippi, 38866",38866,Mississippi,Region 4,Community water system,2839,,Lee,11,188,16,-88.763557,34.390317,-88.763557,34.390317,-88.773557,-88.753557,34.380317,34.400317
MS0440004,TOWN OF CRAWFORD,"39743, Crawford, Mississippi",39743,Mississippi,Region 4,Community water system,631,,Lowndes,5,176,17,-88.702931,33.30911,-88.702931,33.30911,-89.000931,-88.404931,33.01111,33.60711
MS0060054,NORTH BOLIVAR W/A,"38730, Boyle, Mississippi",38730,Mississippi,Region 4,Community water system,668,,Bolivar,5,142,8,-90.725221,33.707331,-90.725221,33.707331,-90.891221,-90.559221,33.541331,33.873331
MS0120007,CITY OF QUITMAN,"39355, Quitman, Mississippi",39355,Mississippi,Region 4,Community water system,2323,QUITMAN,Clarke,7,146,18,-88.72191,32.03851,-88.72191,32.03851,-89.00791,-88.43591,31.75251,32.32451
MS0590004,BOONEVILLE WATER DEPT.,"203 N Main St, Booneville, Mississippi, 38829",38829,Mississippi,Region 4,Community water system,8743,,Prentiss,8,193,17,-88.562291,34.657139,-88.562141,34.65704,-88.563291,-88.561291,34.656139,34.658139
MS0690040,ARKABUTLA LAKE,"3905 Arkabutla Dam Rd, Coldwater, Mississippi, 38618",38618,Mississippi,Region 4,Transient non-community system,250,,Tate,9,2,13,-90.13057,34.750356,-90.13057,34.750356,-90.14057,-90.12057,34.740356,34.760356
MS0070010,MT COMFORT W/A,"38915, Bruce, Mississippi",38915,Mississippi,Region 4,Community water system,1248,,Calhoun,3,69,18,-89.34189,33.993705,-89.34189,33.993705,-89.50789,-89.17589,33.827705,34.159705
MS0070017,MT COMFORT W/A-SAREPTA,"38915, Bruce, Mississippi",38915,Mississippi,Region 4,Community water system,663,,Calhoun,5,71,18,-89.34189,33.993705,-89.34189,33.993705,-89.50789,-89.17589,33.827705,34.159705
MS0050001,TOWN OF ASHLAND,"38603, Ashland, Mississippi",38603,Mississippi,Region 4,Community water system,2088,,Benton,11,150,18,-89.174181,34.83191,-89.174181,34.83191,-89.333181,-89.015181,34.67291,34.99091
MS0070011,MT COMFORT W/A-MT MORIAH,"38915, Bruce, Mississippi",38915,Mississippi,Region 4,Community water system,1044,,Calhoun,7,69,18,-89.34189,33.993705,-89.34189,33.993705,-89.50789,-89.17589,33.827705,34.159705
MS0070020,MT COMFORT W/A-BANNER,"38915, Bruce, Mississippi",38915,Mississippi,Region 4,Community water system,1833,,Calhoun,7,149,18,-89.34189,33.993705,-89.34189,33.993705,-89.50789,-89.17589,33.827705,34.159705
MS0530002,BLACK JACK WATER ASSN #1,"39760, Starkville, Mississippi",39760,Mississippi,Region 4,Community water system,800,,Oktibbeha,7,142,16,-88.84164,33.44859,-88.84164,33.44859,-88.84664,-88.83664,33.44359,33.45359
MS0300026,HELENA PARK WATER SYSTEM,"1225 Jackson Ave, Pascagoula, Mississippi, 39567",39567,Mississippi,Region 4,Community water system,154,,Jackson,5,134,14,-88.552049,30.365528,-88.551971,30.36607,-88.553049,-88.551049,30.364528,30.366528
MS0550001,CENTER W/A-CAESAR SYSTEM,"1050 Bouie Rd, Carriere, Mississippi, 39426",39426,Mississippi,Region 4,Community water system,5949,,Pearl River,10,267,15,-89.55074,30.608688,-89.550611,30.60868,-89.55174,-89.54974,30.607688,30.609688
MS0440018,COLUMBUS AIR FORCE BASE,"555 Simler Blvd, Columbus, Mississippi, 39710",39710,Mississippi,Region 4,Community water system,4600,,Lowndes,8,7,15,-88.445237,33.630098,-88.445237,33.630098,-88.455237,-88.435237,33.620098,33.640098
MS0800015,NANIH-WAIYA WATER ASSOCIATION,"2679 Shuqualak Rd, Preston, Mississippi, 39354",39354,Mississippi,Region 4,Community water system,1500,,Winston,4,75,17,-88.82872,32.939232,-88.82872,32.939232,-88.83872,-88.81872,32.929232,32.949232
MS0450005,CAMERON COMMUNITY WATER SYSTEM,"2847 Highway 17, Pickens, Mississippi, 39146",39146,Mississippi,Region 4,Community water system,554,,Madison,6,142,18,-89.870805,32.826312,-89.870805,32.826312,-89.880805,-89.860805,32.816312,32.836312
MS0370014,R D MORROW POWER PLANT,"39404, Hattiesburg, Mississippi",39404,Mississippi,Region 4,Non-Transient non-community system,112,,Lamar,11,1,16,-89.346732,31.32186,-89.346732,31.32186,-89.351732,-89.341732,31.31686,31.32686
MS0640002,TOWN OF BRAXTON,"Palm St, Braxton, Mississippi, 39044",39044,Mississippi,Region 4,Community water system,746,,Simpson,10,248,21,-89.973261,32.026507,-89.973261,32.026507,-89.976261,-89.970261,32.023507,32.029507
MS0520004,MACON ELECTRIC & WATER DEPT.,"39341, Macon, Mississippi",39341,Mississippi,Region 4,Community water system,4389,,Noxubee,9,248,18,-88.560176,33.110497,-88.560176,33.110497,-88.904176,-88.216176,32.766497,33.454497
MS0610036,PRVWSD-PELAHATCHIE BAY,"39158, Ridgeland, Mississippi",39158,Mississippi,Region 4,Community water system,10551,,Rankin,15,267,16,-90.123687,32.409671,-90.123687,32.409671,-90.128687,-90.118687,32.404671,32.414671
MS0610013,LEESBURG WATER ASSOCIATION,"368 Highway 481, Pelahatchie, Mississippi, 39145",39145,Mississippi,Region 4,Community water system,3879,,Rankin,13,233,20,-89.792212,32.440087,-89.792212,32.440087,-89.802212,-89.782212,32.430087,32.450087
MS0660004,"NEW ZION UTILITIES, INC","39577, Wiggins, Mississippi",39577,Mississippi,Region 4,Community water system,2037,,Stone,7,72,18,-89.136215,30.856526,-89.136215,30.856526,-89.398215,-88.874215,30.594526,31.118526
MS0300010,INGALLS SHIPBUILDING,"1000 Access Rd, Pascagoula, Mississippi, 39567",39567,Mississippi,Region 4,Non-Transient non-community system,10400,,Jackson,8,4,15,-88.578006,30.354371,-88.578006,30.354371,-88.588006,-88.568006,30.344371,30.364371
MS0540015,PANOLA-UNION W/A,"208 Hickory Ln E, Sardis, Mississippi, 38666",38666,Mississippi,Region 4,Community water system,700,,Panola,6,136,15,-89.786148,34.441737,-89.786148,34.441737,-89.796148,-89.776148,34.431737,34.451737
MS0610035,PRVWSD-HIGHWAY 43,"39158, Ridgeland, Mississippi",39158,Mississippi,Region 4,Community water system,757,,Rankin,10,138,16,-90.123687,32.409671,-90.123687,32.409671,-90.128687,-90.118687,32.404671,32.414671
MS0310012,STRINGER WATER WORKS,"39481, Stringer, Mississippi",39481,Mississippi,Region 4,Community water system,3419,,Jasper,8,122,18,-89.202919,31.853488,-89.202919,31.853488,-89.320919,-89.084919,31.735488,31.971488
MS0660005,CITY OF WIGGINS,"117 First St N, Wiggins, Mississippi, 39577",39577,Mississippi,Region 4,Community water system,3849,WIGGINS,Stone,9,241,16,-89.137775,30.859382,-89.137775,30.859382,-89.147775,-89.127775,30.849382,30.869382
MS0700015,LAKE MOHAWK ESTATES WATER SYSM,"CR-634, Booneville, Mississippi, 38829",38829,Mississippi,Region 4,Community water system,246,,Tippah,2,7,14,-88.733333,34.662169,-88.733333,34.662169,-88.741333,-88.725333,34.654169,34.670169
MS0460005,FOXWORTH WATER & SEWERAGE ASSN,"39483, Morgantown, Mississippi",39483,Mississippi,Region 4,Community water system,1000,,Marion,7,145,20,-89.872317,31.236146,-89.872317,31.236146,-90.081317,-89.663317,31.027146,31.445146
MS0090003,TOWN OF NEW HOULKA,"38850, New Houlka, Mississippi",38850,Mississippi,Region 4,Community water system,1650,,Chickasaw,7,141,18,-89.020631,34.036243,-89.020631,34.036243,-89.320631,-88.720631,33.736243,34.336243
MS0110002,C S & I WATER ASSN #1,"39150, Port Gibson, Mississippi",39150,Mississippi,Region 4,Community water system,1200,,Claiborne,8,137,14,-90.98485,31.957025,-90.98485,31.957025,-91.19285,-90.77685,31.749025,32.165025
MS0190009,FCWA-SOUTH MEADVILLE,"39653, Meadville, Mississippi",39653,Mississippi,Region 4,Community water system,1695,,Franklin,4,73,16,-90.888951,31.470298,-90.888951,31.470298,-91.103951,-90.673951,31.255298,31.685298
MS0550041,NICHOLSON WATER ASSOCIATION,"39463, Nicholson, Mississippi",39463,Mississippi,Region 4,Community water system,2670,,Pearl River,7,170,17,-89.695175,30.479085,-89.695175,30.479085,-89.700175,-89.690175,30.474085,30.484085
MS0040027,SPRINGDALE YOUTH CNT HWY 19-N,"39090, Kosciusko, Mississippi",39090,Mississippi,Region 4,Community water system,466,,Attala,2,10,17,-89.593439,33.06108,-89.593439,33.06108,-89.878439,-89.308439,32.77608,33.34608
MS0640009,OKATOMA WATER ASSOCIATION #1,"39116, Mize, Mississippi",39116,Mississippi,Region 4,Community water system,3042,,Simpson,5,145,19,-89.557437,31.86592,-89.557437,31.86592,-89.710437,-89.404437,31.71292,32.01892
MS0600004,DARLING WATER ASSOCIATION,"38623, Darling, Mississippi",38623,Mississippi,Region 4,Community water system,300,,Quitman,3,67,14,-90.27235,34.359306,-90.27235,34.359306,-90.41335,-90.13135,34.218306,34.500306
MS0760010,WINTERVILLE WATER ASSOCIATION,"1084 Blaylock Rd, Greenville, Mississippi, 38703",38703,Mississippi,Region 4,Community water system,125,,Washington,3,81,17,-91.058549,33.501671,-91.058201,33.50168,-91.059549,-91.057549,33.500671,33.502671
MS0360017,"YOCONA WATER ASSOCIATION, INC.","758 Highway 334, Oxford, Mississippi, 38655",38655,Mississippi,Region 4,Community water system,830,,Lafayette,7,90,16,-89.428725,34.280713,-89.428981,34.27929,-89.429725,-89.427725,34.279713,34.281713
MS0090004,HOULKA-HOUSTON W/A,"170 County Road 29, Houston, Mississippi, 38851",38851,Mississippi,Region 4,Community water system,1800,,Chickasaw,9,162,16,-88.986471,33.958498,-88.986421,33.96045,-88.987471,-88.985471,33.957498,33.959498
MS0700003,CHALYBEATE WATER ASSN,"2551 Highway 354, Walnut, Mississippi, 38683",38683,Mississippi,Region 4,Community water system,2001,,Tippah,7,224,18,-88.868082,34.930177,-88.867991,34.93035,-88.869082,-88.867082,34.929177,34.931177
MS0260013,TOWN OF PICKENS,"39146, Pickens, Mississippi",39146,Mississippi,Region 4,Community water system,1157,,Holmes,7,139,16,-89.972599,32.898673,-89.972599,32.898673,-90.148599,-89.796599,32.722673,33.074673
MS0120012,CLARKO STATE PARK,"386 Clarkco Rd, Quitman, Mississippi, 39355",39355,Mississippi,Region 4,Transient non-community system,495,,Clarke,3,0,16,-88.697921,32.101931,-88.697921,32.101931,-88.707921,-88.687921,32.091931,32.111931
MS0340036,J P UTILITY DIST #2,"2280 Highway 29 S, Ellisville, Mississippi, 39437",39437,Mississippi,Region 4,Community water system,1698,,Jones,3,69,11,-89.134135,31.526263,-89.134135,31.526263,-89.144135,-89.124135,31.516263,31.536263
MS0350024,PORTERVILLE W/A-KEMPER SPRINGS,"39352, Porterville, Mississippi",39352,Mississippi,Region 4,Community water system,100,,Kemper,3,94,13,-88.491012,32.659405,-88.491012,32.659405,-88.613012,-88.369012,32.537405,32.781405
MS0740005,TOWN OF TYLERTOWN,"308 Beulah Ave, Tylertown, Mississippi, 39667",39667,Mississippi,Region 4,Community water system,1609,,Walthall,6,72,19,-90.135353,31.11545,-90.135353,31.11545,-90.145353,-90.125353,31.10545,31.12545
MS0140002,CLARKSDALE PUBLIC UTILITIES,"Ohio Ave, Clarksdale, Mississippi, 38614",38614,Mississippi,Region 4,Community water system,20645,,Coahoma,28,195,14,-90.550096,34.203305,-90.550096,34.203305,-90.554096,-90.546096,34.199305,34.207305
MS0640012,POPLAR SPRINGS WATER DISTRICT,"6630 Highway 18, Brandon, Mississippi, 39042",39042,Mississippi,Region 4,Community water system,1300,,Simpson,4,79,19,-89.763726,32.072356,-89.764421,32.07149,-89.764726,-89.762726,32.071356,32.073356
MS0290005,TOWN OF MANTACHIE,"38855, Mantachie, Mississippi",38855,Mississippi,Region 4,Community water system,2400,,Itawamba,8,1,16,-88.495282,34.318772,-88.495282,34.318772,-88.587282,-88.403282,34.226772,34.410772
MS0240236,DEERWOOD UTILITIES,"39540, Diberville, Mississippi",39540,Mississippi,Region 4,Community water system,282,,Harrison,3,57,10,-88.895751,30.432341,-88.895751,30.432341,-88.996751,-88.794751,30.331341,30.533341
MS0450019,PRVWSD-MAIN HARBOR,"39158, Ridgeland, Mississippi",39158,Mississippi,Region 4,Community water system,1830,,Madison,7,138,18,-90.123687,32.409671,-90.123687,32.409671,-90.128687,-90.118687,32.404671,32.414671
MS0450024,PRVWSD-TWIN HARBOR,"39158, Ridgeland, Mississippi",39158,Mississippi,Region 4,Community water system,1971,,Madison,7,153,18,-90.123687,32.409671,-90.123687,32.409671,-90.128687,-90.118687,32.404671,32.414671
MS0780004,"DANCY WATER ASSOCIATION, INC.","158 Pate Rd, Mantee, Mississippi, 39751",39751,Mississippi,Region 4,Community water system,250,,Webster,5,131,14,-89.053878,33.684076,-89.053881,33.68406,-89.054878,-89.052878,33.683076,33.685076
MS0340006,HATTEN WATER ASSN,"227 Hillcrest Rd, Taylorsville, Mississippi, 39168",39168,Mississippi,Region 4,Community water system,1191,,Jones,4,74,18,-89.380601,31.751548,-89.380601,31.751548,-89.390601,-89.370601,31.741548,31.761548
MS0240247,"PALMER CREEK UTILITY ASSC, INC","39540, Diberville, Mississippi",39540,Mississippi,Region 4,Community water system,487,,Harrison,3,72,10,-88.895751,30.432341,-88.895751,30.432341,-88.996751,-88.794751,30.331341,30.533341
MS0060008,TOWN OF DUNCAN,"38740, Duncan, Mississippi",38740,Mississippi,Region 4,Community water system,423,,Bolivar,7,78,15,-90.853442,34.05129,-90.853442,34.05129,-91.047442,-90.659442,33.85729,34.24529
MS0550013,HIDE-A-WAY LAKE WATER SYSTEM,"39466, Picayune, Mississippi",39466,Mississippi,Region 4,Community water system,2587,,Pearl River,7,149,16,-89.6786,30.525701,-89.6786,30.525701,-89.9466,-89.4106,30.257701,30.793701
MS0440013,AIRBASE TRAILER PARK,"4180 Highway 373, Columbus, Mississippi, 39705",39705,Mississippi,Region 4,Community water system,240,,Lowndes,19,305,15,-88.451878,33.619875,-88.451878,33.619875,-88.461878,-88.441878,33.609875,33.629875
MS0070008,MACEDONIA WATER ASSOCIATION,"441 Highway 9 S, Calhoun City, Mississippi, 38916",38916,Mississippi,Region 4,Community water system,567,,Calhoun,7,105,17,-89.346615,33.813407,-89.346615,33.813407,-89.356615,-89.336615,33.803407,33.823407
MS0390003,TOWN OF MONTICELLO,"202 Jefferson St, Monticello, Mississippi, 39654",39654,Mississippi,Region 4,Community water system,1556,,Lawrence,8,71,19,-90.105303,31.551584,-90.105721,31.55161,-90.106303,-90.104303,31.550584,31.552584
MS0820006,TOWN OF EDEN,"268 Eden Main St, Yazoo City, Mississippi, 39194",39194,Mississippi,Region 4,Community water system,128,,Yazoo,7,146,17,-90.322263,32.984404,-90.322263,32.984404,-90.332263,-90.312263,32.974404,32.994404
MS0210004,NEELY UTILITIES,"101 Ray Dixon Ln, Neely, Mississippi, 39461",39461,Mississippi,Region 4,Community water system,573,,Greene,5,145,17,-88.740703,31.161138,-88.740703,31.161138,-88.750703,-88.730703,31.151138,31.171138
MS0340001,CALHOUN WATER ASSOCIATION,"99 Calhoun Rd, Laurel, Mississippi, 39443",39443,Mississippi,Region 4,Community water system,4466,,Jones,9,140,18,-89.197698,31.695418,-89.197698,31.695418,-89.207698,-89.187698,31.685418,31.705418
MS0360003,CAMPGROUND WATER ASSN,"38655, Lafayette, Mississippi",38655,Mississippi,Region 4,Community water system,1285,,Lafayette,6,75,16,-89.519452,34.36683,-89.519452,34.36683,-89.792452,-89.246452,34.09383,34.63983
MS0060017,SCOTT COMBINED WATER & SEWER D,"38772, Scott, Mississippi",38772,Mississippi,Region 4,Community water system,315,,Bolivar,5,144,14,-91.078478,33.593045,-91.078478,33.593045,-91.079478,-91.077478,33.592045,33.594045
MS0060049,DEESON-ROUNDLAKE WATER CORP,"673 Laughlin Rd, Cleveland, Mississippi, 38732",38732,Mississippi,Region 4,Community water system,252,,Bolivar,3,62,10,-90.768711,33.718503,-90.768691,33.71753,-90.769711,-90.767711,33.717503,33.719503
MS0570011,SW MS COMM COLLEGE,"1156 College Dr, Summit, Mississippi, 39666",39666,Mississippi,Region 4,Community water system,500,,Pike,13,77,17,-90.44559,31.29305,-90.44559,31.29305,-90.45559,-90.43559,31.28305,31.30305
MS0350002,KIPLING W/A #1,"39328, De Kalb, Mississippi",39328,Mississippi,Region 4,Community water system,1551,,Kemper,10,71,17,-88.649309,32.769703,-88.649309,32.769703,-88.915309,-88.383309,32.503703,33.035703
MS0170011,LEWISBURG WATER ASSOCIATION,"9183 Stewart Rd, Olive Branch, Mississippi, 38654",38654,Mississippi,Region 4,Community water system,5170,,DeSoto,8,70,16,-89.826577,34.907849,-89.826577,34.907849,-89.836577,-89.816577,34.897849,34.917849
MS0400006,NEW PROVIDENCE WATER ASSN,"795 Chipley Rd, Carthage, Mississippi, 39051",39051,Mississippi,Region 4,Community water system,2442,,Leake,10,214,19,-89.562165,32.73873,-89.562301,32.73873,-89.563165,-89.561165,32.73773,32.73973
MS0140045,PINE GROVE WATER ASSOCIATION,"1238 Reinhart Rd, Clarksdale, Mississippi, 38614",38614,Mississippi,Region 4,Community water system,420,,Coahoma,5,139,15,-90.627492,34.103048,-90.627451,34.1075,-90.628492,-90.626492,34.102048,34.104048
MS0300079,BLUFF CREEK MOBILE HOME PARK,"8716 Pine Grove Rd, Gautier, Mississippi, 39553",39553,Mississippi,Region 4,Community water system,172,,Jackson,3,82,15,-88.675333,30.467356,-88.675333,30.467356,-88.685333,-88.665333,30.457356,30.477356
MS0120004,TOWN OF ENTERPRISE,"39330, Enterprise, Mississippi",39330,Mississippi,Region 4,Community water system,1000,,Clarke,7,68,18,-88.826512,32.178351,-88.826512,32.178351,-88.968512,-88.684512,32.036351,32.320351
MS0380101,TOWN OF MARION,"39342, Marion, Mississippi",39342,Mississippi,Region 4,Community water system,1400,,Lauderdale,5,71,18,-88.650375,32.42715,-88.650375,32.42715,-88.672375,-88.628375,32.40515,32.44915
MS0540025,ENID SHORES DEV WATER COMPANY,"38606, Batesville, Mississippi",38606,Mississippi,Region 4,Community water system,336,,Panola,3,72,13,-89.952938,34.316994,-89.952938,34.316994,-90.207938,-89.697938,34.061994,34.571994
MS0540029,HIDE-A-WAY HILLS WATER COMPANY,"38606, Batesville, Mississippi",38606,Mississippi,Region 4,Community water system,208,,Panola,3,71,12,-89.952938,34.316994,-89.952938,34.316994,-90.207938,-89.697938,34.061994,34.571994
MS0730005,TOWN OF MYRTLE,"38650, Myrtle, Mississippi",38650,Mississippi,Region 4,Community water system,1375,,Union,5,140,16,-89.118362,34.56089,-89.118362,34.56089,-89.247362,-88.989362,34.43189,34.68989
MS0730006,CITY OF NEW ALBANY,"38652, New Albany, Mississippi",38652,Mississippi,Region 4,Community water system,8500,NEW ALBANY,Union,15,453,14,-89.001922,34.49173,-89.001922,34.49173,-89.171922,-88.831922,34.32173,34.66173
MS0810033,TRI-LAKES WATER ASSN-CENTRAL,"605 E Wood St, Water Valley, Mississippi, 38965",38965,Mississippi,Region 4,Community water system,444,,Yalobusha,3,69,13,-89.621,34.150366,-89.619881,34.1505,-89.622,-89.62,34.149366,34.151366
MS0620023,STEELE-RINGGOLD W/A #2,"3991 Old US-80, Forest, Mississippi, 39074",39074,Mississippi,Region 4,Community water system,3162,,Scott,5,147,17,-89.397629,32.38675,-89.397629,32.38675,-89.407629,-89.387629,32.37675,32.39675
MS0190005,TOWN OF ROXIE,"39661, Roxie, Mississippi",39661,Mississippi,Region 4,Community water system,596,,Franklin,4,79,17,-91.07175,31.506301,-91.07175,31.506301,-91.26075,-90.88275,31.317301,31.695301
MS0420003,MS VALLEY STATE UNIVERSITY,"38941, Itta Bena, Mississippi",38941,Mississippi,Region 4,Community water system,2250,,Leflore,7,80,14,-90.324371,33.496001,-90.324371,33.496001,-90.585371,-90.063371,33.235001,33.757001
MS0540012,LIBERTY HILL WATER ASSOCIATION,"6511 Pope Water Valley Rd, Pope, Mississippi, 38658",38658,Mississippi,Region 4,Community water system,650,,Panola,6,84,14,-89.836282,34.193048,-89.836281,34.19389,-89.837282,-89.835282,34.192048,34.194048
MS0530001,ADATON W/A #1-JOSEY CREEK,"39760, Starkville, Mississippi",39760,Mississippi,Region 4,Community water system,2044,,Oktibbeha,7,224,17,-88.84164,33.44859,-88.84164,33.44859,-88.84664,-88.83664,33.44359,33.45359
MS0430031,LINCOLN RURAL W/A-OLD RED STAR,"2524 Heucks Retreat Rd NE, Wesson, Mississippi, 39191",39191,Mississippi,Region 4,Community water system,2397,,Lincoln,4,68,10,-90.337804,31.630168,-90.337804,31.630168,-90.347804,-90.327804,31.620168,31.640168
MS0430027,LINCOLN RURAL W/A-BEAUREGARD,"2524 Heucks Retreat Rd NE, Wesson, Mississippi, 39191",39191,Mississippi,Region 4,Community water system,3084,,Lincoln,4,69,19,-90.337804,31.630168,-90.337804,31.630168,-90.347804,-90.327804,31.620168,31.640168
MS0430032,LINCOLN RURAL W/A-ZETUS,"2524 Heucks Retreat Rd NE, Wesson, Mississippi, 39191",39191,Mississippi,Region 4,Community water system,2067,,Lincoln,3,69,10,-90.337804,31.630168,-90.337804,31.630168,-90.347804,-90.327804,31.620168,31.640168
MS0600016,WEST LAMBERT WATER ASSOCIATION,"1322 Alex Gates Rd, Marks, Mississippi, 38646",38646,Mississippi,Region 4,Community water system,375,,Quitman,2,25,13,-90.355518,34.23676,-90.355071,34.23676,-90.356518,-90.354518,34.23576,34.23776
MS0670003,TOWN OF DODDSVILLE,"38736, Doddsville, Mississippi",38736,Mississippi,Region 4,Community water system,216,,Sunflower,5,186,17,-90.522583,33.657886,-90.522583,33.657886,-90.645583,-90.399583,33.534886,33.780886
MS0670006,CITY OF INDIANOLA,"38751, Indianola, Mississippi",38751,Mississippi,Region 4,Community water system,10683,INDIANOLA,Sunflower,14,126,17,-90.650042,33.453661,-90.650042,33.453661,-90.834042,-90.466042,33.269661,33.637661
MS0680033,PHILIPP WATER ASSOCIATION,"28356 CR-559, Schlater, Mississippi, 38952",38952,Mississippi,Region 4,Community water system,630,,Tallahatchie,4,79,14,-90.304835,33.698124,-90.304591,33.69749,-90.305835,-90.303835,33.697124,33.699124
MS0580007,RANDOLPH WATER ASSOCIATION #1,"4499 Steward Loop, Randolph, Mississippi, 38864",38864,Mississippi,Region 4,Community water system,1200,,Pontotoc,5,147,17,-89.205144,34.163661,-89.208881,34.16401,-89.206144,-89.204144,34.162661,34.164661
MS0540021,CHICKASAW HILLS SUBDIVISION,"38606, Batesville, Mississippi",38606,Mississippi,Region 4,Community water system,198,,Panola,3,69,13,-89.952938,34.316994,-89.952938,34.316994,-90.207938,-89.697938,34.061994,34.571994
MS0620011,STEELE-RINGGOLD W/A #1,"3991 Old US-80, Forest, Mississippi, 39074",39074,Mississippi,Region 4,Community water system,3135,,Scott,7,148,17,-89.397629,32.38675,-89.397629,32.38675,-89.407629,-89.387629,32.37675,32.39675
MS0170005,DAYS WATER ASSOCIATION,"4877 Star Landing Rd W, Nesbit, Mississippi, 38651",38651,Mississippi,Region 4,Community water system,3472,,DeSoto,4,72,16,-90.076292,34.904353,-90.076301,34.90387,-90.077292,-90.075292,34.903353,34.905353
MS0810010,TRI-LAKES WATER ASSN-EAST,"605 E Wood St, Water Valley, Mississippi, 38965",38965,Mississippi,Region 4,Community water system,330,,Yalobusha,3,70,16,-89.621,34.150366,-89.619881,34.1505,-89.622,-89.62,34.149366,34.151366
MS0230017,PORT BIENVILLE IND PARK,"13010 Seaplane Rd, Bay Saint Louis, Mississippi, 39520",39520,Mississippi,Region 4,Non-Transient non-community system,108,,Hancock,3,4,20,-89.57014,30.227298,-89.57014,30.227298,-89.58014,-89.56014,30.217298,30.237298
MS0530010,TOWN OF MABEN,"39750, Maben, Mississippi",39750,Mississippi,Region 4,Community water system,1058,,Oktibbeha,5,149,17,-89.082434,33.555701,-89.082434,33.555701,-89.221434,-88.943434,33.416701,33.694701
MS0610041,ACL WATER ASSOCIATION #2,"1182 Highway 43 S, Pelahatchie, Mississippi, 39145",39145,Mississippi,Region 4,Community water system,1420,,Rankin,9,175,17,-89.771285,32.251028,-89.771285,32.251028,-89.781285,-89.761285,32.241028,32.261028
MS0780016,SPRING VALLEY WATER ASSN,"701 Vickers Rd, Eupora, Mississippi, 39744",39744,Mississippi,Region 4,Community water system,350,,Webster,2,17,14,-89.197536,33.67265,-89.197901,33.67285,-89.198536,-89.196536,33.67165,33.67365
MS0670014,MS STATE PENITENTIARY-MN LN,"38738, Parchman, Mississippi",38738,Mississippi,Region 4,Community water system,3500,,Sunflower,15,293,14,-90.520594,33.826021,-90.520594,33.826021,-90.525594,-90.515594,33.821021,33.831021
MS0540005,TOWN OF CRENSHAW,"38621, Crenshaw, Mississippi",38621,Mississippi,Region 4,Community water system,900,,Panola,7,242,12,-90.192925,34.504834,-90.192925,34.504834,-90.357925,-90.027925,34.339834,34.669834
MS0810012,TRI-LAKES WATER ASSN-WEST,"605 E Wood St, Water Valley, Mississippi, 38965",38965,Mississippi,Region 4,Community water system,1167,,Yalobusha,3,70,16,-89.621,34.150366,-89.619881,34.1505,-89.622,-89.62,34.149366,34.151366
MS0440103,EAST LOWNDES W/A B WEST-OLD YORKVILLE RD,"39705, Columbus, Mississippi",39705,Mississippi,Region 4,Community water system,6413,,Lowndes,3,27,0,-88.430096,33.528358,-88.430096,33.528358,-88.577096,-88.283096,33.381358,33.675358
MS0730002,BLUE SPRINGS W/A,"38828, Blue Springs, Mississippi",38828,Mississippi,Region 4,Community water system,1987,,Union,9,177,16,-88.873155,34.401877,-88.873155,34.401877,-89.020155,-88.726155,34.254877,34.548877
MS0250003,CITY OF CLINTON,"39056, Clinton, Mississippi",39056,Mississippi,Region 4,Community water system,25000,CLINTON,Hinds,26,233,16,-90.303392,32.332911,-90.303392,32.332911,-90.458392,-90.148392,32.177911,32.487911
MS0280017,TALLULA UTILITY DISTRICT,"13222 Highway 1, Rolling Fork, Mississippi, 39159",39159,Mississippi,Region 4,Community water system,300,,Issaquena,5,102,14,-91.116041,32.784248,-91.116041,32.784248,-91.126041,-91.106041,32.774248,32.794248
MS0540063,SARDIS LAKE COMMUNITY W/A,"1368 Shady Grove Rd, Batesville, Mississippi, 38606",38606,Mississippi,Region 4,Community water system,1300,,Panola,7,62,15,-89.740728,34.325205,-89.740728,34.325205,-89.750728,-89.730728,34.315205,34.335205
MS0460003,CITY OF COLUMBIA,"201 2nd St, Columbia, Mississippi, 39429",39429,Mississippi,Region 4,Community water system,6603,COLUMBIA,Marion,13,70,18,-89.837483,31.250742,-89.837483,31.250742,-89.847483,-89.827483,31.240742,31.260742
MS0530022,TALKING WARRIOR WATER ASSN #1,"39760, Starkville, Mississippi",39760,Mississippi,Region 4,Community water system,1456,,Oktibbeha,5,153,16,-88.84164,33.44859,-88.84164,33.44859,-88.84664,-88.83664,33.44359,33.45359
MS0310016,TALLAHALA W/A-GARLANDSVILLE,"39422, Bay Springs, Mississippi",39422,Mississippi,Region 4,Community water system,1785,,Jasper,7,145,18,-89.288865,31.978165,-89.288865,31.978165,-89.497865,-89.079865,31.769165,32.187165
MS0610001,ACL WATER ASSOCIATION #1,"1182 Highway 43 S, Pelahatchie, Mississippi, 39145",39145,Mississippi,Region 4,Community water system,1499,,Rankin,7,145,17,-89.771285,32.251028,-89.771285,32.251028,-89.781285,-89.761285,32.241028,32.261028
MS0430003,LINCOLN RURAL W/A-PLEASANT RID,"2524 Heucks Retreat Rd NE, Wesson, Mississippi, 39191",39191,Mississippi,Region 4,Community water system,2439,,Lincoln,6,121,21,-90.337804,31.630168,-90.337804,31.630168,-90.347804,-90.327804,31.620168,31.640168
MS0050016,BLACKJACK DEVELOPMENT ASSN,"38629, Falkner, Mississippi",38629,Mississippi,Region 4,Community water system,630,,Benton,5,162,13,-88.933199,34.848046,-88.933199,34.848046,-89.079199,-88.787199,34.702046,34.994046
MS0410013,TOWN OF SHANNON,"38868, Shannon, Mississippi",38868,Mississippi,Region 4,Community water system,2043,,Lee,7,173,18,-88.718276,34.124989,-88.718276,34.124989,-88.871276,-88.565276,33.971989,34.277989
MS0140007,GREEN ACRES W/A-NORTH,"38646, Marks, Mississippi",38646,Mississippi,Region 4,Community water system,540,,Coahoma,6,70,15,-90.274172,34.254601,-90.274172,34.254601,-90.451172,-90.097172,34.077601,34.431601
MS0410015,CITY OF TUPELO,"38802, Tupelo, Mississippi",38802,Mississippi,Region 4,Community water system,46560,TUPELO,Lee,49,19,17,-88.709021,34.257631,-88.709021,34.257631,-88.714021,-88.704021,34.252631,34.262631
MS0430030,LINCOLN RURAL W/A-HEUCKS RET,"2524 Heucks Retreat Rd NE, Wesson, Mississippi, 39191",39191,Mississippi,Region 4,Community water system,3405,,Lincoln,8,111,10,-90.337804,31.630168,-90.337804,31.630168,-90.347804,-90.327804,31.620168,31.640168
MS0310001,TALLAHALA W/A-ANTIOCH,"39422, Bay Springs, Mississippi",39422,Mississippi,Region 4,Community water system,3867,,Jasper,13,360,18,-89.288865,31.978165,-89.288865,31.978165,-89.497865,-89.079865,31.769165,32.187165
MS0310019,TALLAHALA W/A-TED CLEAR,"39422, Bay Springs, Mississippi",39422,Mississippi,Region 4,Community water system,1026,,Jasper,7,79,17,-89.288865,31.978165,-89.288865,31.978165,-89.497865,-89.079865,31.769165,32.187165
MS0810016,ENID LAKE ESTATES,"38606, Batesville, Mississippi",38606,Mississippi,Region 4,Community water system,306,,Yalobusha,3,94,17,-89.952938,34.316994,-89.952938,34.316994,-90.207938,-89.697938,34.061994,34.571994
MS0540031,JOHN W KYLE STATE PARK,"4235 State Park Rd, Sardis, Mississippi, 38666",38666,Mississippi,Region 4,Transient non-community system,200,,Panola,3,3,18,-89.80739,34.437365,-89.80739,34.437365,-89.81739,-89.79739,34.427365,34.447365
MS0290009,TOMBIGBEE W/A,"38855, Mantachie, Mississippi",38855,Mississippi,Region 4,Community water system,1632,,Itawamba,5,10,17,-88.495282,34.318772,-88.495282,34.318772,-88.587282,-88.403282,34.226772,34.410772
MS0360014,TAYLOR WATER ASSOCIATION,"38673, Taylor, Mississippi",38673,Mississippi,Region 4,Community water system,1500,,Lafayette,6,76,16,-89.590862,34.301727,-89.590862,34.301727,-89.719862,-89.461862,34.172727,34.430727
MS0240212,ROBINWOOD FOREST UTILITY INC,"39540, Diberville, Mississippi",39540,Mississippi,Region 4,Community water system,1463,,Harrison,5,135,13,-88.895751,30.432341,-88.895751,30.432341,-88.996751,-88.794751,30.331341,30.533341
MS0450021,BEAR CREEK W/A-WEST,"39046, Canton, Mississippi",39046,Mississippi,Region 4,Community water system,18133,,Madison,14,109,17,-90.046527,32.620853,-90.046527,32.620853,-90.363527,-89.729527,32.303853,32.937853
MS0730003,INGOMAR WATER ASSOCIATION,"1409 CR-101, New Albany, Mississippi, 38652",38652,Mississippi,Region 4,Community water system,2580,,Union,7,219,17,-89.038499,34.409208,-89.038499,34.409208,-89.048499,-89.028499,34.399208,34.419208
MS0300163,HELENA UTILITY DISTRICT,"39552, Escatawpa, Mississippi",39552,Mississippi,Region 4,Community water system,400,,Jackson,6,0,0,-88.541443,30.445391,-88.541443,30.445391,-88.546443,-88.536443,30.440391,30.450391
MS0460001,BUNKER HILL WATER ASSOCIATION,"282 Grice Rd, Columbia, Mississippi, 39429",39429,Mississippi,Region 4,Community water system,1850,,Marion,11,145,17,-89.815988,31.407489,-89.815561,31.40773,-89.816988,-89.814988,31.406489,31.408489
MS0580008,TOWN OF SHERMAN,"38869, Sherman, Mississippi",38869,Mississippi,Region 4,Community water system,638,,Pontotoc,5,139,17,-88.838305,34.352036,-88.838305,34.352036,-88.852305,-88.824305,34.338036,34.366036
MS0440080,EAST LOWNDES W/A #2-HUCKLEBERRY,"39705, Columbus, Mississippi",39705,Mississippi,Region 4,Community water system,6432,,Lowndes,10,66,16,-88.430096,33.528358,-88.430096,33.528358,-88.577096,-88.283096,33.381358,33.675358
MS0360007,HARMONTOWN WATER ASSOCIATION,"15 County Road 5019, Como, Mississippi, 38619",38619,Mississippi,Region 4,Community water system,1520,,Lafayette,4,73,13,-89.661635,34.515944,-89.661731,34.51537,-89.662635,-89.660635,34.514944,34.516944
MS0010018,NATCHEZ STATE PARK CAMPGROUND,"230 Wickcliff Rd, Natchez, Mississippi, 39120",39120,Mississippi,Region 4,Transient non-community system,42,,Adams,5,0,9,-91.203141,31.605048,-91.203141,31.605048,-91.213141,-91.193141,31.595048,31.615048
MS0060053,DEESON ROUNDLAKE #2,"673 Laughlin Rd, Cleveland, Mississippi, 38732",38732,Mississippi,Region 4,Community water system,228,,Bolivar,3,55,8,-90.768711,33.718503,-90.768691,33.71753,-90.769711,-90.767711,33.717503,33.719503
MS0400011,TOWN OF WALNUT GROVE,"39189, Walnut Grove, Mississippi",39189,Mississippi,Region 4,Community water system,1911,,Leake,9,223,18,-89.456411,32.594635,-89.456411,32.594635,-89.595411,-89.317411,32.455635,32.733635
MS0410018,PALMETTO W/A,"219 CR-684, Tupelo, Mississippi, 38801",38801,Mississippi,Region 4,Community water system,1900,,Lee,9,250,17,-88.799497,34.182178,-88.800441,34.18264,-88.800497,-88.798497,34.181178,34.183178
MS0610019,PISGAH WATER ASSOCIATION,"39161, Sandhill, Mississippi",39161,Mississippi,Region 4,Community water system,2238,,Rankin,10,160,18,-89.875101,32.486691,-89.875101,32.486691,-89.880101,-89.870101,32.481691,32.491691
MS0590003,BLACKLAND WATER ASSOCIATION,"230 CR-7081, Booneville, Mississippi, 38829",38829,Mississippi,Region 4,Community water system,1045,,Prentiss,6,116,17,-88.668535,34.640884,-88.668535,34.640884,-88.678535,-88.658535,34.630884,34.650884
MS0450007,EAST MADISON WATER ASSN-WEST,"39046, Canton, Mississippi",39046,Mississippi,Region 4,Community water system,7648,,Madison,16,270,16,-90.046527,32.620853,-90.046527,32.620853,-90.363527,-89.729527,32.303853,32.937853
MS0540032,PLUM POINT WATER SYSTEM,"2169 Plum Point Rd, Pope, Mississippi, 38658",38658,Mississippi,Region 4,Community water system,115,,Panola,3,59,13,-89.853112,34.166589,-89.853112,34.166589,-89.863112,-89.843112,34.156589,34.176589
MS0560013,"LEAF RIVER CELLULOSE, LLC","39462, New Augusta, Mississippi",39462,Mississippi,Region 4,Non-Transient non-community system,325,,Perry,5,3,11,-89.058947,31.179487,-89.058947,31.179487,-89.194947,-88.922947,31.043487,31.315487
MS0760005,CITY OF HOLLANDALE,"38748, Hollandale, Mississippi",38748,Mississippi,Region 4,Community water system,2702,HOLLANDALE,Washington,6,84,15,-90.858606,33.177149,-90.858606,33.177149,-91.201606,-90.515606,32.834149,33.520149
MS0350019,KIPLING W/A #3-OLD SCOOBA RD,"39328, De Kalb, Mississippi",39328,Mississippi,Region 4,Community water system,99,,Kemper,3,2,17,-88.649309,32.769703,-88.649309,32.769703,-88.915309,-88.383309,32.503703,33.035703
MS0570048,ST MARY OF THE PINES,"3167 Old Highway 51 S, Osyka, Mississippi, 39657",39657,Mississippi,Region 4,Community water system,60,,Pike,5,72,18,-90.457292,31.04988,-90.460551,31.05323,-90.458292,-90.456292,31.04888,31.05088
MS0170049,LEWISBURG -INGRAMS MILL NORTH,"9183 Stewart Rd, Olive Branch, Mississippi, 38654",38654,Mississippi,Region 4,Community water system,221,,DeSoto,3,55,4,-89.826577,34.907849,-89.826577,34.907849,-89.836577,-89.816577,34.897849,34.917849
MS0390014,ATWOOD WATER PARK,"202 Jefferson St, Monticello, Mississippi, 39654",39654,Mississippi,Region 4,Transient non-community system,100,,Lawrence,3,0,16,-90.105303,31.551584,-90.105721,31.55161,-90.106303,-90.104303,31.550584,31.552584
MS0060015,TOWN OF RENOVA,"1339 Old Highway 61, Cleveland, Mississippi, 38732",38732,Mississippi,Region 4,Community water system,1503,,Bolivar,5,140,15,-90.722753,33.774903,-90.722753,33.774903,-90.732753,-90.712753,33.764903,33.784903
MS0010019,NATCHEZ STATE PARK-B,"230 Wickcliff Rd, Natchez, Mississippi, 39120",39120,Mississippi,Region 4,Transient non-community system,58,,Adams,3,0,0,-91.203141,31.605048,-91.203141,31.605048,-91.213141,-91.193141,31.595048,31.615048
MS0060048,PORT OF ROSEDALE,"38769, Rosedale, Mississippi",38769,Mississippi,Region 4,Non-Transient non-community system,325,,Bolivar,3,0,10,-91.022785,33.858079,-91.022785,33.858079,-91.247785,-90.797785,33.633079,34.083079
MS0810011,CITY OF WATER VALLEY,"38965, Water Valley, Mississippi",38965,Mississippi,Region 4,Community water system,3392,WATER VALLEY,Yalobusha,14,219,17,-89.629841,34.151661,-89.629841,34.151661,-89.871841,-89.387841,33.909661,34.393661
MS0520006,PINEY WOODS WATER ASSOCIATION,"39341, Macon, Mississippi",39341,Mississippi,Region 4,Community water system,427,,Noxubee,4,4,16,-88.560176,33.110497,-88.560176,33.110497,-88.904176,-88.216176,32.766497,33.454497
MS0260040,HOLMES INTERSTATE UTILITY DIST,"39095, Lexington, Mississippi",39095,Mississippi,Region 4,Community water system,386,,Holmes,4,68,8,-90.052947,33.115191,-90.052947,33.115191,-90.323947,-89.781947,32.844191,33.386191
MS0750011,YOKENA-JEFF DAVIS WATER DEPT,"4865 Jeff Davis Rd, Vicksburg, Mississippi, 39180",39180,Mississippi,Region 4,Community water system,2800,,Warren,4,5,15,-90.879011,32.193447,-90.879011,32.193447,-90.889011,-90.869011,32.183447,32.203447
MS0750015,INTERNATIONAL PAPER CO,"3737 MS-3, Redwood, Mississippi, 39156",39156,Mississippi,Region 4,Non-Transient non-community system,292,,Warren,3,5,21,-90.771116,32.526235,-90.771116,32.526235,-90.781116,-90.761116,32.516235,32.536235
MS0670007,TOWN OF INVERNESS,"38753, Inverness, Mississippi",38753,Mississippi,Region 4,Community water system,1019,,Sunflower,6,140,15,-90.592915,33.353526,-90.592915,33.353526,-90.734915,-90.450915,33.211526,33.495526
MS0440081,EAST LOWNDES W/A A EAST-OLD YORKVILLE,"39705, Columbus, Mississippi",39705,Mississippi,Region 4,Community water system,3818,,Lowndes,5,63,16,-88.430096,33.528358,-88.430096,33.528358,-88.577096,-88.283096,33.381358,33.675358
MS0440003,COLUMBUS LIGHT & WATER,"39703, Columbus, Mississippi",39703,Mississippi,Region 4,Community water system,23640,COLUMBUS,Lowndes,13,47,17,-88.427235,33.495071,-88.427235,33.495071,-88.432235,-88.422235,33.490071,33.500071
MS0140013,GREEN ACRES W/A-SOUTH,"38646, Marks, Mississippi",38646,Mississippi,Region 4,Community water system,276,,Coahoma,4,27,14,-90.274172,34.254601,-90.274172,34.254601,-90.451172,-90.097172,34.077601,34.431601
MS0090019,CAMP TIK-A-WITHA,"38877, Van Vleet, Mississippi",38877,Mississippi,Region 4,Transient non-community system,150,,Chickasaw,3,3,21,-88.900824,33.984337,-88.900824,33.984337,-88.905824,-88.895824,33.979337,33.989337
MS0200005,MULTI-MART WATER ASSOCIATION,"14138 Highway 613, Lucedale, Mississippi, 39452",39452,Mississippi,Region 4,Community water system,1503,,George,2,3,16,-88.563949,30.903521,-88.562851,30.90352,-88.564949,-88.562949,30.902521,30.904521
MS0800006,TOWN OF NOXAPATER,"39346, Noxapater, Mississippi",39346,Mississippi,Region 4,Community water system,1400,,Winston,8,72,19,-89.066072,32.99263,-89.066072,32.99263,-89.231072,-88.901072,32.82763,33.15763
MS0020003,FARMINGTON WATER ASSOCIATION,"4100 County Road 200, Farmington, Mississippi, 38834",38834,Mississippi,Region 4,Community water system,7572,,Alcorn,6,125,17,-88.4626,34.930565,-88.4626,34.930565,-88.4726,-88.4526,34.920565,34.940565
MS0040009,SUGAR CREEK WATER ASSOCIATION,"36727 Highway 14, Ethel, Mississippi, 39067",39067,Mississippi,Region 4,Community water system,400,,Attala,2,12,17,-89.380968,33.040677,-89.380968,33.040677,-89.390968,-89.370968,33.030677,33.050677
MS0100017,UNION W/A,"170 W Wilson Rd, Eupora, Mississippi, 39744",39744,Mississippi,Region 4,Community water system,330,,Choctaw,3,65,11,-89.366208,33.446297,-89.366111,33.44682,-89.367208,-89.365208,33.445297,33.447297
MS0600012,SOUTH LAKE WATER ASSOCIATION,"38614, Clarksdale, Mississippi",38614,Mississippi,Region 4,Community water system,667,,Quitman,4,71,14,-90.559557,34.193813,-90.559557,34.193813,-90.937557,-90.181557,33.815813,34.571813
MS0450002,BEAR CREEK W/A -EAST,"39046, Canton, Mississippi",39046,Mississippi,Region 4,Community water system,12717,,Madison,10,91,17,-90.046527,32.620853,-90.046527,32.620853,-90.363527,-89.729527,32.303853,32.937853
MS0230065,HANCOCK COUNTY WATER & SEWER,"7040 Stennis Airport Rd, Kiln, Mississippi, 39556",39556,Mississippi,Region 4,Community water system,2797,,Hancock,5,84,9,-89.439745,30.373257,-89.439745,30.373257,-89.449745,-89.429745,30.363257,30.383257
MS0540072,NORTH PANOLA WATER DISTRICT,"7419 Parks Place Rd, Como, Mississippi, 38619",38619,Mississippi,Region 4,Community water system,1194,,Panola,6,150,7,-90.057025,34.501911,-90.059321,34.50191,-90.058025,-90.056025,34.500911,34.502911
MS0360002,ANCHOR WATER ASSOCIATION,"MS-9W, Oxford, Mississippi, 38655",38655,Mississippi,Region 4,Community water system,2010,,Lafayette,7,191,16,-89.522435,34.263787,-89.522435,34.263787,-89.524435,-89.520435,34.261787,34.265787
MS0440100,EAST LOWNDES #4-HERMAN-VAUGHN,"39705, Columbus, Mississippi",39705,Mississippi,Region 4,Community water system,4870,,Lowndes,4,62,9,-88.430096,33.528358,-88.430096,33.528358,-88.577096,-88.283096,33.381358,33.675358
MS0380006,"NORTH LAUDERDALE W/A, INC","9709 Mount Carmel Rd, Bailey, Mississippi, 39320",39320,Mississippi,Region 4,Community water system,11853,,Lauderdale,16,94,18,-88.707167,32.519645,-88.707167,32.519645,-88.717167,-88.697167,32.509645,32.529645
MS0440005,EAST LOWNDES W/A #1-LEE STOKES,"39705, Columbus, Mississippi",39705,Mississippi,Region 4,Community water system,2208,,Lowndes,5,69,17,-88.430096,33.528358,-88.430096,33.528358,-88.577096,-88.283096,33.381358,33.675358
MS0440008,EAST MS COMM COLLEGE-GOLDEN TR,"39753, Mayhew, Mississippi",39753,Mississippi,Region 4,Non-Transient non-community system,1200,,Lowndes,4,5,19,-88.640432,33.483381,-88.640432,33.483381,-88.646432,-88.634432,33.477381,33.489381
MS0570051,EAST PIKE WATER ASSN.,"39648, Mccomb, Mississippi",39648,Mississippi,Region 4,Community water system,2070,,Pike,5,156,9,-90.457088,31.256397,-90.457088,31.256397,-90.688088,-90.226088,31.025397,31.487397
MS0230067,PEARLINGTON WATER AND SEWER DISTRICT,"39572, Pearlington, Mississippi",39572,Mississippi,Region 4,Community water system,1420,,Hancock,2,0,0,-89.606707,30.241486,-89.606707,30.241486,-89.652707,-89.560707,30.195486,30.287486
MS0700005,TOWN OF FALKNER,"38629, Falkner, Mississippi",38629,Mississippi,Region 4,Community water system,2925,,Tippah,7,241,20,-88.933199,34.848046,-88.933199,34.848046,-89.079199,-88.787199,34.702046,34.994046
MS0200004,CITY OF LUCEDALE,"5126 Main St, Lucedale, Mississippi, 39452",39452,Mississippi,Region 4,Community water system,2923,LUCEDALE,George,6,147,17,-88.58975,30.924844,-88.58975,30.924844,-88.59975,-88.57975,30.914844,30.934844
MS0540004,TOWN OF COMO,"38619, Como, Mississippi",38619,Mississippi,Region 4,Community water system,1295,,Panola,5,154,12,-89.940975,34.514341,-89.940975,34.514341,-90.326975,-89.554975,34.128341,34.900341
MS0020007,KOSSUTH W/A #3-PINE MOUNTAIN,"38834, Corinth, Mississippi",38834,Mississippi,Region 4,Community water system,1686,,Alcorn,7,144,18,-88.514212,34.933875,-88.514212,34.933875,-88.766212,-88.262212,34.681875,35.185875
MS0020008,KOSSUTH W/A #2-BETHLEHEM,"38834, Corinth, Mississippi",38834,Mississippi,Region 4,Community water system,1218,,Alcorn,5,71,18,-88.514212,34.933875,-88.514212,34.933875,-88.766212,-88.262212,34.681875,35.185875
MS0390004,TOWN OF NEW HEBRON,"39140, New Hebron, Mississippi",39140,Mississippi,Region 4,Community water system,447,,Lawrence,5,56,17,-89.983011,31.731161,-89.983011,31.731161,-90.142011,-89.824011,31.572161,31.890161
MS0820011,RENSHAW WATER ASSOCIATION,"855 Renshaw Rd, Yazoo City, Mississippi, 39194",39194,Mississippi,Region 4,Community water system,384,,Yazoo,5,75,16,-90.372546,32.927628,-90.373791,32.92823,-90.373546,-90.371546,32.926628,32.928628
MS0450014,TOUGALOO COLLEGE,"39174, Tougaloo, Mississippi",39174,Mississippi,Region 4,Community water system,534,,Madison,5,152,18,-90.153821,32.401282,-90.153821,32.401282,-90.158821,-90.148821,32.396282,32.406282
MS0670005,FMH WATER ASSOCIATION #1,"24 Carlis Rd, Shaw, Mississippi, 38773",38773,Mississippi,Region 4,Community water system,3222,,Sunflower,10,301,15,-90.740141,33.543433,-90.740131,33.54322,-90.741141,-90.739141,33.542433,33.544433
MS0420042,HEARTLAND CATFISH,"55001 Highway 82 W, Itta Bena, Mississippi, 38941",38941,Mississippi,Region 4,Non-Transient non-community system,350,,Leflore,5,0,9,-90.299428,33.527998,-90.298161,33.53017,-90.300428,-90.298428,33.526998,33.528998
MS0620004,HIGH HILL WATER ASSOCIATION,"7572 Highway 501, Forest, Mississippi, 39074",39074,Mississippi,Region 4,Community water system,600,,Scott,6,161,18,-89.423681,32.26986,-89.421771,32.2703,-89.424681,-89.422681,32.26886,32.27086
MS0700001,TOWN OF BLUE MOUNTAIN,"38610, Blue Mountain, Mississippi",38610,Mississippi,Region 4,Community water system,1924,,Tippah,8,136,16,-89.031281,34.669926,-89.031281,34.669926,-89.154281,-88.908281,34.546926,34.792926
MS0040011,ZAMA WATER ASSOCIATION,"39090, Kosciusko, Mississippi",39090,Mississippi,Region 4,Community water system,360,,Attala,6,65,19,-89.593439,33.06108,-89.593439,33.06108,-89.878439,-89.308439,32.77608,33.34608
MS0240194,RIVERBEND UTILITIES INC,"110 S Wilson Blvd, Gulfport, Mississippi, 39503",39503,Mississippi,Region 4,Community water system,1625,,Harrison,5,78,13,-89.090382,30.447701,-89.089901,30.44732,-89.091382,-89.089382,30.446701,30.448701
MS0640019,HOWARD INDUSTRIES,"39114, Mendenhall, Mississippi",39114,Mississippi,Region 4,Non-Transient non-community system,100,,Simpson,5,28,21,-89.870371,31.95969,-89.870371,31.95969,-90.054371,-89.686371,31.77569,32.14369
MS0680037,"BLUE CANE, COWART & TIPPO W/A.","Sharkey Rd, Charleston, Mississippi, 38921",38921,Mississippi,Region 4,Community water system,2260,,Tallahatchie,5,200,11,-90.246718,33.901282,-90.246718,33.901282,-90.294718,-90.198718,33.853282,33.949282
MS0170043,WALLS WATER ASSN- LAKE FOREST,"6200 Goodman Rd, Walls, Mississippi, 38680",38680,Mississippi,Region 4,Community water system,7340,,DeSoto,5,67,16,-90.099594,34.962521,-90.099594,34.962521,-90.109594,-90.089594,34.952521,34.972521
MS0120006,VILLAGE OF PACHUTA,"39347, Pachuta, Mississippi",39347,Mississippi,Region 4,Community water system,265,,Clarke,4,57,16,-88.960799,32.034324,-88.960799,32.034324,-89.079799,-88.841799,31.915324,32.153324
MS0590009,TOWN OF JUMPERTOWN,"679 Highway 4 W, Jumpertown, Mississippi, 38829",38829,Mississippi,Region 4,Community water system,1515,,Prentiss,5,135,17,-88.66017,34.709968,-88.66017,34.709968,-88.67017,-88.65017,34.699968,34.719968
MS0660002,"MCHENRY UTILITY ASSN, INC","35 Watkins Ave, Mc Henry, Mississippi, 39561",39561,Mississippi,Region 4,Community water system,1350,,Stone,6,133,16,-89.140358,30.705242,-89.140358,30.705242,-89.150358,-89.130358,30.695242,30.715242
MS0240250,DOGWOOD HILLS SUBDIVISION,"12506 Lorraine Rd, Biloxi, Mississippi, 39532",39532,Mississippi,Region 4,Community water system,100,,Harrison,3,76,8,-89.002803,30.464214,-89.002421,30.46339,-89.003803,-89.001803,30.463214,30.465214
MS0390001,JAYESS-TOPEKA-TILTON W/A,"23 Bismark Rd, Jayess, Mississippi, 39641",39641,Mississippi,Region 4,Community water system,3915,,Lawrence,6,70,19,-90.186139,31.414023,-90.186139,31.414023,-90.196139,-90.176139,31.404023,31.424023
MS0690051,DELTA RAIN INC-THE HIGHLANDS,"70817, Baton Rouge, Louisiana",70817,Mississippi,Region 4,Community water system,87,,Tate,2,12,0,-91.013032,30.405401,-91.013032,30.405401,-91.134032,-90.892032,30.284401,30.526401
MS0310002,TOWN OF BAY SPRINGS,"39422, Bay Springs, Mississippi",39422,Mississippi,Region 4,Community water system,2892,,Jasper,13,337,17,-89.288865,31.978165,-89.288865,31.978165,-89.497865,-89.079865,31.769165,32.187165
MS0780012,SAVANNAH WATER ASSOCIATION #1,"2451 Buster Vaughn Rd, Eupora, Mississippi, 39744",39744,Mississippi,Region 4,Community water system,1473,,Webster,5,141,16,-89.193802,33.663939,-89.193801,33.66405,-89.194802,-89.192802,33.662939,33.664939
MS0340014,PLEASANT RIDGE W/A,"24 Holly Rd, Laurel, Mississippi, 39443",39443,Mississippi,Region 4,Community water system,6186,,Jones,11,134,18,-89.247767,31.678581,-89.247767,31.678581,-89.257767,-89.237767,31.668581,31.688581
MS0340021,CITY OF LAUREL,"39440, Laurel, Mississippi",39440,Mississippi,Region 4,Community water system,23258,LAUREL,Jones,26,177,16,-89.127744,31.695756,-89.127744,31.695756,-89.189744,-89.065744,31.633756,31.757756
MS0260012,CITY OF LEXINGTON,"112 Spring St, Lexington, Mississippi, 39095",39095,Mississippi,Region 4,Community water system,1731,LEXINGTON,Holmes,8,146,17,-90.053607,33.112813,-90.053607,33.112813,-90.063607,-90.043607,33.102813,33.122813
MS0800001,BOND WATER ASSOCIATION #1,"2225 McNeil Rd, Louisville, Mississippi, 39339",39339,Mississippi,Region 4,Community water system,1320,,Winston,6,70,18,-88.945731,33.130857,-88.945881,33.13113,-88.946731,-88.944731,33.129857,33.131857
MS0650008,CITY OF RALEIGH,"39153, Raleigh, Mississippi",39153,Mississippi,Region 4,Community water system,1622,RALEIGH,Smith,8,222,19,-89.528406,32.036441,-89.528406,32.036441,-89.734406,-89.322406,31.830441,32.242441
MS0690006,STRAYHORN W/A-CROCKETT,"7304 Highway 4 W, Senatobia, Mississippi, 38668",38668,Mississippi,Region 4,Community water system,2787,,Tate,8,102,15,-90.081241,34.619433,-90.081231,34.61842,-90.082241,-90.080241,34.618433,34.620433
MS0360051,DENMARK WATER ASSOCIATION,"283 CR-425, Oxford, Mississippi, 38655",38655,Mississippi,Region 4,Community water system,504,,Lafayette,5,91,16,-89.315019,34.285708,-89.305371,34.28687,-89.316019,-89.314019,34.284708,34.286708
MS0780006,MANTEE WATER ASSOCIATION,"747 MS-46, Mantee, Mississippi, 39751",39751,Mississippi,Region 4,Community water system,382,,Webster,3,73,15,-89.03915,33.733838,-89.039111,33.73427,-89.04015,-89.03815,33.732838,33.734838
MS0670012,TOWN OF SUNFLOWER,"38778, Sunflower, Mississippi",38778,Mississippi,Region 4,Community water system,926,,Sunflower,7,189,15,-90.538157,33.542001,-90.538157,33.542001,-90.634157,-90.442157,33.446001,33.638001
MS0440002,TOWN OF CALEDONIA,"39740, Caledonia, Mississippi",39740,Mississippi,Region 4,Community water system,5281,,Lowndes,7,139,16,-88.327736,33.684986,-88.327736,33.684986,-88.529736,-88.125736,33.482986,33.886986
MS0330003,DOUBLE PONDS WATER ASSOCIATION,"39474, Prentiss, Mississippi",39474,Mississippi,Region 4,Community water system,2500,,Jefferson Davis,9,146,18,-89.869795,31.598562,-89.869795,31.598562,-90.077795,-89.661795,31.390562,31.806562
MS0360068,DELTA RAIN - WELLSGATE,"70817, Baton Rouge, Louisiana",70817,Mississippi,Region 4,Community water system,1042,,Lafayette,3,116,8,-91.013032,30.405401,-91.013032,30.405401,-91.134032,-90.892032,30.284401,30.526401
MS0070006,TOWN OF DERMA,"38839, Derma, Mississippi",38839,Mississippi,Region 4,Community water system,1025,,Calhoun,7,181,17,-89.283302,33.854241,-89.283302,33.854241,-89.288302,-89.278302,33.849241,33.859241
MS0160002,CITY OF COLLINS,"39428, Collins, Mississippi",39428,Mississippi,Region 4,Community water system,2586,COLLINS,Covington,9,227,17,-89.555191,31.64006,-89.555191,31.64006,-89.756191,-89.354191,31.43906,31.84106
MS0170019,WALLS WATER ASSOCIATION,"6200 Goodman Rd, Walls, Mississippi, 38680",38680,Mississippi,Region 4,Community water system,2202,,DeSoto,5,145,15,-90.099594,34.962521,-90.099594,34.962521,-90.109594,-90.089594,34.952521,34.972521
MS0610028,TAYLORSVILLE W/A #1,"39043, Brandon, Mississippi",39043,Mississippi,Region 4,Community water system,594,,Rankin,5,68,20,-90.006771,32.282419,-90.006771,32.282419,-90.011771,-90.001771,32.277419,32.287419
MS0330007,NORTHEAST JEFF DAVIS W/A,"39474, Prentiss, Mississippi",39474,Mississippi,Region 4,Community water system,2408,,Jefferson Davis,5,76,19,-89.869795,31.598562,-89.869795,31.598562,-90.077795,-89.661795,31.390562,31.806562
MS0340003,CITY OF ELLISVILLE,"110 N Court St, Ellisville, Mississippi, 39437",39437,Mississippi,Region 4,Community water system,4469,ELLISVILLE,Jones,9,298,19,-89.195347,31.604978,-89.195347,31.604978,-89.205347,-89.185347,31.594978,31.614978
MS0370008,PROGRESS COMM WATER ASSN,"200 Mitchell Ave, Purvis, Mississippi, 39475",39475,Mississippi,Region 4,Community water system,5686,,Lamar,9,188,18,-89.410525,31.142097,-89.410525,31.142097,-89.420525,-89.400525,31.132097,31.152097
MS0490007,POPLAR CREEK WATER ASSOCIATION,"36727 Highway 14, Ethel, Mississippi, 39067",39067,Mississippi,Region 4,Community water system,651,,Montgomery,5,145,14,-89.380968,33.040677,-89.380968,33.040677,-89.390968,-89.370968,33.030677,33.050677
MS0200017,BENNDALE SCHOOL,"5152 Main St, Lucedale, Mississippi, 39452",39452,Mississippi,Region 4,Non-Transient non-community system,270,,George,3,9,10,-88.587774,30.924872,-88.587774,30.924872,-88.597774,-88.577774,30.914872,30.934872
MS0560015,LITTLE CREEK WATER ASSN,"39456, Mc Lain, Mississippi",39456,Mississippi,Region 4,Community water system,480,,Perry,5,148,13,-88.814478,31.045354,-88.814478,31.045354,-88.961478,-88.667478,30.898354,31.192354
MS0780002,CADARETTA WATER ASSOCIATION,"3814 Cadaretta Rd, Gore Springs, Mississippi, 38929",38929,Mississippi,Region 4,Community water system,445,,Webster,7,217,15,-89.452284,33.706307,-89.452201,33.70648,-89.453284,-89.451284,33.705307,33.707307
MS0800007,PUGH'S MILL WATER ASSOCIATION,"368 Bluff Lake Rd, Louisville, Mississippi, 39339",39339,Mississippi,Region 4,Community water system,800,,Winston,4,76,18,-88.97492,33.21882,-88.974751,33.21871,-88.97592,-88.97392,33.21782,33.21982
MS0680013,WEST TALLAHATCHIE UTL ASSN,"38966, Webb, Mississippi",38966,Mississippi,Region 4,Community water system,680,,Tallahatchie,4,99,17,-90.345084,33.946836,-90.345084,33.946836,-90.354084,-90.336084,33.937836,33.955836
MS0790001,BLEAKHOUSE WATER ASSOCIATION,"O St, Woodville, Mississippi, 39669",39669,Mississippi,Region 4,Community water system,432,,Wilkinson,2,1,16,-91.304082,31.103207,-91.304082,31.103207,-91.306082,-91.302082,31.101207,31.105207
MS0390011,GEORGIA-PACIFIC,"604 Na Sandifer Hwy, Monticello, Mississippi, 39654",39654,Mississippi,Region 4,Non-Transient non-community system,450,,Lawrence,9,1,16,-90.079412,31.621434,-90.079412,31.621434,-90.089412,-90.069412,31.611434,31.631434
MS0030021,WILK-AMITE W/A #2-NORTHWEST,"4989 Doctor Anderson Rd, Centreville, Mississippi, 39631",39631,Mississippi,Region 4,Community water system,100,,Amite,2,3,18,-91.080138,31.170013,-91.082341,31.17222,-91.081138,-91.079138,31.169013,31.171013
MS0490001,51-55 WATER ASSOCIATION,"968 Lodi Rd, Winona, Mississippi, 38967",38967,Mississippi,Region 4,Community water system,486,,Montgomery,3,19,14,-89.642313,33.517879,-89.642321,33.51827,-89.643313,-89.641313,33.516879,33.518879
MS0610012,LANGFORD WATER ASSOCIATION,"1805 Highway 471, Brandon, Mississippi, 39047",39047,Mississippi,Region 4,Community water system,4620,,Rankin,11,251,20,-89.972279,32.348496,-89.972279,32.348496,-89.982279,-89.962279,32.338496,32.358496
MS0350004,TOWN OF SCOOBA,"39358, Scooba, Mississippi",39358,Mississippi,Region 4,Community water system,1260,,Kemper,7,217,17,-88.480371,32.83093,-88.480371,32.83093,-88.664371,-88.296371,32.64693,33.01493
MS0250014,MT OLIVE WATER ASSOCIATION,"1020 Ruben Cir, Bolton, Mississippi, 39041",39041,Mississippi,Region 4,Community water system,999,,Hinds,5,198,14,-90.415944,32.38042,-90.415944,32.38042,-90.425944,-90.405944,32.37042,32.39042
MS0820014,CITY OF YAZOO CITY,"39194, Yazoo City, Mississippi",39194,Mississippi,Region 4,Community water system,11520,YAZOO CITY,Yazoo,17,103,17,-90.409104,32.851768,-90.409104,32.851768,-90.742104,-90.076104,32.518768,33.184768
MS0340016,TOWN OF SANDERSVILLE,"39477, Sandersville, Mississippi",39477,Mississippi,Region 4,Community water system,750,,Jones,8,140,18,-89.033129,31.78671,-89.033129,31.78671,-89.038129,-89.028129,31.78171,31.79171
MS0660023,PERK BEACH RV PARK,"39574, Saucier, Mississippi",39574,Mississippi,Region 4,Transient non-community system,30,,Stone,3,1,8,-89.133954,30.630576,-89.133954,30.630576,-89.383954,-88.883954,30.380576,30.880576
MS0270025,FRESHWATER FARMS,"454 Parsonage Rd, Belzoni, Mississippi, 39038",39038,Mississippi,Region 4,Non-Transient non-community system,135,,Humphreys,3,0,9,-90.469944,33.16137,-90.469981,33.16137,-90.470944,-90.468944,33.16037,33.16237
MS0030007,WILK-AMITE W/A #1-SOUTH,"4989 Doctor Anderson Rd, Centreville, Mississippi, 39631",39631,Mississippi,Region 4,Community water system,1800,,Amite,4,71,20,-91.080138,31.170013,-91.082341,31.17222,-91.081138,-91.079138,31.169013,31.171013
MS0600003,TOWN OF CROWDER,"38622, Crowder, Mississippi",38622,Mississippi,Region 4,Community water system,700,,Quitman,7,107,13,-90.134679,34.173466,-90.134679,34.173466,-90.164679,-90.104679,34.143466,34.203466
MS0790036,BLEAKHOUSE WATER ASSOCIATION #2,"O St, Woodville, Mississippi, 39669",39669,Mississippi,Region 4,Community water system,162,,Wilkinson,2,0,3,-91.304082,31.103207,-91.304082,31.103207,-91.306082,-91.302082,31.101207,31.105207
MS0480017,GAINES-TRACE WATER ASSOCIATION,"60019 Clark Cir, Smithville, Mississippi, 38870",38870,Mississippi,Region 4,Community water system,1511,,Monroe,4,71,15,-88.415814,34.025209,-88.415814,34.025209,-88.425814,-88.405814,34.015209,34.035209
MS0760004,CITY OF GREENVILLE,"38701, Greenville, Mississippi",38701,Mississippi,Region 4,Community water system,34400,GREENVILLE,Washington,27,364,15,-91.053676,33.414175,-91.053676,33.414175,-91.254676,-90.852676,33.213175,33.615175
MS0760014,CITY OF GREENVILLE (AIRBASE),"38701, Greenville, Mississippi",38701,Mississippi,Region 4,Community water system,100,GREENVILLE,Washington,5,147,15,-91.053676,33.414175,-91.053676,33.414175,-91.254676,-90.852676,33.213175,33.615175
MS0540019,CORPS OF ENGINEERS-SARDIS DAM,"38666, Sardis, Mississippi",38666,Mississippi,Region 4,Transient non-community system,138,,Panola,3,1,16,-89.917039,34.436016,-89.917039,34.436016,-90.164039,-89.670039,34.189016,34.683016
MS0250021,REEDTOWN WATER ASSN,"39175, Utica, Mississippi",39175,Mississippi,Region 4,Community water system,3812,,Hinds,11,268,16,-90.621466,32.106569,-90.621466,32.106569,-90.808466,-90.434466,31.919569,32.293569
MS0250026,TOWN OF UTICA,"39175, Utica, Mississippi",39175,Mississippi,Region 4,Community water system,1300,,Hinds,6,84,15,-90.621466,32.106569,-90.621466,32.106569,-90.808466,-90.434466,31.919569,32.293569
MS0080009,TOWN OF VAIDEN,"201 Mulberry St, Vaiden, Mississippi, 39176",39176,Mississippi,Region 4,Community water system,2850,,Carroll,7,150,17,-89.741977,33.331764,-89.741977,33.331764,-89.751977,-89.731977,33.321764,33.341764
MS0240188,MISS POWER CO-JACK WATSON ELEC PLT,"39502, Gulfport, Mississippi",39502,Mississippi,Region 4,Non-Transient non-community system,140,,Harrison,7,4,15,-89.093151,30.366974,-89.093151,30.366974,-89.098151,-89.088151,30.361974,30.371974
MS0780010,"TOMNOLEN WATER ASSN, INC","254 Old Highway 82, Eupora, Mississippi, 39744",39744,Mississippi,Region 4,Community water system,996,,Webster,5,102,15,-89.357151,33.489951,-89.357041,33.48993,-89.358151,-89.356151,33.488951,33.490951
MS0370010,TOWN OF SUMRALL,"Ohio Ave, Sumrall, Mississippi, 39482",39482,Mississippi,Region 4,Community water system,1421,,Lamar,4,80,18,-89.546388,31.419507,-89.546388,31.419507,-89.548388,-89.544388,31.417507,31.421507
MS0500009,CENTRAL W/A-SOUTHWEST,"39350, Philadelphia, Mississippi",39350,Mississippi,Region 4,Community water system,5065,,Neshoba,12,73,20,-89.108987,32.770621,-89.108987,32.770621,-89.345987,-88.871987,32.533621,33.007621
MS0610029,THOMASVILLE W/A #1,"2483 Star Rd, Florence, Mississippi, 39073",39073,Mississippi,Region 4,Community water system,832,,Rankin,5,68,16,-90.018922,32.158322,-90.018922,32.158322,-90.028922,-90.008922,32.148322,32.168322
MS0250005,TOWN OF EDWARDS,"39066, Edwards, Mississippi",39066,Mississippi,Region 4,Community water system,1980,,Hinds,12,227,17,-90.601953,32.331595,-90.601953,32.331595,-90.766953,-90.436953,32.166595,32.496595
MS0260004,CENTERVILLE COMMUNITY W/A,"5441 Old Wilson Rd, West, Mississippi, 39192",39192,Mississippi,Region 4,Community water system,976,,Holmes,5,137,16,-89.825546,33.177748,-89.825751,33.1787,-89.826546,-89.824546,33.176748,33.178748
MS0260007,EBENEZER RURAL WATER ASSN,"619 Highway 14, Lexington, Mississippi, 39095",39095,Mississippi,Region 4,Community water system,765,,Holmes,6,139,16,-90.082124,32.970763,-90.082124,32.970763,-90.092124,-90.072124,32.960763,32.980763
MS0540067,CONCORD-MACEDONIA W/A,"839 Tom Cooper Rd, Batesville, Mississippi, 38606",38606,Mississippi,Region 4,Community water system,380,,Panola,5,138,10,-90.021784,34.346797,-90.022411,34.34688,-90.022784,-90.020784,34.345797,34.347797
MS0310008,MONTROSE WATER ASSOCIATION,"39338, Louin, Mississippi",39338,Mississippi,Region 4,Community water system,496,,Jasper,9,99,18,-89.220302,32.063874,-89.220302,32.063874,-89.416302,-89.024302,31.867874,32.259874
MS0460008,HUB WATER ASSOCIATION,"1844 Highway 13 S, Columbia, Mississippi, 39429",39429,Mississippi,Region 4,Community water system,3299,,Marion,9,297,18,-89.784598,31.178419,-89.784598,31.178419,-89.794598,-89.774598,31.168419,31.188419
MS0300005,CITY OF OCEAN SPRINGS,"39564, Ocean Springs, Mississippi",39564,Mississippi,Region 4,Community water system,18200,OCEAN SPRINGS,Jackson,24,372,18,-88.759191,30.36903,-88.759191,30.36903,-88.938191,-88.580191,30.19003,30.54803
MS0540042,US ARMY CORPS ENG ELMERS HILL,"38666, Sardis, Mississippi",38666,Mississippi,Region 4,Transient non-community system,137,,Panola,4,3,16,-89.917039,34.436016,-89.917039,34.436016,-90.164039,-89.670039,34.189016,34.683016
MS0480019,CASON WATER ASSOCIATION,"30007 Cason Rd, Nettleton, Mississippi, 38858",38858,Mississippi,Region 4,Community water system,4463,,Monroe,6,146,16,-88.512021,34.067616,-88.512021,34.067616,-88.522021,-88.502021,34.057616,34.077616
MS0360061,CLEAR CREEK LANDING PART II,"38666, Sardis, Mississippi",38666,Mississippi,Region 4,Transient non-community system,200,,Lafayette,3,0,19,-89.917039,34.436016,-89.917039,34.436016,-90.164039,-89.670039,34.189016,34.683016
MS0500005,CENTRAL W/A-HOUSE,"39350, Philadelphia, Mississippi",39350,Mississippi,Region 4,Community water system,3668,,Neshoba,6,71,19,-89.108987,32.770621,-89.108987,32.770621,-89.345987,-88.871987,32.533621,33.007621
MS0700008,CITY OF RIPLEY,"500 S Main St, Ripley, Mississippi, 38663",38663,Mississippi,Region 4,Community water system,9075,RIPLEY,Tippah,15,450,17,-88.949121,34.727521,-88.949121,34.727521,-88.959121,-88.939121,34.717521,34.737521
MS0240214,DOLANS MOBILE HOME PARK,"39540, Diberville, Mississippi",39540,Mississippi,Region 4,Community water system,220,,Harrison,5,150,12,-88.895751,30.432341,-88.895751,30.432341,-88.996751,-88.794751,30.331341,30.533341
MS0500004,CENTRAL W/A-EAST SIDE,"39350, Philadelphia, Mississippi",39350,Mississippi,Region 4,Community water system,6165,,Neshoba,14,71,20,-89.108987,32.770621,-89.108987,32.770621,-89.345987,-88.871987,32.533621,33.007621
MS0500001,CENTRAL W/A-ARLINGTON,"39350, Philadelphia, Mississippi",39350,Mississippi,Region 4,Community water system,1594,,Neshoba,8,72,19,-89.108987,32.770621,-89.108987,32.770621,-89.345987,-88.871987,32.533621,33.007621
MS0790035,OLD RIVER WATER ASSN- FORDS CREEK,"O St, Woodville, Mississippi, 39669",39669,Mississippi,Region 4,Community water system,81,,Wilkinson,2,0,3,-91.304082,31.103207,-91.304082,31.103207,-91.306082,-91.302082,31.101207,31.105207
MS0210006,LEAF WATER ASSOCIATION-SOUTH,"1074 Pine Loop, Mc Lain, Mississippi, 39456",39456,Mississippi,Region 4,Community water system,575,,Greene,7,151,17,-88.798915,31.025314,-88.798915,31.025314,-88.808915,-88.788915,31.015314,31.035314
MS0220003,CITY OF GRENADA,"38902, Grenada, Mississippi",38902,Mississippi,Region 4,Community water system,12672,GRENADA,Grenada,22,80,15,-89.810002,33.783991,-89.810002,33.783991,-89.815002,-89.805002,33.778991,33.788991
MS0220005,GRENADA CO W/S-GIRL SCOUT,"38902, Grenada, Mississippi",38902,Mississippi,Region 4,Community water system,2357,,Grenada,7,150,17,-89.810002,33.783991,-89.810002,33.783991,-89.815002,-89.805002,33.778991,33.788991
MS0220007,GRENADA CO W/S-MONDY RD/ELLIOT,"38902, Grenada, Mississippi",38902,Mississippi,Region 4,Community water system,2002,,Grenada,11,307,17,-89.810002,33.783991,-89.810002,33.783991,-89.815002,-89.805002,33.778991,33.788991
MS0750010,CITY OF VICKSBURG,"601 Haining Rd, Vicksburg, Mississippi, 39183",39183,Mississippi,Region 4,Community water system,27852,VICKSBURG,Warren,36,24,19,-90.874759,32.385107,-90.875181,32.38419,-90.875759,-90.873759,32.384107,32.386107
MS0730004,KEOWNVILLE RURAL WATER ASSN,"Highway 9 N, Baldwyn, Mississippi, 38824",38824,Mississippi,Region 4,Community water system,2542,,Union,11,292,17,-88.790397,34.539443,-88.790397,34.539443,-88.800397,-88.780397,34.529443,34.549443
MS0820003,CASEY JONES WATER ASSN.,"945 Bend Rd, Vaughan, Mississippi, 39179",39179,Mississippi,Region 4,Community water system,1200,,Yazoo,6,69,13,-90.090791,32.748858,-90.090791,32.74953,-90.091791,-90.089791,32.747858,32.749858
MS0640001,BOGGAN RIDGE W/A,"39149, Pinola, Mississippi",39149,Mississippi,Region 4,Community water system,1773,,Simpson,5,146,18,-89.986117,31.79807,-89.986117,31.79807,-90.159117,-89.813117,31.62507,31.97107
MS0230001,CITY OF BAY ST LOUIS,"688 Highway 90, Bay Saint Louis, Mississippi, 39520",39520,Mississippi,Region 4,Community water system,7023,BAY ST LOUIS,Hancock,12,190,16,-89.343739,30.317638,-89.343739,30.317638,-89.353739,-89.333739,30.307638,30.327638
MS0290010,TOWN OF TREMONT,"38876, Tremont, Mississippi",38876,Mississippi,Region 4,Community water system,900,,Itawamba,4,72,15,-88.259283,34.237075,-88.259283,34.237075,-88.405283,-88.113283,34.091075,34.383075
MS0560002,TOWN OF NEW AUGUSTA,"39462, New Augusta, Mississippi",39462,Mississippi,Region 4,Community water system,700,,Perry,5,87,18,-89.058947,31.179487,-89.058947,31.179487,-89.194947,-88.922947,31.043487,31.315487
MS0240011,SAUCIER UTILITIES,"17420 W Central Dr, Saucier, Mississippi, 39574",39574,Mississippi,Region 4,Community water system,1956,,Harrison,5,139,17,-89.133032,30.631498,-89.133021,30.63173,-89.134032,-89.132032,30.630498,30.632498
MS0620001,C & C W/A,"11596 Clifton Rd, Forest, Mississippi, 39074",39074,Mississippi,Region 4,Community water system,1575,,Scott,12,229,19,-89.56349,32.468364,-89.564301,32.46863,-89.56449,-89.56249,32.467364,32.469364
MS0220004,GRENADA-BOGUE BASIN/HOLCOMB,"38902, Grenada, Mississippi",38902,Mississippi,Region 4,Community water system,1819,,Grenada,7,142,17,-89.810002,33.783991,-89.810002,33.783991,-89.815002,-89.805002,33.778991,33.788991
MS0790005,OLD RIVER WATER ASSN,"O St, Woodville, Mississippi, 39669",39669,Mississippi,Region 4,Community water system,3523,,Wilkinson,8,157,18,-91.304082,31.103207,-91.304082,31.103207,-91.306082,-91.302082,31.101207,31.105207
MS0340018,SHARON WATER WORKS,"4173 Sharon Rd, Laurel, Mississippi, 39443",39443,Mississippi,Region 4,Community water system,2640,,Jones,10,283,18,-89.096588,31.776126,-89.096588,31.776126,-89.106588,-89.086588,31.766126,31.786126
MS0510012,NORTH DECATUR W/A #1,"39327, Decatur, Mississippi",39327,Mississippi,Region 4,Community water system,2745,,Newton,8,134,17,-89.11114,32.439035,-89.11114,32.439035,-89.26914,-88.95314,32.281035,32.597035
MS0140053,COAHOMA UTILITY DIST #2,"38614, Clarksdale, Mississippi",38614,Mississippi,Region 4,Community water system,117,,Coahoma,3,2,1,-90.559557,34.193813,-90.559557,34.193813,-90.937557,-90.181557,33.815813,34.571813
MS0280018,VALLEY PARK W/A,"390 Luckett Rd, Tutwiler, Mississippi, 38963",38963,Mississippi,Region 4,Community water system,524,,Issaquena,4,107,6,-90.432151,34.029452,-90.432151,34.029452,-90.442151,-90.422151,34.019452,34.039452
MS0640011,BOGGAN RIDGE W/A-PINE GROVE,"39149, Pinola, Mississippi",39149,Mississippi,Region 4,Community water system,1325,,Simpson,7,135,19,-89.986117,31.79807,-89.986117,31.79807,-90.159117,-89.813117,31.62507,31.97107
MS0710005,TOWN OF GOLDEN WATER DEPT,"38847, Golden, Mississippi",38847,Mississippi,Region 4,Community water system,1700,,Tishomingo,5,70,18,-88.251982,34.448531,-88.251982,34.448531,-88.386982,-88.116982,34.313531,34.583531
MS0240264,DAVES COUNTRY CORNER,"39181, Vicksburg, Mississippi",39181,Mississippi,Region 4,Transient non-community system,25,,Harrison,3,0,0,-90.881711,32.312161,-90.881711,32.312161,-90.886711,-90.876711,32.307161,32.317161
MS0180013,SUNRISE UTILITY ASSN INC,"465 Batson Rd, Petal, Mississippi, 39465",39465,Mississippi,Region 4,Community water system,5631,,Forrest,9,268,16,-89.213514,31.30756,-89.213731,31.30756,-89.214514,-89.212514,31.30656,31.30856
MS0090010,SPARTA WATER ASSOCIATION #1,"2082 Joe Stevens Rd, Woodland, Mississippi, 39776",39776,Mississippi,Region 4,Community water system,1957,,Chickasaw,7,219,17,-88.947469,33.747796,-88.947469,33.747796,-88.957469,-88.937469,33.737796,33.757796
MS0350023,NW KEMPER W/A #3-KYNARD,"39354, Preston, Mississippi",39354,Mississippi,Region 4,Community water system,411,,Kemper,3,70,14,-88.874129,32.901974,-88.874129,32.901974,-89.039129,-88.709129,32.736974,33.066974
MS0180009,S MS PUBLIC WATER AUTH-MCLAURIN,"283 Carter Rd, Hattiesburg, Mississippi, 39401",39401,Mississippi,Region 4,Community water system,832,,Forrest,5,69,16,-89.21838,31.164274,-89.217901,31.1642,-89.21938,-89.21738,31.163274,31.165274
MS0090005,CITY OF HOUSTON,"38851, Houston, Mississippi",38851,Mississippi,Region 4,Community water system,3623,HOUSTON,Chickasaw,7,185,18,-89.000704,33.896854,-89.000704,33.896854,-89.255704,-88.745704,33.641854,34.151854
MS0020001,ALCORN W/A #2-BIGGERSVILLE,"38835, Corinth, Mississippi",38835,Mississippi,Region 4,Community water system,1656,,Alcorn,4,73,17,-88.515943,34.934042,-88.515943,34.934042,-88.520943,-88.510943,34.929042,34.939042
MS0240154,HARRISON CENTRAL HIGH SCHOOL,"39540, Diberville, Mississippi",39540,Mississippi,Region 4,Non-Transient non-community system,1446,,Harrison,3,14,20,-88.895751,30.432341,-88.895751,30.432341,-88.996751,-88.794751,30.331341,30.533341
MS0060050,BOYLE-SKENE W/A #2,"38730, Boyle, Mississippi",38730,Mississippi,Region 4,Community water system,1350,,Bolivar,7,152,11,-90.725221,33.707331,-90.725221,33.707331,-90.891221,-90.559221,33.541331,33.873331
MS0060044,BOYLE-SKENE-BENOIT,"38730, Boyle, Mississippi",38730,Mississippi,Region 4,Community water system,585,,Bolivar,6,32,13,-90.725221,33.707331,-90.725221,33.707331,-90.891221,-90.559221,33.541331,33.873331
MS0800009,SOUTHEAST NOXAPATER WATER ASSN,"39346, Noxapater, Mississippi",39346,Mississippi,Region 4,Community water system,1500,,Winston,4,69,19,-89.066072,32.99263,-89.066072,32.99263,-89.231072,-88.901072,32.82763,33.15763
MS0260017,TOWN OF WEST,"MS-35, West, Mississippi, 39192",39192,Mississippi,Region 4,Community water system,220,,Holmes,7,219,16,-89.661456,33.205115,-89.661456,33.205115,-89.705456,-89.617456,33.161115,33.249115
MS0490005,TOWN OF KILMICHAEL,"39747, Kilmichael, Mississippi",39747,Mississippi,Region 4,Community water system,826,,Montgomery,9,147,15,-89.571616,33.44437,-89.571616,33.44437,-89.747616,-89.395616,33.26837,33.62037
MS0100009,TOWN OF WEIR,"39772, Weir, Mississippi",39772,Mississippi,Region 4,Community water system,592,,Choctaw,4,68,17,-89.28901,33.261392,-89.28901,33.261392,-89.44101,-89.13701,33.109392,33.413392
MS0610089,CENTRAL MISS CORR FACILITY,"339 Randy Ave, Brandon, Mississippi, 39042",39042,Mississippi,Region 4,Community water system,3292,,Rankin,6,147,13,-89.963051,32.192148,-89.963051,32.1923,-89.964051,-89.962051,32.191148,32.193148
MS0060051,BOYLE-SKENE W/A#3,"38730, Boyle, Mississippi",38730,Mississippi,Region 4,Community water system,1635,,Bolivar,5,151,10,-90.725221,33.707331,-90.725221,33.707331,-90.891221,-90.559221,33.541331,33.873331
MS0190001,TOWN OF BUDE,"39630, Bude, Mississippi",39630,Mississippi,Region 4,Community water system,1037,,Franklin,4,76,19,-90.854191,31.458771,-90.854191,31.458771,-90.868191,-90.840191,31.444771,31.472771
MS0190006,SIXTOWN WATER ASSOCIATION,"39653, Meadville, Mississippi",39653,Mississippi,Region 4,Community water system,900,,Franklin,6,73,19,-90.888951,31.470298,-90.888951,31.470298,-91.103951,-90.673951,31.255298,31.685298
MS0380026,MERIDIAN NAVAL AIR STATION,"Allen Rd, Meridian, Mississippi, 39309",39309,Mississippi,Region 4,Community water system,2961,,Lauderdale,7,74,17,-88.611729,32.546015,-88.611729,32.546015,-88.625729,-88.597729,32.532015,32.560015
MS0150009,"COPIAH-NEW ZION WATER ASSN,INC","12095 New Zion Rd, Crystal Springs, Mississippi, 39059",39059,Mississippi,Region 4,Community water system,3981,,Copiah,11,300,15,-90.43216,31.996054,-90.43216,31.996054,-90.44216,-90.42216,31.986054,32.006054
MS0310025,LAKE EDDINS POA WTR & SWR INC,"39347, Pachuta, Mississippi",39347,Mississippi,Region 4,Community water system,956,,Jasper,3,67,9,-88.960799,32.034324,-88.960799,32.034324,-89.079799,-88.841799,31.915324,32.153324
MS0050002,TOWN OF HICKORY FLAT,"38633, Hickory Flat, Mississippi",38633,Mississippi,Region 4,Community water system,1107,,Benton,9,144,17,-89.191001,34.616296,-89.191001,34.616296,-89.336001,-89.046001,34.471296,34.761296
MS0350025,NORTH WEST KEMPER W/A #4,"39354, Preston, Mississippi",39354,Mississippi,Region 4,Community water system,1295,,Kemper,3,69,6,-88.874129,32.901974,-88.874129,32.901974,-89.039129,-88.709129,32.736974,33.066974
MS0370004,LAMAR PARK WATER & SEWAGE ASSN,"2137 Oak Grove Rd, Hattiesburg, Mississippi, 39402",39402,Mississippi,Region 4,Community water system,7533,,Lamar,11,254,19,-89.363757,31.317585,-89.363831,31.31767,-89.364757,-89.362757,31.316585,31.318585
MS0400016,MARYDELL WATER ASSOCIATION,"4160 Midway Rd, Carthage, Mississippi, 39051",39051,Mississippi,Region 4,Community water system,1508,,Leake,7,201,19,-89.44697,32.820392,-89.444881,32.81996,-89.44797,-89.44597,32.819392,32.821392
MS0730008,NORTH HAVEN WATER ASSOCIATION,"1011 County Road 361, New Albany, Mississippi, 38652",38652,Mississippi,Region 4,Community water system,990,,Union,9,134,15,-88.988068,34.51882,-88.987651,34.51872,-88.989068,-88.987068,34.51782,34.51982
MS0290002,DORSEY WATER ASSOCIATION,"38843, Fulton, Mississippi",38843,Mississippi,Region 4,Community water system,2635,,Itawamba,7,5,16,-88.406495,34.272484,-88.406495,34.272484,-88.598495,-88.214495,34.080484,34.464484
MS0060012,TOWN OF MERIGOLD,"38759, Merigold, Mississippi",38759,Mississippi,Region 4,Community water system,503,,Bolivar,5,139,14,-90.641922,33.811691,-90.641922,33.811691,-90.779922,-90.503922,33.673691,33.949691
MS0240251,RIDGECREST ESTATES,"11220 Hughes Rd, Gulfport, Mississippi, 39503",39503,Mississippi,Region 4,Community water system,300,,Harrison,3,55,9,-89.18767,30.446737,-89.18767,30.446737,-89.19767,-89.17767,30.436737,30.456737
MS0770001,BUCKATUNNA WATER ASSOCIATION,"39322, Buckatunna, Mississippi",39322,Mississippi,Region 4,Community water system,6058,,Wayne,17,431,18,-88.554642,31.534502,-88.554642,31.534502,-88.704642,-88.404642,31.384502,31.684502
MS0360056,HURRICANE LANDING,"38666, Sardis, Mississippi",38666,Mississippi,Region 4,Transient non-community system,50,,Lafayette,3,1,20,-89.917039,34.436016,-89.917039,34.436016,-90.164039,-89.670039,34.189016,34.683016
MS0170018,CITY OF SOUTHAVEN,"862 Mecklenburg Cv, Southaven, Mississippi, 38671",38671,Mississippi,Region 4,Community water system,48000,SOUTHAVEN,DeSoto,22,123,14,-90.005241,34.978298,-90.005181,34.97852,-90.006241,-90.004241,34.977298,34.979298
MS0610086,THOMASVILLE W/A #2,"2483 Star Rd, Florence, Mississippi, 39073",39073,Mississippi,Region 4,Community water system,421,,Rankin,3,68,15,-90.018922,32.158322,-90.018922,32.158322,-90.028922,-90.008922,32.148322,32.168322
MS0040002,TOWN OF ETHEL,"39067, Ethel, Mississippi",39067,Mississippi,Region 4,Community water system,452,,Attala,7,120,18,-89.464801,33.124529,-89.464801,33.124529,-89.614801,-89.314801,32.974529,33.274529
MS0060042,SYMONDS WATER ASSOCIATION,"38764, Pace, Mississippi",38764,Mississippi,Region 4,Community water system,155,,Bolivar,3,68,15,-90.861209,33.793149,-90.861209,33.793149,-90.870209,-90.852209,33.784149,33.802149
MS0730024,BETHLEHEM WATER ASSOCIATION,"1034 County Road 82, New Albany, Mississippi, 38652",38652,Mississippi,Region 4,Community water system,750,,Union,2,4,15,-89.010272,34.555623,-89.010281,34.55524,-89.011272,-89.009272,34.554623,34.556623
MS0270004,TOWN OF LOUISE,"39097, Louise, Mississippi",39097,Mississippi,Region 4,Community water system,924,,Humphreys,7,142,17,-90.588726,32.980367,-90.588726,32.980367,-90.711726,-90.465726,32.857367,33.103367
MS0180011,CITY OF PETAL,"39465, Petal, Mississippi",39465,Mississippi,Region 4,Community water system,8791,PETAL,Forrest,9,253,16,-89.261552,31.344571,-89.261552,31.344571,-89.453552,-89.069552,31.152571,31.536571
MS0560005,RUNNELSTOWN-NORTH,"14 Pumping Station Rd, Petal, Mississippi, 39465",39465,Mississippi,Region 4,Community water system,2296,,Perry,7,217,16,-89.116042,31.376621,-89.116042,31.376621,-89.126042,-89.106042,31.366621,31.386621
MS0600005,TOWN OF FALCON,"125 Nevils Rd, Falcon, Mississippi, 38670",38670,Mississippi,Region 4,Community water system,150,,Quitman,5,74,14,-90.253106,34.394771,-90.253106,34.394771,-90.263106,-90.243106,34.384771,34.404771
MS0060002,TOWN OF BENOIT,"38725, Benoit, Mississippi",38725,Mississippi,Region 4,Community water system,611,,Bolivar,5,138,15,-91.007444,33.64852,-91.007444,33.64852,-91.231444,-90.783444,33.42452,33.87252
MS0320001,CITY OF FAYETTE,"39069, Fayette, Mississippi",39069,Mississippi,Region 4,Community water system,2022,,Jefferson,12,84,14,-91.058473,31.72296,-91.058473,31.72296,-91.290473,-90.826473,31.49096,31.95496
MS0220062,GRENADA-BOGUE BASIN/GORE SPRGS,"38902, Grenada, Mississippi",38902,Mississippi,Region 4,Community water system,1848,,Grenada,8,150,16,-89.810002,33.783991,-89.810002,33.783991,-89.815002,-89.805002,33.778991,33.788991
MS0480008,TOWN OF HATLEY,"60279 Hatley Rd, Hatley, Mississippi, 38821",38821,Mississippi,Region 4,Community water system,2229,,Monroe,7,70,13,-88.416936,33.977007,-88.416936,33.977007,-88.426936,-88.406936,33.967007,33.987007
MS0300064,COLONIAL ESTATES # 3,"39540, Diberville, Mississippi",39540,Mississippi,Region 4,Community water system,140,,Jackson,5,62,18,-88.895751,30.432341,-88.895751,30.432341,-88.996751,-88.794751,30.331341,30.533341
MS0290003,CITY OF FULTON,"213 W Wiygul St, Fulton, Mississippi, 38843",38843,Mississippi,Region 4,Community water system,8550,FULTON,Itawamba,9,5,15,-88.408443,34.272814,-88.408443,34.272814,-88.418443,-88.398443,34.262814,34.282814
MS0260005,TOWN OF CRUGER,"38924, Cruger, Mississippi",38924,Mississippi,Region 4,Community water system,460,,Holmes,3,88,17,-90.235896,33.319896,-90.235896,33.319896,-90.382896,-90.088896,33.172896,33.466896
MS0180007,GLENDALE UTILITY DISTRICT,"2805 Glendale Ave, Hattiesburg, Mississippi, 39401",39401,Mississippi,Region 4,Community water system,4380,,Forrest,7,196,17,-89.310249,31.369585,-89.310321,31.36956,-89.311249,-89.309249,31.368585,31.370585
MS0360063,HURRICANE HILLS W/A,"130 CR-139, Abbeville, Mississippi, 38601",38601,Mississippi,Region 4,Community water system,150,,Lafayette,3,60,14,-89.569485,34.48741,-89.570581,34.4874,-89.570485,-89.568485,34.48641,34.48841
MS0500007,CENTRAL W/A-NORTH PEARL RIVER,"39350, Philadelphia, Mississippi",39350,Mississippi,Region 4,Community water system,1370,,Neshoba,7,70,20,-89.108987,32.770621,-89.108987,32.770621,-89.345987,-88.871987,32.533621,33.007621
MS0570008,NORTH PIKE WATER ASSOCIATION,"Ohio Ave, Summit, Mississippi, 39666",39666,Mississippi,Region 4,Community water system,4836,,Pike,7,149,17,-90.471615,31.290808,-90.471615,31.290808,-90.473615,-90.469615,31.288808,31.292808
MS0390006,SONTAG-WANILLA,"39665, Sontag, Mississippi",39665,Mississippi,Region 4,Community water system,1500,,Lawrence,7,213,18,-90.203946,31.655111,-90.203946,31.655111,-90.298946,-90.108946,31.560111,31.750111
MS0220036,GRENADA IND PK & AIRPORT WATER,"38902, Grenada, Mississippi",38902,Mississippi,Region 4,Community water system,1968,,Grenada,8,152,15,-89.810002,33.783991,-89.810002,33.783991,-89.815002,-89.805002,33.778991,33.788991
MS0520001,TOWN OF BROOKSVILLE,"39739, Brooksville, Mississippi",39739,Mississippi,Region 4,Community water system,2680,,Noxubee,11,240,19,-88.581112,33.232041,-88.581112,33.232041,-88.857112,-88.305112,32.956041,33.508041
MS0430029,TOPISAW CREEK,"2190 Mallalieu Dr SE, Ruth, Mississippi, 39662",39662,Mississippi,Region 4,Community water system,4477,,Lincoln,5,142,14,-90.290103,31.447616,-90.290721,31.44755,-90.291103,-90.289103,31.446616,31.448616
MS0650007,POLKVILLE WATER ASSOCIATION,"6606 Highway 13, Polkville, Mississippi, 39117",39117,Mississippi,Region 4,Community water system,934,,Smith,5,72,19,-89.693701,32.192309,-89.693701,32.192309,-89.703701,-89.683701,32.182309,32.202309
MS0610015,PINEY WOODS COUNTRY LIFE SCH,"39148, Piney Woods, Mississippi",39148,Mississippi,Region 4,Community water system,570,,Rankin,7,136,17,-89.993432,32.063061,-89.993432,32.063061,-89.998432,-89.988432,32.058061,32.068061
MS0070018,SLATE SPRINGS WATER ASSN,"137 S Main St, Calhoun City, Mississippi, 38916",38916,Mississippi,Region 4,Community water system,315,,Calhoun,5,143,15,-89.372028,33.738614,-89.372028,33.738614,-89.382028,-89.362028,33.728614,33.748614
MS0450008,TOWN OF FLORA #1,"39071, Flora, Mississippi",39071,Mississippi,Region 4,Community water system,2000,,Madison,8,169,18,-90.324401,32.594141,-90.324401,32.594141,-90.456401,-90.192401,32.462141,32.726141
MS0710004,TISHOMINGO CO WATER DISTRICT,"CR-354, Iuka, Mississippi, 38852",38852,Mississippi,Region 4,Community water system,2277,,Tishomingo,2,7,16,-88.241063,34.968353,-88.241063,34.968353,-88.246063,-88.236063,34.963353,34.973353
MS0120011,EAST QUITMAN W/A,"962 County Road 670, Quitman, Mississippi, 39355",39355,Mississippi,Region 4,Community water system,4098,,Clarke,10,192,18,-88.636489,32.035554,-88.636561,32.03535,-88.637489,-88.635489,32.034554,32.036554
MS0240001,CITY OF BILOXI,"214 A St, Biloxi, Mississippi, 39530",39530,Mississippi,Region 4,Community water system,24803,BILOXI,Harrison,38,338,17,-88.909618,30.402158,-88.909618,30.402158,-88.919618,-88.899618,30.392158,30.412158
MS0240260,FALLEN OAKS GOLF COURSE,"39540, Diberville, Mississippi",39540,Mississippi,Region 4,Transient non-community system,40,,Harrison,5,0,1,-88.895751,30.432341,-88.895751,30.432341,-88.996751,-88.794751,30.331341,30.533341
MS0480005,VILLAGE OF GATTMAN,"50682 Pleasant Hill Rd, Gattman, Mississippi, 38844",38844,Mississippi,Region 4,Community water system,1535,,Monroe,6,92,15,-88.231799,33.882019,-88.231799,33.882019,-88.241799,-88.221799,33.872019,33.892019
MS0270020,HUMPHREYS CO. W/A #2-BROOKLYN,"454 Parsonage Rd, Belzoni, Mississippi, 39038",39038,Mississippi,Region 4,Community water system,360,,Humphreys,3,78,17,-90.469944,33.16137,-90.469981,33.16137,-90.470944,-90.468944,33.16037,33.16237
MS0290004,HOUSTON-PALESTINE WATER ASSOC,"808 Palestine Rd, Baldwyn, Mississippi, 38824",38824,Mississippi,Region 4,Community water system,1610,,Itawamba,9,216,17,-88.522432,34.453513,-88.522431,34.45316,-88.523432,-88.521432,34.452513,34.454513
MS0060047,BOYLE-SKENE WATER ASSN,"38730, Boyle, Mississippi",38730,Mississippi,Region 4,Community water system,900,,Bolivar,3,81,11,-90.725221,33.707331,-90.725221,33.707331,-90.891221,-90.559221,33.541331,33.873331
MS0420043,AMERICA'S CATCH CATFISH PLANT,"38941, Itta Bena, Mississippi",38941,Mississippi,Region 4,Non-Transient non-community system,300,,Leflore,5,0,9,-90.324371,33.496001,-90.324371,33.496001,-90.585371,-90.063371,33.235001,33.757001
MS0200003,BEXLEY WATER ASSOCIATION,"1196 Highway 198 W, Lucedale, Mississippi, 39452",39452,Mississippi,Region 4,Community water system,1300,,George,8,145,17,-88.637588,30.946446,-88.637588,30.946446,-88.647588,-88.627588,30.936446,30.956446
MS0610007,EVERGREEN WATER ASSOCIATION,"670 Andrew Chapel Rd, Brandon, Mississippi, 39042",39042,Mississippi,Region 4,Community water system,2649,,Rankin,9,228,21,-89.929736,32.31867,-89.929736,32.31867,-89.939736,-89.919736,32.30867,32.32867
MS0480004,COONTAIL WATER ASSOCIATION,"20231 Coontail Rd, Aberdeen, Mississippi, 39730",39730,Mississippi,Region 4,Community water system,1395,,Monroe,8,68,16,-88.556509,33.86492,-88.556509,33.86492,-88.566509,-88.546509,33.85492,33.87492
MS0150011,TOWN OF WESSON,"39191, Wesson, Mississippi",39191,Mississippi,Region 4,Community water system,2500,,Copiah,8,60,17,-90.39673,31.702696,-90.39673,31.702696,-90.68273,-90.11073,31.416696,31.988696
MS0330002,CARSON CENTRAL WATER ASSN,"39427, Carson, Mississippi",39427,Mississippi,Region 4,Community water system,350,,Jefferson Davis,3,68,19,-89.7962,31.540528,-89.7962,31.540528,-89.9472,-89.6452,31.389528,31.691528
MS0250025,TOWN OF TERRY,"315 W Cunningham Ave, Terry, Mississippi, 39170",39170,Mississippi,Region 4,Community water system,1942,,Hinds,8,155,16,-90.297261,32.097868,-90.297261,32.097868,-90.307261,-90.287261,32.087868,32.107868
MS0650011,TOWN OF TAYLORSVILLE,"39168, Taylorsville, Mississippi",39168,Mississippi,Region 4,Community water system,2000,,Smith,8,69,19,-89.42863,31.82751,-89.42863,31.82751,-89.61563,-89.24163,31.64051,32.01451
MS0240263,WEST HARRISON HIGH SCHOOL,"39540, Diberville, Mississippi",39540,Mississippi,Region 4,Non-Transient non-community system,1015,,Harrison,3,0,2,-88.895751,30.432341,-88.895751,30.432341,-88.996751,-88.794751,30.331341,30.533341
MS0060018,TOWN OF SHAW,"38773, Shaw, Mississippi",38773,Mississippi,Region 4,Community water system,1932,,Bolivar,7,79,14,-90.768968,33.60343,-90.768968,33.60343,-90.990968,-90.546968,33.38143,33.82543
MS0130003,SUN CREEK WATER INC-PHEBA,"39755, Pheba, Mississippi",39755,Mississippi,Region 4,Community water system,1692,,Clay,9,215,18,-88.949404,33.583117,-88.949404,33.583117,-89.091404,-88.807404,33.441117,33.725117
MS0360050,HOLIDAY LODGE MOBILE HOME PK,"38619, Como, Mississippi",38619,Mississippi,Region 4,Transient non-community system,25,,Lafayette,3,2,20,-89.940975,34.514341,-89.940975,34.514341,-90.326975,-89.554975,34.128341,34.900341
MS0350003,NW KEMPER W/A #1-PRESTON,"39354, Preston, Mississippi",39354,Mississippi,Region 4,Community water system,2012,,Kemper,4,70,16,-88.874129,32.901974,-88.874129,32.901974,-89.039129,-88.709129,32.736974,33.066974
MS0740074,MCELVEEN FISH & BBQ,"69 Old Highway 24 E, Tylertown, Mississippi, 39667",39667,Mississippi,Region 4,Transient non-community system,25,,Walthall,3,1,16,-90.123024,31.121034,-90.122941,31.12079,-90.124024,-90.122024,31.120034,31.122034
