PWSID,PWS Name,Approximate Address,Postal,Primacy Agency,EPA Region,PWS Type,Population Served Count,Cities Served,Counties Served,# of Facilities,# of Violations,# of Site Visits,Longitude,Latitude,DisplayX,DisplayY,Xmin,Xmax,Ymin,Ymax
NH1847180,BEARCAMP RIVER CAMPGROUND,"03890, West Ossipee, New Hampshire",03890,New Hampshire,Region 1,Transient non-community system,120,OSSIPEE,Carroll,2,10,2,-71.180325,43.8222,-71.180325,43.8222,-71.273325,-71.087325,43.7292,43.9152
NH2479010,BAKER RIVER BIBLE CHURCH,"299 Reservoir Rd, Plymouth, Town of, New Hampshire, 03264",03264,New Hampshire,Region 1,Transient non-community system,80,WENTWORTH,Grafton,2,2,2,-71.731366,43.756912,-71.730861,43.75554,-71.732366,-71.730366,43.755912,43.757912
NH0357040,CRESCENT CAMPSITES/NORTH,"118 North Rd, Sunapee, Town of, New Hampshire, 03782",03782,New Hampshire,Region 1,Transient non-community system,211,CANAAN,Grafton,3,3,2,-72.100196,43.393888,-72.099571,43.39396,-72.101196,-72.099196,43.392888,43.394888
NH1205060,KIDDIE KONNECTION,"22 Manchester Rd, Derry, Town of, New Hampshire, 03038",03038,New Hampshire,Region 1,Non-Transient non-community system,191,HUDSON,Hillsborough,1,5,4,-71.3308,42.896516,-71.330881,42.89646,-71.3318,-71.3298,42.895516,42.897516
NH1205070,EARLY START CHILDRENS CENTER,"141 Kimball Hill Rd, Hudson, Town of, New Hampshire, 03051",03051,New Hampshire,Region 1,Non-Transient non-community system,79,HUDSON,Hillsborough,2,11,3,-71.369574,42.771243,-71.369231,42.77063,-71.370574,-71.368574,42.770243,42.772243
NH2546160,COMMONS AT WINDHAM 2/EAST BLDG,"25 Indian Rock Rd, Windham, Town of, New Hampshire, 03087",03087,New Hampshire,Region 1,Non-Transient non-community system,50,WINDHAM,Rockingham,2,28,4,-71.295335,42.805657,-71.295621,42.80699,-71.296335,-71.294335,42.804657,42.806657
NH0887080,PHEASANT RIDGE COUNTRY CLUB,"140 Country Club Rd, Gilford, Town of, New Hampshire, 03249",03249,New Hampshire,Region 1,Transient non-community system,56,GILFORD,Belknap,2,1,2,-71.443588,43.520129,-71.443588,43.520129,-71.453588,-71.433588,43.510129,43.530129
NH0548010,CONISTON GENERAL STORE,"870 RT-10, Croydon, Town of, New Hampshire, 03773",03773,New Hampshire,Region 1,Transient non-community system,80,CROYDON,Sullivan,1,5,2,-72.159944,43.453146,-72.159751,43.45301,-72.160944,-72.158944,43.452146,43.454146
NH2512010,POUND ROAD WATER WORKS,"03287, Wilmot, New Hampshire",03287,New Hampshire,Region 1,Community water system,53,WILMOT,Merrimack,1,57,4,-71.901443,43.416245,-71.901443,43.416245,-72.019443,-71.783443,43.298245,43.534245
NH1197030,ELM BROOK PARK,"Hopkinton Rd, Contoocook, New Hampshire, 03229",03229,New Hampshire,Region 1,Transient non-community system,500,HOPKINTON,Merrimack,2,0,2,-71.674949,43.19201,-71.674949,43.19201,-71.715949,-71.633949,43.15101,43.23301
NH1379010,TABERNACLE CHRISTIAN SCH,"242 Derry Rd, Litchfield, Town of, New Hampshire, 03052",03052,New Hampshire,Region 1,Non-Transient non-community system,208,LITCHFIELD,Hillsborough,3,23,4,-71.431233,42.803834,-71.433071,42.8043,-71.432233,-71.430233,42.802834,42.804834
NH1973050,HILL TOP,"2 Englewood Dr, Raymond, Town of, New Hampshire, 03077",03077,New Hampshire,Region 1,Community water system,140,RAYMOND,Rockingham,5,9,8,-71.178789,43.058333,-71.179081,43.05834,-71.179789,-71.177789,43.057333,43.059333
NH1837060,JACOBS BROOK CAMPGROUND,"170 Jepson Ln, Meriden, Connecticut, 06451",06451,New Hampshire,Region 1,Transient non-community system,132,ORFORD,Grafton,1,0,2,-72.840881,41.515915,-72.840711,41.516,-72.841881,-72.839881,41.514915,41.516915
NH2232030,SALT RIVER CONDOS,"3 Holland Way, Exeter, Town of, New Hampshire, 03833",03833,New Hampshire,Region 1,Community water system,195,STRATHAM,Rockingham,3,27,3,-70.919117,42.979171,-70.920551,42.979,-70.920117,-70.918117,42.978171,42.980171
NH0055030,ORCHARD SCH,"114 Old Settlers Rd, Alstead, Town of, New Hampshire, 03602",03602,New Hampshire,Region 1,Non-Transient non-community system,45,ALSTEAD,Cheshire,1,5,3,-72.285594,43.131815,-72.285111,43.13149,-72.286594,-72.284594,43.130815,43.132815
NH2239040,AUTOFAIR NISSAN,"45 Portsmouth Ave, Stratham, Town of, New Hampshire, 03885",03885,New Hampshire,Region 1,Transient non-community system,40,STRATHAM,Rockingham,1,0,2,-70.919725,43.002951,-70.919725,43.002951,-70.929725,-70.909725,42.992951,43.012951
NH0167010,MT ATTITASH SKI AREA/LODGE,"03812, Bartlett, New Hampshire",03812,New Hampshire,Region 1,Non-Transient non-community system,1000,BARTLETT,Carroll,3,9,3,-71.283072,44.081431,-71.283072,44.081431,-71.456072,-71.110072,43.908431,44.254431
NH2458030,COUNTRY THREE CORNERS,"833 S Stark Hwy, Weare, Town of, New Hampshire, 03281",03281,New Hampshire,Region 1,Transient non-community system,300,WEARE,Hillsborough,3,2,2,-71.713689,43.055605,-71.714001,43.05545,-71.714689,-71.712689,43.054605,43.056605
NH2546110,WINDHAM VILLAGE GREEN,"22 Manchester Rd, Derry, Town of, New Hampshire, 03038",03038,New Hampshire,Region 1,Non-Transient non-community system,150,WINDHAM,Rockingham,1,0,3,-71.3308,42.896516,-71.330881,42.89646,-71.3318,-71.3298,42.895516,42.897516
NH1992020,HASBROUCK APARTMENTS,"1164 Main St, Walpole, Town of, New Hampshire, 03609",03609,New Hampshire,Region 1,Community water system,60,RINDGE,Cheshire,4,4,4,-72.448733,43.148289,-72.448733,43.148289,-72.458733,-72.438733,43.138289,43.158289
NH2544020,WINDHAM TERRACE,"03054, Merrimack, New Hampshire",03054,New Hampshire,Region 1,Community water system,110,WINDHAM,Rockingham,2,6,4,-71.496412,42.84014,-71.496412,42.84014,-71.580412,-71.412412,42.75614,42.92414
NH1101050,MOUNTAIN LAKES WATER DEPT,"75 White Mountain Dr, Haverhill, Town of, New Hampshire, 03785",03785,New Hampshire,Region 1,Community water system,787,HAVERHILL,Grafton,6,99,10,-71.956721,44.120613,-71.958201,44.11961,-71.957721,-71.955721,44.119613,44.121613
NH0512030,CATHEDRAL LEDGE,"03860, Hales Lctn, New Hampshire",03860,New Hampshire,Region 1,Community water system,150,CONWAY,Carroll,7,59,6,-71.123646,44.053392,-71.123646,44.053392,-71.208646,-71.038646,43.968392,44.138392
NH2342030,MOUNTAIN RIVER CONDOS,"03223, Campton, New Hampshire",03223,New Hampshire,Region 1,Community water system,60,THORNTON,Grafton,1,73,4,-71.640395,43.851718,-71.640395,43.851718,-71.957395,-71.323395,43.534718,44.168718
NH0617030,HIDDEN VALLEY CAMPGROUND,"81 Damren Rd, Derry, Town of, New Hampshire, 03038",03038,New Hampshire,Region 1,Transient non-community system,125,DERRY,Rockingham,2,8,2,-71.238672,42.921433,-71.237131,42.92102,-71.239672,-71.237672,42.920433,42.922433
NH0921010,GORHAM WATER AND SEWER DEPT,"03581, Gorham, New Hampshire",03581,New Hampshire,Region 1,Community water system,2630,GORHAM,Coos,5,38,3,-71.176241,44.388341,-71.176241,44.388341,-71.339241,-71.013241,44.225341,44.551341
NH0882100,BELKNAP HEIGHTS WATER,"1440 Lake Shore Rd, Gilford, Town of, New Hampshire, 03249",03249,New Hampshire,Region 1,Community water system,60,GILFORD,Belknap,3,5,4,-71.441478,43.563207,-71.441941,43.56418,-71.442478,-71.440478,43.562207,43.564207
NH1858080,MCDONALDS RESTAURANT,"03031, Amherst, New Hampshire",03031,New Hampshire,Region 1,Transient non-community system,525,PELHAM,Hillsborough,1,15,2,-71.584753,42.877001,-71.584753,42.877001,-71.666753,-71.502753,42.795001,42.959001
NH0888230,SUN DECK COTTAGES,"162 Dockham Shore Rd, Gilford, Town of, New Hampshire, 03249",03249,New Hampshire,Region 1,Transient non-community system,25,GILFORD,Belknap,1,2,2,-71.41469,43.593022,-71.414881,43.59272,-71.41569,-71.41369,43.592022,43.594022
NH0912020,ORCHARD HIGHLANDS,"1 Hardy Rd, Bedford, Town of, New Hampshire, 03110",03110,New Hampshire,Region 1,Community water system,105,GOFFSTOWN,Hillsborough,2,6,5,-71.538016,42.922239,-71.537761,42.92234,-71.539016,-71.537016,42.921239,42.923239
NH0438010,SHAKER HEIGHTS PROF PLAZA,"22 Manchester Rd, Derry, Town of, New Hampshire, 03038",03038,New Hampshire,Region 1,Transient non-community system,50,CHESTER,Rockingham,2,0,2,-71.3308,42.896516,-71.330881,42.89646,-71.3318,-71.3298,42.895516,42.897516
NH0293010,NEWFOUND ACRES MHP,"98 Rundlett Hill Rd, Bedford, Town of, New Hampshire, 03110",03110,New Hampshire,Region 1,Community water system,26,BRIDGEWATER,Grafton,1,65,5,-71.503897,42.979862,-71.505671,42.97966,-71.504897,-71.502897,42.978862,42.980862
NH0167050,GLEN ELLIS CAMPGROUND,"US-302, Bartlett, Town of, New Hampshire, 03838",03838,New Hampshire,Region 1,Transient non-community system,400,BARTLETT,Carroll,1,1,2,-71.201999,44.10077,-71.201999,44.10077,-71.225999,-71.177999,44.07677,44.12477
NH0288030,BRENTWOOD COUNTRY STORE,"405 Middle Rd, Brentwood, Town of, New Hampshire, 03833",03833,New Hampshire,Region 1,Transient non-community system,40,BRENTWOOD,Rockingham,1,17,2,-71.072003,42.978636,-71.072241,42.97892,-71.073003,-71.071003,42.977636,42.979636
NH1332040,CEDAR WOOD ESTATES,"383 Central Ave, Dover, New Hampshire, 03820",03820,New Hampshire,Region 1,Community water system,30,LEE,Strafford,3,9,5,-70.874295,43.195835,-70.874295,43.195835,-70.884295,-70.864295,43.185835,43.205835
NH0266130,RUGGLES III OFFICE BLDG,"72 Manchester St, Concord, New Hampshire, 03301",03301,New Hampshire,Region 1,Non-Transient non-community system,35,BOW,Merrimack,4,78,3,-71.511918,43.190742,-71.512101,43.19039,-71.512918,-71.510918,43.189742,43.191742
NH0047070,TWIN OAKS CAMPGROUND,"24 Eastman Ave, Bedford, Town of, New Hampshire, 03110",03110,New Hampshire,Region 1,Transient non-community system,125,ALLENSTOWN,Merrimack,1,14,5,-71.477866,42.965547,-71.477901,42.96565,-71.478866,-71.476866,42.964547,42.966547
NH0177010,TWIN RIVERS CAMPGROUND,"Route 302, Bath, New Hampshire, 03740",03740,New Hampshire,Region 1,Transient non-community system,182,BATH,Grafton,2,8,2,-71.948089,44.187728,-71.948089,44.187728,-71.965089,-71.931089,44.170728,44.204728
NH2107010,AMC LAKES OF THE CLOUDS HUT,"03581, Gorham, New Hampshire",03581,New Hampshire,Region 1,Transient non-community system,112,SARGENTSPURCHAS,Coos,2,5,2,-71.176241,44.388341,-71.176241,44.388341,-71.339241,-71.013241,44.225341,44.551341
NH1901010,PITTSBURG WATER DEPT,"03592, Pittsburg, New Hampshire",03592,New Hampshire,Region 1,Community water system,198,PITTSBURG,Coos,8,5,7,-71.345791,45.081283,-71.345791,45.081283,-71.634791,-71.056791,44.792283,45.370283
NH1525010,INTER LAKES HIGH SCH,"2 Flanders Rd, Meredith, Town of, New Hampshire, 03253",03253,New Hampshire,Region 1,Non-Transient non-community system,1000,MEREDITH,Belknap,2,4,4,-71.533144,43.628979,-71.532721,43.62898,-71.534144,-71.532144,43.627979,43.629979
NH0882160,SAMOSET AT WINNIPESAUKEE,"17 Commerce Dr, Bedford, Town of, New Hampshire, 03110",03110,New Hampshire,Region 1,Community water system,343,GILFORD,Belknap,2,8,3,-71.464722,42.928906,-71.465931,42.92942,-71.465722,-71.463722,42.927906,42.929906
NH1577010,LOG HAVEN CAMPGROUND,"03579, Wentworths Location, New Hampshire",03579,New Hampshire,Region 1,Transient non-community system,200,MILLSFIELD,Coos,2,5,2,-71.03287,44.935622,-71.03287,44.935622,-71.35387,-70.71187,44.614622,45.256622
NH1407050,CASCADE CAMPGROUND,"288 Parade Rd, Barnstead, Town of, New Hampshire, 03218",03218,New Hampshire,Region 1,Transient non-community system,588,LOUDON,Merrimack,3,24,3,-71.284655,43.337082,-71.284655,43.337082,-71.294655,-71.274655,43.327082,43.347082
NH0702030,MAPLEVALE AND CRICKET HILL,"54 Sawyer Ave, Atkinson, Town of, New Hampshire, 03811",03811,New Hampshire,Region 1,Community water system,130,EAST KINGSTON,Rockingham,4,2,4,-71.15376,42.822176,-71.155201,42.82388,-71.15476,-71.15276,42.821176,42.823176
NH1908040,GLEN THE,"03592, Pittsburg, New Hampshire",03592,New Hampshire,Region 1,Transient non-community system,45,PITTSBURG,Coos,1,0,2,-71.345791,45.081283,-71.345791,45.081283,-71.634791,-71.056791,44.792283,45.370283
NH2557080,WINDSOR HILLS CAMP/DINING HALL,"29 White Pond Rd, Windsor, Town of, New Hampshire, 03244",03244,New Hampshire,Region 1,Transient non-community system,250,WINDSOR,Hillsborough,1,0,2,-72.021596,43.126238,-72.026801,43.12147,-72.022596,-72.020596,43.125238,43.127238
NH1851020,PEU/WHISPERING WINDS,"03054, Merrimack, New Hampshire",03054,New Hampshire,Region 1,Community water system,238,WINDHAM,Rockingham,1,2,3,-71.496412,42.84014,-71.496412,42.84014,-71.580412,-71.412412,42.75614,42.92414
NH2315020,BEARCMP VALLEY SCH/CHLDCRE CTR,"03886, Tamworth, New Hampshire",03886,New Hampshire,Region 1,Non-Transient non-community system,100,TAMWORTH,Carroll,1,30,3,-71.266764,43.859525,-71.266764,43.859525,-71.365764,-71.167764,43.760525,43.958525
NH1036040,STAGE ROAD JUNCTION,"03841, New Hampshire",03841,New Hampshire,Region 1,Non-Transient non-community system,30,HAMPSTEAD,Rockingham,1,7,4,-71.199432,42.888605,-71.199432,42.888605,-71.261432,-71.137432,42.826605,42.950605
NH0885020,GILFORD MIDDLE AND HIGH SCH,"2 Belknap Mountain Rd, Gilford, Town of, New Hampshire, 03249",03249,New Hampshire,Region 1,Non-Transient non-community system,950,GILFORD,Belknap,2,25,4,-71.407293,43.548153,-71.407081,43.54829,-71.408293,-71.406293,43.547153,43.549153
NH0162340,BEAR VILLAGE SOUTH,"03845, Intervale, New Hampshire",03845,New Hampshire,Region 1,Community water system,30,BARTLETT,Carroll,1,5,3,-71.132908,44.079064,-71.132908,44.079064,-71.338908,-70.926908,43.873064,44.285064
NH0162300,ATTITASH WOODS CONDOS,"03838, Glen, New Hampshire",03838,New Hampshire,Region 1,Transient non-community system,135,BARTLETT,Carroll,2,40,4,-71.181778,44.11327,-71.181778,44.11327,-71.302778,-71.060778,43.99227,44.23427
NH2018020,CUMBERLAND FARMS,"996 Portland Ave, Rollinsford, Town of, New Hampshire, 03869",03869,New Hampshire,Region 1,Transient non-community system,150,ROLLINSFORD,Strafford,2,0,2,-70.812016,43.226925,-70.812451,43.22731,-70.813016,-70.811016,43.225925,43.227925
NH0382010,ROSEBROOK WATER,"37 Northwest Dr, Plainville, Town of, Connecticut, 06062",06062,New Hampshire,Region 1,Community water system,1050,CARROLL,Coos,4,54,6,-72.860818,41.694348,-72.859901,41.69478,-72.861818,-72.859818,41.693348,41.695348
NH0366040,BIRCHWOOD PLAZA,"03034, Candia, New Hampshire",03034,New Hampshire,Region 1,Non-Transient non-community system,80,CANDIA,Rockingham,2,6,4,-71.322652,43.039651,-71.322652,43.039651,-71.414652,-71.230652,42.947651,43.131651
NH0867010,TOTEM POLE PARK,"4 Totem Pole Rd, Freedom, Town of, New Hampshire, 03836",03836,New Hampshire,Region 1,Transient non-community system,1125,FREEDOM,Carroll,2,0,2,-71.120048,43.799013,-71.120048,43.799013,-71.130048,-71.110048,43.789013,43.809013
NH1036010,HAMPSTEAD SHOPPERS VILLAGE,"03087, Windham, New Hampshire",03087,New Hampshire,Region 1,Non-Transient non-community system,78,HAMPSTEAD,Rockingham,4,1,5,-71.300773,42.80536,-71.300773,42.80536,-71.365773,-71.235773,42.74036,42.87036
NH1939070,ROCKINGHAM CHURCH,"90 Newton Rd, Plaistow, Town of, New Hampshire, 03865",03865,New Hampshire,Region 1,Transient non-community system,250,PLAISTOW,Rockingham,2,0,2,-71.058806,42.823231,-71.060221,42.82366,-71.059806,-71.057806,42.822231,42.824231
NH1181010,CENTRAL HOOKSETT WATER PCT,"32 Industrial Park Dr, Hooksett, New Hampshire, 03106",03106,New Hampshire,Region 1,Community water system,3500,HOOKSETT,Merrimack,4,7,5,-71.447194,43.061368,-71.447194,43.061368,-71.457194,-71.437194,43.051368,43.071368
NH1618270,CAVALIERS COVE,"159 Shore Dr, Nashua, New Hampshire, 03062",03062,New Hampshire,Region 1,Transient non-community system,35,MOULTONBOROUGH,Carroll,1,8,2,-71.513964,42.744475,-71.513964,42.744475,-71.523964,-71.503964,42.734475,42.754475
NH2546080,CASTLE COMMONS,"25 Orchard View Dr, Londonderry, Town of, New Hampshire, 03053",03053,New Hampshire,Region 1,Non-Transient non-community system,25,WINDHAM,Rockingham,2,0,3,-71.356707,42.857699,-71.356161,42.85762,-71.357707,-71.355707,42.856699,42.858699
NH2577040,LOST RIVER GORGE,"03262, N Woodstock, New Hampshire",03262,New Hampshire,Region 1,Transient non-community system,25,WOODSTOCK,Grafton,1,5,2,-71.692789,44.031469,-71.692789,44.031469,-71.821789,-71.563789,43.902469,44.160469
NH1566020,MILFORD TECHNOLOGY CENTER,"03054, Merrimack, New Hampshire",03054,New Hampshire,Region 1,Non-Transient non-community system,160,MILFORD,Hillsborough,1,153,3,-71.496412,42.84014,-71.496412,42.84014,-71.580412,-71.412412,42.75614,42.92414
NH1617030,CAMP WINAUKEE,"432 Winaukee Rd, Moultonborough, Town of, New Hampshire, 03254",03254,New Hampshire,Region 1,Transient non-community system,650,MOULTONBOROUGH,Carroll,2,0,2,-71.316795,43.666407,-71.316511,43.66695,-71.317795,-71.315795,43.665407,43.667407
NH1392010,OAKRIDGE CONDOS,"163 Main St, Salem, Town of, New Hampshire, 03079",03079,New Hampshire,Region 1,Community water system,250,LONDONDERRY,Rockingham,4,4,3,-71.223119,42.782536,-71.223261,42.7828,-71.224119,-71.222119,42.781536,42.783536
NH1968030,JEFFERSON NOTCH MOTEL,"1322 US Route 2, Randolph, Town of, New Hampshire, 03593",03593,New Hampshire,Region 1,Transient non-community system,55,RANDOLPH,Coos,1,0,2,-71.365669,44.359026,-71.365521,44.36,-71.366669,-71.364669,44.358026,44.360026
NH2548090,GO GO MART,"22 Manchester Rd, Derry, Town of, New Hampshire, 03038",03038,New Hampshire,Region 1,Transient non-community system,25,WINDHAM,Rockingham,2,5,2,-71.3308,42.896516,-71.330881,42.89646,-71.3318,-71.3298,42.895516,42.897516
NH1862030,BOROUGH RD APARTMENTS,"99 Fisherville Rd, Concord, New Hampshire, 03303",03303,New Hampshire,Region 1,Community water system,30,PEMBROKE,Merrimack,2,3,1,-71.579676,43.258148,-71.580001,43.25801,-71.580676,-71.578676,43.257148,43.259148
NH2002040,MEADOWBROOK VILLAGE,"91 Meadowbrook Vlg, Rochester, New Hampshire, 03867",03867,New Hampshire,Region 1,Community water system,40,ROCHESTER,Strafford,3,29,4,-71.028268,43.314391,-71.028268,43.314391,-71.038268,-71.018268,43.304391,43.324391
NH0138010,HOLIDAYS BAR AND GRILL,"346 Hooksett Rd, Auburn, Town of, New Hampshire, 03032",03032,New Hampshire,Region 1,Transient non-community system,50,AUBURN,Rockingham,1,9,3,-71.364268,43.023177,-71.364201,43.0235,-71.365268,-71.363268,43.022177,43.024177
NH0098070,BREEZY POINT CONDOS,"110 Breezy Point Rd, Antrim, Town of, New Hampshire, 03440",03440,New Hampshire,Region 1,Community water system,35,ANTRIM,Hillsborough,1,1,3,-71.960587,43.095411,-71.960431,43.09548,-71.961587,-71.959587,43.094411,43.096411
NH0187010,WILD RIVER CAMPGROUND,"105 Fletcher Farm Rd, Bristol, New Hampshire, 03222",03222,New Hampshire,Region 1,Transient non-community system,27,BEANS PURCHASE,Coos,2,5,2,-71.793569,43.602875,-71.793569,43.602875,-71.803569,-71.783569,43.592875,43.612875
NH0888080,BELKNAP POINT MOTEL,"107 Belknap Point Rd, Gilford, Town of, New Hampshire, 03249",03249,New Hampshire,Region 1,Transient non-community system,43,GILFORD,Belknap,1,0,3,-71.38039,43.586773,-71.380561,43.58653,-71.38139,-71.37939,43.585773,43.587773
NH1168150,WALTERS BASIN,"03245, Holderness, New Hampshire",03245,New Hampshire,Region 1,Transient non-community system,60,HOLDERNESS,Grafton,3,10,2,-71.585268,43.731235,-71.585268,43.731235,-71.680268,-71.490268,43.636235,43.826235
NH0448200,OLD NEW ENGLAND VILLAGE,"101 Lake End Rd, Rockaway Twp, New Jersey, 07435",07435,New Hampshire,Region 1,Transient non-community system,30,CHESTERFIELD,Cheshire,2,8,2,-74.494195,41.000807,-74.494011,41.00066,-74.495195,-74.493195,40.999807,41.001807
NH0851010,FRANKLIN WATER WORKS,"43 W Bow St, Franklin, New Hampshire, 03235",03235,New Hampshire,Region 1,Community water system,7000,FRANKLIN,Merrimack,11,72,6,-71.651764,43.443597,-71.651764,43.443597,-71.661764,-71.641764,43.433597,43.453597
NH1032070,COACH RUN CONDOS,"03038, Derry, New Hampshire",03038,New Hampshire,Region 1,Community water system,60,HAMPSTEAD,Rockingham,3,7,4,-71.323875,42.901098,-71.323875,42.901098,-71.440875,-71.206875,42.784098,43.018098
NH0203020,LADD HILL MHP,"03235, Franklin, New Hampshire",03235,New Hampshire,Region 1,Community water system,80,BELMONT,Belknap,2,10,5,-71.642802,43.443961,-71.642802,43.443961,-71.732802,-71.552802,43.353961,43.533961
NH0203080,MALLARDS LANDING,"200 Union Rd, Belmont, Town of, New Hampshire, 03220",03220,New Hampshire,Region 1,Community water system,325,BELMONT,Belknap,2,5,5,-71.503987,43.492031,-71.503987,43.492031,-71.513987,-71.493987,43.482031,43.502031
NH2397070,SUNSHINE ACRES/UPPER,"456 Brackett Rd, Wakefield, Town of, New Hampshire, 03872",03872,New Hampshire,Region 1,Transient non-community system,85,WAKEFIELD,Carroll,1,0,2,-71.007331,43.547617,-71.007561,43.54769,-71.008331,-71.006331,43.546617,43.548617
NH0147030,SUN RIVER CAMPING AREA,"55 Teller St, Marlborough, Massachusetts, 01752",01752,New Hampshire,Region 1,Transient non-community system,143,BARNSTEAD,Belknap,2,8,6,-71.582118,42.333173,-71.582121,42.33302,-71.583118,-71.581118,42.332173,42.334173
NH2435020,WASHINGTON ELEMENTARY SCH,"62 Wolf Way, Washington, Town of, New Hampshire, 03280",03280,New Hampshire,Region 1,Non-Transient non-community system,125,WASHINGTON,Sullivan,1,4,5,-72.113323,43.174782,-72.113251,43.17246,-72.114323,-72.112323,43.173782,43.175782
NH2441010,WATERVILLE VALLEY WATER DIST,"03215, Waterville Valley, New Hampshire",03215,New Hampshire,Region 1,Community water system,3050,WATERVILLE VLY,Grafton,7,9,5,-71.507963,43.950385,-71.507963,43.950385,-71.568963,-71.446963,43.889385,44.011385
NH1392130,STONEHENGE TRUST APARTMENTS,"440 Hanover St, Manchester, New Hampshire, 03104",03104,New Hampshire,Region 1,Community water system,105,LONDONDERRY,Rockingham,6,28,4,-71.447501,42.990947,-71.447491,42.9912,-71.448501,-71.446501,42.989947,42.991947
NH1488010,COACH AND FOUR MOTOR INN,"Monadnock Hwy, Swanzey, New Hampshire, 03446",03446,New Hampshire,Region 1,Transient non-community system,60,MARLBOROUGH,Cheshire,1,15,4,-72.241016,42.888144,-72.241016,42.888144,-72.260016,-72.222016,42.869144,42.907144
NH2215010,STRAFFORD SCH,"22 Roller Coaster Rd, Strafford, New Hampshire, 03884",03884,New Hampshire,Region 1,Non-Transient non-community system,508,STRAFFORD,Strafford,2,65,4,-71.126921,43.26923,-71.126921,43.26923,-71.136921,-71.116921,43.25923,43.27923
NH0162330,CRAWFORD POND,"171 Marlborough St, Boston, Massachusetts, 02116",02116,New Hampshire,Region 1,Community water system,58,BARTLETT,Carroll,2,31,4,-71.079519,42.352666,-71.079601,42.35288,-71.080519,-71.078519,42.351666,42.353666
NH0275080,NFI NORTH SCH,"2554 RT-103, Bradford, Town of, New Hampshire, 03221",03221,New Hampshire,Region 1,Non-Transient non-community system,50,BRADFORD,Merrimack,3,1,2,-71.930323,43.266773,-71.929901,43.26611,-71.931323,-71.929323,43.265773,43.267773
NH0286060,ROCKINGHAM COUNTY COURTHOUSE,"03301, Concord, New Hampshire",03301,New Hampshire,Region 1,Non-Transient non-community system,136,BRENTWOOD,Rockingham,2,0,2,-71.539547,43.204695,-71.539547,43.204695,-71.644547,-71.434547,43.099695,43.309695
NH2038090,COMMON CAFE AND ANTIQUES THE,"Quincy Rd, Rumney, New Hampshire, 03266",03266,New Hampshire,Region 1,Transient non-community system,50,RUMNEY,Grafton,1,4,1,-71.77663,43.788743,-71.77663,43.788743,-71.80563,-71.74763,43.759743,43.817743
NH0398050,MUG BY THE BAY,"03226, Center Harbor, New Hampshire",03226,New Hampshire,Region 1,Transient non-community system,48,CENTER HARBOR,Belknap,1,0,1,-71.46352,43.706634,-71.46352,43.706634,-71.58152,-71.34552,43.588634,43.824634
NH1848340,SUBWAY,"377 Whittier Hwy, Moultonborough, New Hampshire, 03254",03254,New Hampshire,Region 1,Transient non-community system,255,OSSIPEE,Carroll,2,4,2,-71.431919,43.722307,-71.431919,43.722307,-71.441919,-71.421919,43.712307,43.732307
NH1238010,EVERGREEN MOTEL,"537 Presidential Hwy, Jefferson, New Hampshire, 03583",03583,New Hampshire,Region 1,Transient non-community system,45,JEFFERSON,Coos,1,3,2,-71.49427,44.426886,-71.49427,44.426886,-71.50427,-71.48427,44.416886,44.436886
NH0448220,FLEMING SHELL FOODMART,"88 Leroy Rd, Williston, Town of, Vermont, 05495",05495,New Hampshire,Region 1,Transient non-community system,500,CHESTERFIELD,Cheshire,2,0,2,-73.132424,44.449096,-73.132451,44.44958,-73.133424,-73.131424,44.448096,44.450096
NH1035020,AGES AND STAGES HAMPSTEAD,"499 Main St, Hampstead, Town of, New Hampshire, 03841",03841,New Hampshire,Region 1,Non-Transient non-community system,99,HAMPSTEAD,Rockingham,2,57,3,-71.214082,42.896652,-71.213611,42.89695,-71.215082,-71.213082,42.895652,42.897652
NH0353010,COUNTRY VILLAGE MHP,"03235, Franklin, New Hampshire",03235,New Hampshire,Region 1,Community water system,50,CANAAN,Grafton,2,2,3,-71.642802,43.443961,-71.642802,43.443961,-71.732802,-71.552802,43.353961,43.533961
NH1101010,PRECINCT OF HAVERHILL CORNER,"03765, Haverhill, New Hampshire",03765,New Hampshire,Region 1,Community water system,540,HAVERHILL,Grafton,4,7,5,-72.053296,44.03909,-72.053296,44.03909,-72.100296,-72.006296,43.99209,44.08609
NH1698080,104 DINER,"03217, Ashland, New Hampshire",03217,New Hampshire,Region 1,Transient non-community system,350,NEW HAMPTON,Belknap,1,32,4,-71.635163,43.696201,-71.635163,43.696201,-71.689163,-71.581163,43.642201,43.750201
NH0867100,WABANAKI CAMPGROUND,"57 Arlington Rd, Woburn, Massachusetts, 01801",01801,New Hampshire,Region 1,Transient non-community system,155,FREEDOM,Carroll,1,10,2,-71.155435,42.472878,-71.155721,42.47281,-71.156435,-71.154435,42.471878,42.473878
NH1936100,PENTUCKET SHOPPING CENTER,"2000 Riveredge Pkwy, Sandy Springs, Georgia, 30328",30328,New Hampshire,Region 1,Non-Transient non-community system,200,PLAISTOW,Rockingham,7,92,7,-84.439279,33.905973,-84.438701,33.90589,-84.440279,-84.438279,33.904973,33.906973
NH2548140,WINDHAM JUNCTION,"128 N Lowell Rd, Windham, New Hampshire, 03087",03087,New Hampshire,Region 1,Transient non-community system,150,WINDHAM,Rockingham,2,11,2,-71.2994,42.841825,-71.2994,42.841825,-71.3094,-71.2894,42.831825,42.851825
NH2208040,MILL VILLAGE COUNTRY STORE,"03464, Stoddard, New Hampshire",03464,New Hampshire,Region 1,Transient non-community system,50,STODDARD,Cheshire,2,1,2,-72.105084,43.098304,-72.105084,43.098304,-72.199084,-72.011084,43.004304,43.192304
NH1189020,DW INDUSTRIAL CONDOS,"722 E Industrial Park Dr, Manchester, New Hampshire, 03109",03109,New Hampshire,Region 1,Transient non-community system,40,HOOKSETT,Merrimack,1,3,2,-71.408309,42.982201,-71.408401,42.9822,-71.409309,-71.407309,42.981201,42.983201
NH1378040,7 ELEVEN,"11 Ledge St, Nashua, New Hampshire, 03060",03060,New Hampshire,Region 1,Transient non-community system,925,LITCHFIELD,Hillsborough,2,2,2,-71.472514,42.757642,-71.472514,42.757642,-71.482514,-71.462514,42.747642,42.767642
NH1481010,MARLBOROUGH WATER WORKS,"03455, Marlborough, New Hampshire",03455,New Hampshire,Region 1,Community water system,750,MARLBOROUGH,Cheshire,4,51,6,-72.208476,42.903852,-72.208476,42.903852,-72.291476,-72.125476,42.820852,42.986852
NH1855080,COLONIAL WAY PLAZA,"43 Bridge St, Pelham, Town of, New Hampshire, 03076",03076,New Hampshire,Region 1,Non-Transient non-community system,28,PELHAM,Hillsborough,3,13,4,-71.315604,42.705196,-71.316081,42.70509,-71.316604,-71.314604,42.704196,42.706196
NH1477030,CAMP CARPENTER HEALTH LODGE,"68 Watson Rd, Exeter, Town of, New Hampshire, 03833",03833,New Hampshire,Region 1,Transient non-community system,400,MANCHESTER,Hillsborough,1,0,2,-70.972328,43.011336,-70.972328,43.011336,-70.982328,-70.962328,43.001336,43.021336
NH2557040,WINDSOR MTN INTERNATNL/CABINS,"1 World Way, Hillsborough, New Hampshire, 03244",03244,New Hampshire,Region 1,Transient non-community system,80,WINDSOR,Hillsborough,1,2,2,-72.015143,43.114741,-72.015143,43.114741,-72.025143,-72.005143,43.104741,43.124741
NH0439020,FELLOWSHIP BIBLE CHURCH,"48 Rod & Gun Club Rd, Chester, Town of, New Hampshire, 03036",03036,New Hampshire,Region 1,Transient non-community system,200,CHESTER,Rockingham,2,0,2,-71.201968,42.983792,-71.202271,42.98305,-71.202968,-71.200968,42.982792,42.984792
NH2271010,SUNAPEE WATER WORKS,"03782, Sunapee, New Hampshire",03782,New Hampshire,Region 1,Community water system,1640,SUNAPEE,Sullivan,2,22,4,-72.085338,43.386974,-72.085338,43.386974,-72.145338,-72.025338,43.326974,43.446974
NH0887140,SILVER SANDS MARINA,"103 Weirs Rd, Gilford, Town of, New Hampshire, 03249",03249,New Hampshire,Region 1,Transient non-community system,35,GILFORD,Belknap,2,1,2,-71.409136,43.58078,-71.407931,43.58126,-71.410136,-71.408136,43.57978,43.58178
NH2358100,LORD HAMPSHIRE CONDOS,"03289, Winnisquam, New Hampshire",03289,New Hampshire,Region 1,Transient non-community system,90,TILTON,Belknap,1,17,2,-71.51679,43.500397,-71.51679,43.500397,-71.52179,-71.51179,43.495397,43.505397
NH0665050,MOUNTAIN SHADOWS SCH,"03444, Dublin, New Hampshire",03444,New Hampshire,Region 1,Non-Transient non-community system,72,DUBLIN,Cheshire,2,112,4,-72.021461,42.906558,-72.021461,42.906558,-72.156461,-71.886461,42.771558,43.041558
NH2037060,MOUNTAIN PINES CAMPGROUND,"2759 RT-25, Rumney, Town of, New Hampshire, 03266",03266,New Hampshire,Region 1,Transient non-community system,80,RUMNEY,Grafton,1,16,2,-71.850268,43.79848,-71.849721,43.79873,-71.851268,-71.849268,43.79748,43.79948
NH1998090,KENTUCKY FRIED CHICKEN,"1032 NH Route 119, Rindge, Town of, New Hampshire, 03461",03461,New Hampshire,Region 1,Transient non-community system,25,RINDGE,Cheshire,2,6,2,-72.003991,42.754044,-72.003991,42.754044,-72.013991,-71.993991,42.744044,42.764044
NH1678020,JOHNSONS STEAK AND SEAFOOD,"03855, New Durham, New Hampshire",03855,New Hampshire,Region 1,Transient non-community system,260,NEW DURHAM,Strafford,2,23,2,-71.166452,43.43662,-71.166452,43.43662,-71.302452,-71.030452,43.30062,43.57262
NH2205010,JAMES FAULKNER MEMORIAL SCH,"258 Western Ave, Henniker, Town of, New Hampshire, 03242",03242,New Hampshire,Region 1,Non-Transient non-community system,75,STODDARD,Cheshire,5,121,4,-71.831945,43.179746,-71.832011,43.18011,-71.832945,-71.830945,43.178746,43.180746
NH0079010,LIBERTY PARK,"282 RT-101, Amherst, Town of, New Hampshire, 03031",03031,New Hampshire,Region 1,Transient non-community system,30,AMHERST,Hillsborough,1,3,1,-71.600154,42.898107,-71.600211,42.89847,-71.601154,-71.599154,42.897107,42.899107
NH0157040,AYERS LAKE CAMPGROUND,"497 Washington St, Barrington, Town of, New Hampshire, 03825",03825,New Hampshire,Region 1,Transient non-community system,50,BARRINGTON,Strafford,1,0,2,-71.049158,43.248586,-71.049191,43.24873,-71.050158,-71.048158,43.247586,43.249586
NH2427010,MOOSE HILLOCK CAMPGROUND,"96 Batchelder Brook Rd, Warren, Town of, New Hampshire, 03279",03279,New Hampshire,Region 1,Transient non-community system,505,WARREN,Grafton,3,12,2,-71.869555,43.937923,-71.869641,43.93765,-71.870555,-71.868555,43.936923,43.938923
NH2308070,T BIRD MINI MART,"88 Leroy Rd, Williston, Town of, Vermont, 05495",05495,New Hampshire,Region 1,Transient non-community system,25,SWANZEY,Cheshire,1,1,3,-73.132424,44.449096,-73.132451,44.44958,-73.133424,-73.131424,44.448096,44.450096
NH2312060,CHOCORUA WOODS,"03813, Chatham, New Hampshire",03813,New Hampshire,Region 1,Community water system,16,TAMWORTH,Carroll,2,26,3,-71.058512,43.994477,-71.058512,43.994477,-71.345512,-70.771512,43.707477,44.281477
NH1998030,J P STEPHENS REST AND TAVERN,"03461, Rindge, New Hampshire",03461,New Hampshire,Region 1,Transient non-community system,50,RINDGE,Cheshire,2,1,3,-72.016586,42.782514,-72.016586,42.782514,-72.104586,-71.928586,42.694514,42.870514
NH1938190,GREAT ELM PLAZA,"16 Willowby Way, Lynnfield, Town of, Massachusetts, 01940",01940,New Hampshire,Region 1,Non-Transient non-community system,30,PLAISTOW,Rockingham,2,0,3,-71.037959,42.550469,-71.038371,42.55065,-71.038959,-71.036959,42.549469,42.551469
NH0694010,EMERITUS AT SPRUCE WOOD,"25 Worthen Rd, Durham, Town of, New Hampshire, 03824",03824,New Hampshire,Region 1,Community water system,225,DURHAM,Strafford,3,9,4,-70.959316,43.12585,-70.959891,43.12593,-70.960316,-70.958316,43.12485,43.12685
NH1848030,MOUNT WHITTIER MOTEL,"1695 RT-16, Ossipee, Town of, New Hampshire, 03814",03814,New Hampshire,Region 1,Transient non-community system,50,OSSIPEE,Carroll,1,9,2,-71.171507,43.786929,-71.172531,43.7865,-71.172507,-71.170507,43.785929,43.787929
NH0305010,NEWFOUND REGIONAL HS,"20 N Main St, Bristol, Town of, New Hampshire, 03222",03222,New Hampshire,Region 1,Non-Transient non-community system,500,BRISTOL,Grafton,2,1,4,-71.737076,43.591514,-71.736811,43.59174,-71.738076,-71.736076,43.590514,43.592514
NH1117070,CAMP WICOSUTA,"4 New King St, North Castle, Town of, New York, 10604",10604,New Hampshire,Region 1,Transient non-community system,425,HEBRON,Grafton,3,9,2,-73.715131,41.083807,-73.715131,41.083807,-73.725131,-73.705131,41.073807,41.093807
NH0206040,NOYES FIBER SYS,"16 Eastgate Park Rd, Belmont, Town of, New Hampshire, 03220",03220,New Hampshire,Region 1,Non-Transient non-community system,50,BELMONT,Belknap,2,2,3,-71.463842,43.477424,-71.464121,43.47739,-71.464842,-71.462842,43.476424,43.478424
NH1858010,HARRIS PELHAM INN,"399 Ledge Rd, Pelham, New Hampshire, 03076",03076,New Hampshire,Region 1,Transient non-community system,100,PELHAM,Hillsborough,3,4,2,-71.256961,42.740906,-71.256961,42.740906,-71.266961,-71.246961,42.730906,42.750906
NH1846010,OCEAN STATE JOB LOT,"445 Callahan Rd, North Kingstown, Town of, Rhode Island, 02852",02852,New Hampshire,Region 1,Non-Transient non-community system,45,OSSIPEE,Carroll,2,76,3,-71.436022,41.599393,-71.437441,41.59882,-71.437022,-71.435022,41.598393,41.600393
NH0753030,LOWER SHAKER VILLAGE,"03770, Meriden, New Hampshire",03770,New Hampshire,Region 1,Community water system,263,ENFIELD,Grafton,3,12,4,-72.271272,43.526321,-72.271272,43.526321,-72.337272,-72.205272,43.460321,43.592321
NH0507010,CAMP SPAULDING/RIVERSIDE,"210 Bog Rd, Concord, New Hampshire, 03303",03303,New Hampshire,Region 1,Transient non-community system,70,CONCORD,Merrimack,1,4,2,-71.61228,43.250216,-71.613691,43.25258,-71.61328,-71.61128,43.249216,43.251216
NH0972010,CROTCHED MOUNTAIN REHAB CENTER,"1 Verney Dr, Greenfield, New Hampshire, 03047",03047,New Hampshire,Region 1,Community water system,1050,GREENFIELD,Hillsborough,7,59,3,-71.879465,42.978398,-71.879465,42.978398,-71.889465,-71.869465,42.968398,42.988398
NH1658010,MOUNTAIN EDGE RESORT,"03255, Mount Sunapee, New Hampshire",03255,New Hampshire,Region 1,Transient non-community system,120,NEWBURY,Merrimack,1,8,3,-72.037721,43.321361,-72.037721,43.321361,-72.122721,-71.952721,43.236361,43.406361
NH0612070,GLEN RIDGE DEV,"03054, Merrimack, New Hampshire",03054,New Hampshire,Region 1,Community water system,253,DERRY,Rockingham,4,3,3,-71.496412,42.84014,-71.496412,42.84014,-71.580412,-71.412412,42.75614,42.92414
NH2236130,STRATHAM CENTRAL CONDOS,"18 Congress St, Portsmouth, New Hampshire, 03801",03801,New Hampshire,Region 1,Transient non-community system,174,STRATHAM,Rockingham,3,7,4,-70.758291,43.076743,-70.758211,43.07665,-70.759291,-70.757291,43.075743,43.077743
NH1328040,MASCOMA VILLAGE STORE,"558 Dartmouth College Hwy, Lebanon, New Hampshire, 03766",03766,New Hampshire,Region 1,Transient non-community system,40,LEBANON,Grafton,2,9,2,-72.181183,43.651282,-72.181241,43.65067,-72.182183,-72.180183,43.650282,43.652282
NH2358130,TILT N DINER,"03217, Ashland, New Hampshire",03217,New Hampshire,Region 1,Transient non-community system,300,TILTON,Belknap,2,6,2,-71.635163,43.696201,-71.635163,43.696201,-71.689163,-71.581163,43.642201,43.750201
NH1131010,HILL WATER WORKS,"03243, Hill, New Hampshire",03243,New Hampshire,Region 1,Community water system,350,HILL,Merrimack,3,12,5,-71.702179,43.523465,-71.702179,43.523465,-71.830179,-71.574179,43.395465,43.651465
NH1193020,ELM BROOK VILLAGE,"135 Tucker Dr, Hopkinton, Town of, New Hampshire, 03229",03229,New Hampshire,Region 1,Community water system,90,HOPKINTON,Merrimack,3,14,8,-71.722574,43.188737,-71.722601,43.18886,-71.723574,-71.721574,43.187737,43.189737
NH0618140,BROOKSTONE PARK GOLF COMPLEX,"9 Red Roof Ln, Salem, Town of, New Hampshire, 03079",03079,New Hampshire,Region 1,Transient non-community system,200,DERRY,Rockingham,4,0,2,-71.240013,42.780416,-71.239911,42.78035,-71.241013,-71.239013,42.779416,42.781416
NH2057010,CAMP Y WOOD,"38 Lawrence St, Lawrence, Massachusetts, 01840",01840,New Hampshire,Region 1,Transient non-community system,25,SALEM,Rockingham,1,2,2,-71.161944,42.708877,-71.162391,42.70879,-71.162944,-71.160944,42.707877,42.709877
NH1619050,GENEVA POINT CTR/MAIN SYS,"108 Geneva Point Rd, Moultonborough, Town of, New Hampshire, 03254",03254,New Hampshire,Region 1,Transient non-community system,300,MOULTONBOROUGH,Carroll,2,0,2,-71.336256,43.673215,-71.332141,43.67056,-71.337256,-71.335256,43.672215,43.674215
NH2566020,495 CENTER STREET,"1000 Elm St, Manchester, New Hampshire, 03101",03101,New Hampshire,Region 1,Transient non-community system,25,WOLFEBORO,Carroll,3,5,2,-71.463149,42.992749,-71.464121,42.99273,-71.464149,-71.462149,42.991749,42.993749
NH0203040,PINE GARDENS MHP,"03220, Belmont, New Hampshire",03220,New Hampshire,Region 1,Community water system,413,BELMONT,Belknap,2,1,4,-71.483378,43.441409,-71.483378,43.441409,-71.572378,-71.394378,43.352409,43.530409
NH0767020,HEDDING CAMP MEETING,"03042, Epping, New Hampshire",03042,New Hampshire,Region 1,Transient non-community system,250,EPPING,Rockingham,3,1,2,-71.118779,43.031988,-71.118779,43.031988,-71.230779,-71.006779,42.919988,43.143988
NH0776040,WENDYS/DUNKIN DONUTS,"1932 Dover Rd, Epsom, Town of, New Hampshire, 03234",03234,New Hampshire,Region 1,Transient non-community system,999,EPSOM,Merrimack,2,2,2,-71.363674,43.228786,-71.363421,43.22926,-71.364674,-71.362674,43.227786,43.229786
NH1757040,COUNTRY POND CAMPGROUND,"106 Pond St, Newton, Town of, New Hampshire, 03858",03858,New Hampshire,Region 1,Transient non-community system,147,NEWTON,Rockingham,1,0,2,-71.052507,42.888259,-71.052721,42.88823,-71.053507,-71.051507,42.887259,42.889259
NH1852090,SIMPSON MILL ROAD,"03054, Merrimack, New Hampshire",03054,New Hampshire,Region 1,Community water system,35,PELHAM,Hillsborough,2,5,12,-71.496412,42.84014,-71.496412,42.84014,-71.580412,-71.412412,42.75614,42.92414
NH0779010,CIRCLE 9 RANCH,"03234, Epsom, New Hampshire",03234,New Hampshire,Region 1,Transient non-community system,395,EPSOM,Merrimack,2,0,2,-71.385226,43.196843,-71.385226,43.196843,-71.508226,-71.262226,43.073843,43.319843
NH0837020,CROTCHED MOUNTAIN GOLF CLUB,"740 2nd NH Tpke N, Francestown, Town of, New Hampshire, 03043",03043,New Hampshire,Region 1,Transient non-community system,93,FRANCESTOWN,Hillsborough,2,6,4,-71.868491,43.020403,-71.868231,43.02054,-71.869491,-71.867491,43.019403,43.021403
NH1741010,NEWPORT WATER WORKS,"15 Sunapee St, Newport, Town of, New Hampshire, 03773",03773,New Hampshire,Region 1,Community water system,5000,NEWPORT,Sullivan,5,71,3,-72.172173,43.365194,-72.172173,43.365194,-72.182173,-72.162173,43.355194,43.375194
NH2312050,REMICK ACRES,"03110, New Hampshire",03110,New Hampshire,Region 1,Community water system,60,TAMWORTH,Carroll,2,9,4,-71.469421,42.942761,-71.469421,42.942761,-71.617421,-71.321421,42.794761,43.090761
NH1281010,LACONIA WATER WORKS,"03246, Laconia, New Hampshire",03246,New Hampshire,Region 1,Community water system,12000,LACONIA,Belknap,2,0,3,-71.467592,43.527151,-71.467592,43.527151,-71.600592,-71.334592,43.394151,43.660151
NH1297020,MOUNTAIN LAKE CAMPGROUND,"03584, Lancaster, New Hampshire",03584,New Hampshire,Region 1,Transient non-community system,180,LANCASTER,Coos,2,4,2,-71.567563,44.490676,-71.567563,44.490676,-71.730563,-71.404563,44.327676,44.653676
NH2179010,SPRINGFIELD REST AREA,"1 Eagle Sq, Concord, New Hampshire, 03301",03301,New Hampshire,Region 1,Transient non-community system,1300,SPRINGFIELD,Sullivan,3,1,2,-71.535647,43.206998,-71.536091,43.20716,-71.536647,-71.534647,43.205998,43.207998
NH1932220,SHADY LANE APARTMENTS,"20 Island Pond Rd, Derry, Town of, New Hampshire, 03038",03038,New Hampshire,Region 1,Community water system,35,PLAISTOW,Rockingham,2,29,5,-71.296376,42.880726,-71.296591,42.88147,-71.297376,-71.295376,42.879726,42.881726
NH2458010,LAKESHORE VILLAGE RESORT,"120 Cottage Rd, Weare, New Hampshire, 03281",03281,New Hampshire,Region 1,Transient non-community system,75,WEARE,Hillsborough,2,12,2,-71.795586,43.097611,-71.795586,43.097611,-71.805586,-71.785586,43.087611,43.107611
NH2401020,N WALPOLE VILLAGE DISTRICT/LOW,"05101, Bellows Falls, Vermont",05101,New Hampshire,Region 1,Community water system,800,WALPOLE,Cheshire,6,65,3,-72.448482,43.13118,-72.448482,43.13118,-72.556482,-72.340482,43.02318,43.23918
NH1528090,OLIVER LODGE,"03253, Meredith, New Hampshire",03253,New Hampshire,Region 1,Transient non-community system,55,MEREDITH,Belknap,1,6,2,-71.49929,43.653586,-71.49929,43.653586,-71.64229,-71.35629,43.510586,43.796586
NH0027110,PASSACONAWAY CAMPGROUND 5,"105 Fletcher Farm Rd, Bristol, New Hampshire, 03222",03222,New Hampshire,Region 1,Transient non-community system,83,ALBANY,Carroll,1,4,2,-71.793569,43.602875,-71.793569,43.602875,-71.803569,-71.783569,43.592875,43.612875
NH0106010,ROCHESTER SHOE TREE,"03217, Ashland, New Hampshire",03217,New Hampshire,Region 1,Non-Transient non-community system,65,ASHLAND,Grafton,2,22,3,-71.635163,43.696201,-71.635163,43.696201,-71.689163,-71.581163,43.642201,43.750201
NH1287040,SINGING COVE RV PARK,"Mt Pleasant St, Woburn, Massachusetts, 01801",01801,New Hampshire,Region 1,Transient non-community system,100,LACONIA,Belknap,3,26,5,-71.144739,42.474813,-71.144739,42.474813,-71.148739,-71.140739,42.470813,42.478813
NH0518140,FRYES STORE,"03813, Chatham, New Hampshire",03813,New Hampshire,Region 1,Transient non-community system,50,CONWAY,Carroll,1,4,1,-71.058512,43.994477,-71.058512,43.994477,-71.345512,-70.771512,43.707477,44.281477
NH2398220,JJS RESTAURANT,"03830, East Wakefield, New Hampshire",03830,New Hampshire,Region 1,Transient non-community system,40,WAKEFIELD,Carroll,2,0,3,-70.981178,43.600415,-70.981178,43.600415,-71.074178,-70.888178,43.507415,43.693415
NH0411020,NORTH CHARLESTOWN WATER DEPT,"03603, Charlestown, New Hampshire",03603,New Hampshire,Region 1,Community water system,325,CHARLESTOWN,Sullivan,6,4,3,-72.422951,43.235821,-72.422951,43.235821,-72.588951,-72.256951,43.069821,43.401821
NH0762040,MELLING GLEN,"153 Coffin Rd, Epping, Town of, New Hampshire, 03042",03042,New Hampshire,Region 1,Community water system,92,EPPING,Rockingham,3,6,3,-71.042123,43.049743,-71.042061,43.04965,-71.043123,-71.041123,43.048743,43.050743
NH0991010,GREENVILLE WATER DEPT,"03045, Goffstown, New Hampshire",03045,New Hampshire,Region 1,Community water system,1100,GREENVILLE,Hillsborough,2,7,6,-71.600781,43.019861,-71.600781,43.019861,-71.701781,-71.499781,42.918861,43.120861
NH1335030,GROWING PLACES,"10 Calef Hwy, Lee, Town of, New Hampshire, 03861",03861,New Hampshire,Region 1,Non-Transient non-community system,47,LEE,Strafford,3,13,4,-71.006038,43.161971,-71.006038,43.161971,-71.016038,-70.996038,43.151971,43.171971
NH0162370,MEADOWS THE,"03838, Glen, New Hampshire",03838,New Hampshire,Region 1,Transient non-community system,33,BARTLETT,Carroll,1,23,2,-71.181778,44.11327,-71.181778,44.11327,-71.302778,-71.060778,43.99227,44.23427
NH0142010,PEU/LOCKE LAKE,"03054, Merrimack, New Hampshire",03054,New Hampshire,Region 1,Community water system,2120,BARNSTEAD,Belknap,19,71,12,-71.496412,42.84014,-71.496412,42.84014,-71.580412,-71.412412,42.75614,42.92414
NH0285010,SWASEY CENTRAL SCH,"30 Linden St, Exeter, New Hampshire, 03833",03833,New Hampshire,Region 1,Non-Transient non-community system,465,BRENTWOOD,Rockingham,4,28,4,-70.95674,42.975762,-70.95674,42.975762,-70.96674,-70.94674,42.965762,42.985762
NH0081010,ANDOVER VILLAGE DIST,"03216, Andover, New Hampshire",03216,New Hampshire,Region 1,Community water system,650,ANDOVER,Merrimack,2,69,3,-71.819645,43.436659,-71.819645,43.436659,-71.948645,-71.690645,43.307659,43.565659
NH1367010,LITTLETON LISBON KOA,"2154 Route 302, Lisbon, Town of, New Hampshire, 03585",03585,New Hampshire,Region 1,Transient non-community system,150,LISBON,Grafton,1,7,2,-71.852365,44.250212,-71.852071,44.24964,-71.853365,-71.851365,44.249212,44.251212
NH0692020,STAGECOACH FARMS,"23 Ross Rd, Durham, Town of, New Hampshire, 03824",03824,New Hampshire,Region 1,Community water system,164,DURHAM,Strafford,6,22,6,-70.923915,43.097857,-70.923941,43.09799,-70.924915,-70.922915,43.096857,43.098857
NH1392220,ROLLING MEADOWS CONDOS III,"3 Holland Way, Exeter, Town of, New Hampshire, 03833",03833,New Hampshire,Region 1,Community water system,50,LONDONDERRY,Rockingham,2,9,4,-70.919117,42.979171,-70.920551,42.979,-70.920117,-70.918117,42.978171,42.980171
NH1036080,RAM PRINTING,"03826, E Hampstead, New Hampshire",03826,New Hampshire,Region 1,Non-Transient non-community system,42,HAMPSTEAD,Rockingham,2,25,3,-71.133332,42.883369,-71.133332,42.883369,-71.171332,-71.095332,42.845369,42.921369
NH2002020,PROFILE APARTMENTS,"173 Estes Rd, Rochester, New Hampshire, 03867",03867,New Hampshire,Region 1,Community water system,90,ROCHESTER,Strafford,2,115,3,-71.021561,43.293972,-71.021401,43.29405,-71.022561,-71.020561,43.292972,43.294972
NH2052060,MILLVILLE CIRCLE/NORTH,"4 Spring St, Salem, Town of, New Hampshire, 03079",03079,New Hampshire,Region 1,Community water system,57,SALEM,Rockingham,1,7,3,-71.227667,42.783339,-71.227501,42.78337,-71.228667,-71.226667,42.782339,42.784339
NH2548170,HOWIE GLYNN AND SONS CONV STRE,"22 Manchester Rd, Derry, Town of, New Hampshire, 03038",03038,New Hampshire,Region 1,Transient non-community system,50,WINDHAM,Rockingham,1,1,1,-71.3308,42.896516,-71.330881,42.89646,-71.3318,-71.3298,42.895516,42.897516
NH2312020,MOUNTAIN VIEW ESTATES,"03254, Moultonborough, New Hampshire",03254,New Hampshire,Region 1,Community water system,38,TAMWORTH,Carroll,1,118,5,-71.362663,43.725563,-71.362663,43.725563,-71.532663,-71.192663,43.555563,43.895563
NH1053020,HEMLOCK HAVEN,"03850, Melvin Village, New Hampshire",03850,New Hampshire,Region 1,Community water system,207,HAMPTON,Rockingham,4,9,4,-71.304082,43.688886,-71.304082,43.688886,-71.330082,-71.278082,43.662886,43.714886
NH1126030,HHP,"03242, Henniker, New Hampshire",03242,New Hampshire,Region 1,Non-Transient non-community system,50,HENNIKER,Merrimack,4,3,5,-71.820304,43.176342,-71.820304,43.176342,-71.913304,-71.727304,43.083342,43.269342
NH2303010,PINE GROVE MOBILE HOME PARK,"13 Eastview Rd, Swanzey, Town of, New Hampshire, 03446",03446,New Hampshire,Region 1,Community water system,305,SWANZEY,Cheshire,4,27,4,-72.3394,42.854578,-72.3394,42.854578,-72.3494,-72.3294,42.844578,42.864578
NH1327010,MASCOMA LAKE CAMPGROUND,"92 RT-4A, Lebanon, New Hampshire, 03766",03766,New Hampshire,Region 1,Transient non-community system,180,LEBANON,Grafton,1,1,2,-72.177288,43.644084,-72.177951,43.64108,-72.178288,-72.176288,43.643084,43.645084
NH2453010,SUGAR HILL MANOR MHP,"9 Grandview Dr, Weare, Town of, New Hampshire, 03281",03281,New Hampshire,Region 1,Community water system,110,WEARE,Hillsborough,5,42,6,-71.755192,43.109322,-71.755121,43.10781,-71.756192,-71.754192,43.108322,43.110322
NH1392070,MIDRIDGE CONDOS,"163 Main St, Salem, Town of, New Hampshire, 03079",03079,New Hampshire,Region 1,Community water system,100,LONDONDERRY,Rockingham,1,6,4,-71.223119,42.782536,-71.223261,42.7828,-71.224119,-71.222119,42.781536,42.783536
NH0457020,GREAT MEADOW CAMPGROUND/UPPER,"8 Broken Bridge Rd, Concord, New Hampshire, 03301",03301,New Hampshire,Region 1,Transient non-community system,35,CHICHESTER,Merrimack,1,14,3,-71.496967,43.184949,-71.497811,43.1846,-71.497967,-71.495967,43.183949,43.185949
NH1553010,BOBS MOBILE HOME PARK,"22 Castle Dr, Milan, Town of, New Hampshire, 03588",03588,New Hampshire,Region 1,Community water system,55,MILAN,Coos,1,40,3,-71.17273,44.562182,-71.172721,44.56197,-71.17373,-71.17173,44.561182,44.563182
NH0217030,CROTCHED MOUNTAIN SKI AREA,"615 Francestown Rd, Bennington, Town of, New Hampshire, 03442",03442,New Hampshire,Region 1,Transient non-community system,1500,BENNINGTON,Hillsborough,1,2,2,-71.879001,43.012983,-71.879081,43.01288,-71.880001,-71.878001,43.011983,43.013983
NH2147010,TIMBERLAND CMPGRND AND RV PRK,"809 US-2, Gorham, New Hampshire, 03581",03581,New Hampshire,Region 1,Transient non-community system,250,SHELBURNE,Coos,2,0,2,-71.093629,44.407164,-71.093629,44.407164,-71.103629,-71.083629,44.397164,44.417164
NH1657020,FELLS GATEHOUSE,"03255, Mount Sunapee, New Hampshire",03255,New Hampshire,Region 1,Transient non-community system,50,NEWBURY,Merrimack,1,1,2,-72.037721,43.321361,-72.037721,43.321361,-72.122721,-71.952721,43.236361,43.406361
NH1971010,RAYMOND WATER DEPT,"4 Epping St, Raymond, Town of, New Hampshire, 03077",03077,New Hampshire,Region 1,Community water system,2682,RAYMOND,Rockingham,8,4,3,-71.183135,43.036677,-71.183161,43.03678,-71.184135,-71.182135,43.035677,43.037677
NH2082060,CORNERSTONE ESTATES,"54 Sawyer Ave, Atkinson, Town of, New Hampshire, 03811",03811,New Hampshire,Region 1,Community water system,202,SANDOWN,Rockingham,3,0,3,-71.15376,42.822176,-71.155201,42.82388,-71.15476,-71.15276,42.821176,42.823176
NH0616040,BROOKSTONE PARK/EAST,"03079, Salem, New Hampshire",03079,New Hampshire,Region 1,Non-Transient non-community system,25,DERRY,Rockingham,3,10,5,-71.223211,42.832791,-71.223211,42.832791,-71.319211,-71.127211,42.736791,42.928791
NH1182040,PEU/SMYTHE WOODS,"03054, Merrimack, New Hampshire",03054,New Hampshire,Region 1,Community water system,160,HOOKSETT,Merrimack,1,1,4,-71.496412,42.84014,-71.496412,42.84014,-71.580412,-71.412412,42.75614,42.92414
NH0341010,CAMPTON VILLAGE PCT,"03223, Campton, New Hampshire",03223,New Hampshire,Region 1,Community water system,595,CAMPTON,Grafton,6,114,3,-71.640395,43.851718,-71.640395,43.851718,-71.957395,-71.323395,43.534718,44.168718
NH1858090,DUNKIN DONUTS/BASKIN ROBBINS,"123 Bridge St, Pelham, Town of, New Hampshire, 03076",03076,New Hampshire,Region 1,Transient non-community system,125,PELHAM,Hillsborough,2,23,2,-71.319789,42.720249,-71.320671,42.72024,-71.320789,-71.318789,42.719249,42.721249
NH0353020,PLEASANT VALLEY MHP,"201 Loudon Rd, Concord, New Hampshire, 03301",03301,New Hampshire,Region 1,Community water system,73,CANAAN,Grafton,2,29,3,-71.500144,43.219345,-71.500581,43.2198,-71.501144,-71.499144,43.218345,43.220345
NH2531010,WINCHESTER WATER DEPT,"03470, Richmond, New Hampshire",03470,New Hampshire,Region 1,Community water system,2800,WINCHESTER,Cheshire,6,3,3,-72.383586,42.771637,-72.383586,42.771637,-72.563586,-72.203586,42.591637,42.951637
NH1021010,HALES LOCATION,"03860, Hales Lctn, New Hampshire",03860,New Hampshire,Region 1,Community water system,385,HALES LOCATION,Carroll,3,2,4,-71.123646,44.053392,-71.123646,44.053392,-71.208646,-71.038646,43.968392,44.138392
NH0867180,BLUFFS RV RESORT,"03849, Madison, New Hampshire",03849,New Hampshire,Region 1,Transient non-community system,625,FREEDOM,Carroll,2,0,1,-71.141891,43.93966,-71.141891,43.93966,-71.291891,-70.991891,43.78966,44.08966
NH2539010,MONADNOCK SPEEDWAY,"10 Hollow Oak Ln, Milford, Town of, New Hampshire, 03055",03055,New Hampshire,Region 1,Transient non-community system,1000,WINCHESTER,Cheshire,1,12,2,-71.690578,42.841524,-71.691201,42.84156,-71.691578,-71.689578,42.840524,42.842524
NH1287050,RICHHAVEN COTTAGES,"110 Weirs Blvd, Laconia, New Hampshire, 03246",03246,New Hampshire,Region 1,Transient non-community system,33,LACONIA,Belknap,2,2,2,-71.450618,43.570919,-71.450618,43.570919,-71.460618,-71.440618,43.560919,43.580919
NH0067080,CAMP BROOKWOOD/DEER RUN,"34 Camp Brookwoods Rd, Alton, Town of, New Hampshire, 03809",03809,New Hampshire,Region 1,Transient non-community system,200,ALTON,Belknap,2,0,2,-71.230724,43.524018,-71.228961,43.52399,-71.231724,-71.229724,43.523018,43.525018
NH0097040,CAMP CHENOA/LOWER,"02492, Needham, Massachusetts",02492,New Hampshire,Region 1,Transient non-community system,300,ANTRIM,Hillsborough,2,1,2,-71.239144,42.277906,-71.239144,42.277906,-71.300144,-71.178144,42.216906,42.338906
NH0888320,HARRIS SHORE CONDOS,"780 Boylston St, Boston, Massachusetts, 02199",02199,New Hampshire,Region 1,Transient non-community system,25,GILFORD,Belknap,1,2,2,-71.081355,42.348942,-71.080811,42.34817,-71.082355,-71.080355,42.347942,42.349942
NH1177040,SILVER LAKE STATE PARK,"12 Podunk Rd, Allenstown, Town of, New Hampshire, 03275",03275,New Hampshire,Region 1,Transient non-community system,250,HOLLIS,Hillsborough,1,5,4,-71.355233,43.144595,-71.355233,43.144595,-71.365233,-71.345233,43.134595,43.154595
NH1936230,519 PLAISTOW RD PLAZA,"125 Half Mile Rd, Middletown Twp, New Jersey, 07701",07701,New Hampshire,Region 1,Non-Transient non-community system,75,PLAISTOW,Rockingham,7,90,3,-74.096167,40.339913,-74.093581,40.33956,-74.097167,-74.095167,40.338913,40.340913
NH1645020,STRONG BEGINNINGS,"643 N Mast Rd, New Boston, Town of, New Hampshire, 03070",03070,New Hampshire,Region 1,Non-Transient non-community system,139,NEW BOSTON,Hillsborough,2,80,5,-71.64738,43.029065,-71.648071,43.02858,-71.64838,-71.64638,43.028065,43.030065
NH0847010,AMC GREENLEAF HUT,"03581, Gorham, New Hampshire",03581,New Hampshire,Region 1,Transient non-community system,53,FRANCONIA,Grafton,1,0,2,-71.176241,44.388341,-71.176241,44.388341,-71.339241,-71.013241,44.225341,44.551341
NH2358030,ANCHORAGE ON LAKE WINNISQUAM,"225 Water St, Plymouth, Town of, Massachusetts, 02360",02360,New Hampshire,Region 1,Transient non-community system,80,TILTON,Belknap,1,13,2,-70.670916,41.964955,-70.670391,41.96538,-70.671916,-70.669916,41.963955,41.965955
NH2525010,HIGH MOWING SCH,"222 Isaac Frye Hwy, Wilton, Town of, New Hampshire, 03086",03086,New Hampshire,Region 1,Non-Transient non-community system,140,WILTON,Hillsborough,6,15,8,-71.754543,42.817643,-71.754621,42.81755,-71.755543,-71.753543,42.816643,42.818643
NH0773010,KINGSTOWNE MHP,"1 Parkwood Dr, Suncook, New Hampshire, 03275",03275,New Hampshire,Region 1,Community water system,350,EPSOM,Merrimack,6,26,5,-71.437887,43.12391,-71.437887,43.12391,-71.447887,-71.427887,43.11391,43.13391
NH2307060,CHESHIRE FAIRGROUNDS,"247 Monadnock Hwy, Swanzey, New Hampshire, 03446",03446,New Hampshire,Region 1,Transient non-community system,25,SWANZEY,Cheshire,3,5,2,-72.249712,42.896445,-72.249712,42.896445,-72.259712,-72.239712,42.886445,42.906445
NH1168200,SQUAM LAKE MARKET PLACE,"03245, Holderness, New Hampshire",03245,New Hampshire,Region 1,Transient non-community system,25,HOLDERNESS,Grafton,1,10,3,-71.585268,43.731235,-71.585268,43.731235,-71.680268,-71.490268,43.636235,43.826235
NH1997060,WILDWOOD/WELL SPOT,"03461, Rindge, New Hampshire",03461,New Hampshire,Region 1,Transient non-community system,110,RINDGE,Cheshire,1,8,2,-72.016586,42.782514,-72.016586,42.782514,-72.104586,-71.928586,42.694514,42.870514
NH0448240,BIG DEAL,"1474 Route 9, Chesterfield, Town of, New Hampshire, 03462",03462,New Hampshire,Region 1,Transient non-community system,50,CHESTERFIELD,Cheshire,2,2,1,-72.430939,42.899672,-72.430771,42.89872,-72.431939,-72.429939,42.898672,42.900672
NH2455080,WEARE MIDDLE SCH,"258 Western Ave, Henniker, Town of, New Hampshire, 03242",03242,New Hampshire,Region 1,Non-Transient non-community system,500,WEARE,Hillsborough,3,1,2,-71.831945,43.179746,-71.832011,43.18011,-71.832945,-71.830945,43.178746,43.180746
NH1856010,PELHAM PLAZA,"1 Washington St, Wellesley Hills, Massachusetts, 02481",02481,New Hampshire,Region 1,Non-Transient non-community system,100,PELHAM,Hillsborough,4,38,4,-71.259157,42.325249,-71.259157,42.325249,-71.269157,-71.249157,42.315249,42.335249
NH1405010,LOUDON ELEMENTARY SCH,"School St, Concord, New Hampshire, 03301",03301,New Hampshire,Region 1,Non-Transient non-community system,355,LOUDON,Merrimack,1,1,4,-71.548618,43.203141,-71.548618,43.203141,-71.561618,-71.535618,43.190141,43.216141
NH1618350,SUBWAY OF MOULTONBOROUGH,"377 Whittier Hwy, Moultonborough, New Hampshire, 03254",03254,New Hampshire,Region 1,Transient non-community system,80,MOULTONBOROUGH,Carroll,2,5,2,-71.431919,43.722307,-71.431919,43.722307,-71.441919,-71.421919,43.712307,43.732307
NH1522030,EASTBLUFF VILLAGE CONDOS,"74 Bennett St, Hudson, Town of, Massachusetts, 01749",01749,New Hampshire,Region 1,Community water system,48,MEREDITH,Belknap,1,19,4,-71.556462,42.401272,-71.556891,42.40152,-71.557462,-71.555462,42.400272,42.402272
NH1972070,PEU/CLEARWATER ESTATES,"03054, Merrimack, New Hampshire",03054,New Hampshire,Region 1,Community water system,98,RAYMOND,Rockingham,3,1,5,-71.496412,42.84014,-71.496412,42.84014,-71.580412,-71.412412,42.75614,42.92414
NH1843020,SANDY RIDGE ESTATES,"03864, Ossipee, New Hampshire",03864,New Hampshire,Region 1,Community water system,125,OSSIPEE,Carroll,4,69,6,-71.115222,43.689827,-71.115222,43.689827,-71.217222,-71.013222,43.587827,43.791827
NH2236040,BELL AND FLYNN,"386 Whittier Dr, Fremont, Town of, New Hampshire, 03044",03044,New Hampshire,Region 1,Non-Transient non-community system,29,STRATHAM,Rockingham,2,5,3,-71.167488,42.978476,-71.167131,42.97841,-71.168488,-71.166488,42.977476,42.979476
NH1515010,MASON PUBLIC SCH,"9 Columbia Dr, Amherst, Town of, New Hampshire, 03031",03031,New Hampshire,Region 1,Non-Transient non-community system,100,MASON,Hillsborough,2,2,4,-71.579175,42.806644,-71.579811,42.80603,-71.580175,-71.578175,42.805644,42.807644
NH1278140,MR MIKES MINI MART 13,"15 Main St, Gray, Town of, Maine, 04039",04039,New Hampshire,Region 1,Transient non-community system,30,KINGSTON,Rockingham,4,7,3,-70.329565,43.886681,-70.330031,43.88713,-70.330565,-70.328565,43.885681,43.887681
NH1932050,TWIN RIDGE CONDOS,"03054, Merrimack, New Hampshire",03054,New Hampshire,Region 1,Community water system,485,PLAISTOW,Rockingham,9,3,3,-71.496412,42.84014,-71.496412,42.84014,-71.580412,-71.412412,42.75614,42.92414
NH0148080,BLUEBERRY STATION/MOBIL GAS,"03218, Barnstead, New Hampshire",03218,New Hampshire,Region 1,Transient non-community system,200,BARNSTEAD,Belknap,1,0,2,-71.292087,43.333984,-71.292087,43.333984,-71.368087,-71.216087,43.257984,43.409984
NH2318100,SONGBIRD CHINESE RESTAURANT,"03890, West Ossipee, New Hampshire",03890,New Hampshire,Region 1,Transient non-community system,25,TAMWORTH,Carroll,1,3,3,-71.180325,43.8222,-71.180325,43.8222,-71.273325,-71.087325,43.7292,43.9152
NH0168040,STORYBOOK INN/DAIRY QUEEN,"03838, Glen, New Hampshire",03838,New Hampshire,Region 1,Transient non-community system,300,BARTLETT,Carroll,3,1,2,-71.181778,44.11327,-71.181778,44.11327,-71.302778,-71.060778,43.99227,44.23427
NH1432010,POND VIEW APARTMENTS,"21 School St, Lebanon, New Hampshire, 03766",03766,New Hampshire,Region 1,Community water system,38,LYME,Grafton,2,9,3,-72.249563,43.640589,-72.249563,43.640589,-72.259563,-72.239563,43.630589,43.650589
NH1612270,STANYAN ROAD,"03254, Moultonborough, New Hampshire",03254,New Hampshire,Region 1,Community water system,108,MOULTONBOROUGH,Carroll,5,118,5,-71.362663,43.725563,-71.362663,43.725563,-71.532663,-71.192663,43.555563,43.895563
NH2398020,KNOTTY PINE GRILL AND TAVERN,"03850, Melvin Village, New Hampshire",03850,New Hampshire,Region 1,Transient non-community system,150,WAKEFIELD,Carroll,2,1,2,-71.304082,43.688886,-71.304082,43.688886,-71.330082,-71.278082,43.662886,43.714886
NH1973030,PEU/GREEN HILLS ESTS,"03054, Merrimack, New Hampshire",03054,New Hampshire,Region 1,Community water system,608,RAYMOND,Rockingham,1,2,3,-71.496412,42.84014,-71.496412,42.84014,-71.580412,-71.412412,42.75614,42.92414
NH2458040,COLBURNS COUNTRY STORE,"119 Concord Stage Rd, Weare, Town of, New Hampshire, 03281",03281,New Hampshire,Region 1,Transient non-community system,100,WEARE,Hillsborough,1,0,2,-71.742782,43.112316,-71.743051,43.11238,-71.743782,-71.741782,43.111316,43.113316
NH0897020,CAMP BELL,"7 Daniel Webster Way, Gilmanton, Town of, New Hampshire, 03837",03837,New Hampshire,Region 1,Transient non-community system,114,GILMANTON,Belknap,1,3,2,-71.311168,43.464474,-71.311168,43.464474,-71.321168,-71.301168,43.454474,43.474474
NH0828010,FITZWILLIAM INN,"03447, Fitzwilliam, New Hampshire",03447,New Hampshire,Region 1,Transient non-community system,100,FITZWILLIAM,Cheshire,1,13,4,-72.144805,42.780399,-72.144805,42.780399,-72.218805,-72.070805,42.706399,42.854399
NH1913010,GRIGGS MOBILE HOMES,"03234, Epsom, New Hampshire",03234,New Hampshire,Region 1,Community water system,73,PITTSFIELD,Merrimack,1,40,3,-71.385226,43.196843,-71.385226,43.196843,-71.508226,-71.262226,43.073843,43.319843
NH2236090,RCN CONDOS,"03235, Franklin, New Hampshire",03235,New Hampshire,Region 1,Non-Transient non-community system,75,STRATHAM,Rockingham,4,70,5,-71.642802,43.443961,-71.642802,43.443961,-71.732802,-71.552802,43.353961,43.533961
NH2411010,WARNER VILLAGE WATER DIST,"03278, Warner, New Hampshire",03278,New Hampshire,Region 1,Community water system,550,WARNER,Merrimack,5,13,3,-71.814138,43.280014,-71.814138,43.280014,-71.935138,-71.693138,43.159014,43.401014
NH0618110,ISLAND POND CONVENIENCE,"46 Lowell Rd, Windham, Town of, New Hampshire, 03087",03087,New Hampshire,Region 1,Transient non-community system,130,DERRY,Rockingham,1,9,2,-71.307708,42.790849,-71.308871,42.79083,-71.308708,-71.306708,42.789849,42.791849
NH1677080,LAKE WINNIPESAUKEE GOLF CLUB,"1 Lake Winnipesaukee Dr, New Durham, Town of, New Hampshire, 03855",03855,New Hampshire,Region 1,Transient non-community system,100,NEW DURHAM,Strafford,3,1,2,-71.137751,43.540737,-71.137751,43.540737,-71.147751,-71.127751,43.530737,43.550737
NH1167160,SQUAM LAKE SCIENCE CENTER,"107 Hardhack Rd, Holderness, Town of, New Hampshire, 03245",03245,New Hampshire,Region 1,Transient non-community system,75,HOLDERNESS,Grafton,1,5,2,-71.622242,43.754046,-71.622681,43.75379,-71.623242,-71.621242,43.753046,43.755046
NH1848300,M AND  V CONVENIENCE/ VIDEO,"03890, West Ossipee, New Hampshire",03890,New Hampshire,Region 1,Transient non-community system,25,OSSIPEE,Carroll,1,4,2,-71.180325,43.8222,-71.180325,43.8222,-71.273325,-71.087325,43.7292,43.9152
NH0203010,CATES MPH,"31 Chapman Rd, Sanbornton, Town of, New Hampshire, 03269",03269,New Hampshire,Region 1,Community water system,134,BELMONT,Belknap,1,2,3,-71.523155,43.500004,-71.523231,43.49994,-71.524155,-71.522155,43.499004,43.501004
NH0802020,EXETER HIGHLANDS,"1 Oak Hill Ln, Exeter, Town of, New Hampshire, 03833",03833,New Hampshire,Region 1,Community water system,50,EXETER,Rockingham,1,7,4,-70.971567,43.00996,-70.971731,43.00998,-70.972567,-70.970567,43.00896,43.01096
NH2568080,NICK RECREATIONAL PARK,"03894, Wolfeboro, New Hampshire",03894,New Hampshire,Region 1,Transient non-community system,25,WOLFEBORO,Carroll,1,0,2,-71.208607,43.58173,-71.208607,43.58173,-71.350607,-71.066607,43.43973,43.72373
NH0269090,514 SOUTH ST,"844 Mass Ave, Lexington, Town of, Massachusetts, 02420",02420,New Hampshire,Region 1,Transient non-community system,30,BOW,Merrimack,1,6,1,-71.207897,42.431241,-71.208091,42.43122,-71.208897,-71.206897,42.430241,42.432241
NH0775020,EPSOM MEDICAL CENTER,"11 Court St, Exeter, Town of, New Hampshire, 03833",03833,New Hampshire,Region 1,Non-Transient non-community system,25,EPSOM,Merrimack,3,6,3,-70.946957,42.97966,-70.947311,42.97962,-70.947957,-70.945957,42.97866,42.98066
NH0771020,KINGS GRANT,"03234, Epsom, New Hampshire",03234,New Hampshire,Region 1,Community water system,71,EPSOM,Merrimack,3,1,3,-71.385226,43.196843,-71.385226,43.196843,-71.508226,-71.262226,43.073843,43.319843
NH1762010,HIGHLAND VILLAGE DISTRICT,"501 Bean Hill Rd, Northfield, Town of, New Hampshire, 03276",03276,New Hampshire,Region 1,Community water system,100,NORTHFIELD,Merrimack,5,56,4,-71.553842,43.410255,-71.553842,43.410255,-71.563842,-71.543842,43.400255,43.420255
NH1345010,GOSHEN LEMPSTER COOP SCH,"29 School Rd, Lempster, New Hampshire, 03605",03605,New Hampshire,Region 1,Non-Transient non-community system,160,LEMPSTER,Sullivan,4,25,3,-72.166206,43.2487,-72.166206,43.2487,-72.176206,-72.156206,43.2387,43.2587
NH0159020,INTERVENTIONAL SPINE MEDICINE,"944 Calef Hwy, Barrington, Town of, New Hampshire, 03825",03825,New Hampshire,Region 1,Transient non-community system,75,BARRINGTON,Strafford,2,1,2,-70.999397,43.182999,-71.000321,43.18313,-71.000397,-70.998397,43.181999,43.183999
NH0116040,PALMER GAS,"13 Hall Farm Rd, Atkinson, Town of, New Hampshire, 03811",03811,New Hampshire,Region 1,Non-Transient non-community system,45,ATKINSON,Rockingham,2,24,2,-71.198717,42.851088,-71.197281,42.85043,-71.199717,-71.197717,42.850088,42.852088
NH0447080,PINE GROVE SPRINGS,"03467, Westmoreland, New Hampshire",03467,New Hampshire,Region 1,Transient non-community system,150,CHESTERFIELD,Cheshire,2,3,2,-72.460669,42.979971,-72.460669,42.979971,-72.560669,-72.360669,42.879971,43.079971
NH0805030,EXETER UNITED METHODIST CHURCH,"307 Epping Rd, Exeter, Town of, New Hampshire, 03833",03833,New Hampshire,Region 1,Non-Transient non-community system,57,EXETER,Rockingham,4,5,3,-71.005383,43.011876,-71.004801,43.01288,-71.006383,-71.004383,43.010876,43.012876
NH2519010,WILMOT COMMUNITY CENTER,"64 Village Rd, Wilmot, Town of, New Hampshire, 03287",03287,New Hampshire,Region 1,Transient non-community system,25,WILMOT,Merrimack,1,2,2,-71.902178,43.415544,-71.902601,43.41586,-71.903178,-71.901178,43.414544,43.416544
NH1852020,PEU/GAGE HILL,"03054, Merrimack, New Hampshire",03054,New Hampshire,Region 1,Community water system,68,PELHAM,Hillsborough,2,25,3,-71.496412,42.84014,-71.496412,42.84014,-71.580412,-71.412412,42.75614,42.92414
NH0595040,LONGVIEW SCH,"03031, Amherst, New Hampshire",03031,New Hampshire,Region 1,Non-Transient non-community system,40,DEERFIELD,Rockingham,1,3,3,-71.584753,42.877001,-71.584753,42.877001,-71.666753,-71.502753,42.795001,42.959001
NH1333020,PINE KNOLL VILLAGE,"80 Beacon St, Marblehead, Town of, Massachusetts, 01945",01945,New Hampshire,Region 1,Community water system,200,LEE,Strafford,2,29,4,-70.848267,42.515005,-70.848267,42.515005,-70.858267,-70.838267,42.505005,42.525005
NH0162050,NORTH LEDGE,"03838, Glen, New Hampshire",03838,New Hampshire,Region 1,Community water system,110,BARTLETT,Carroll,4,93,3,-71.181778,44.11327,-71.181778,44.11327,-71.302778,-71.060778,43.99227,44.23427
NH0666010,YANKEE PUBLISHING,"03444, Dublin, New Hampshire",03444,New Hampshire,Region 1,Non-Transient non-community system,60,DUBLIN,Cheshire,2,1,5,-72.021461,42.906558,-72.021461,42.906558,-72.156461,-71.886461,42.771558,43.041558
NH1392260,PEU/SPRINGWOOD HILLS,"03054, Merrimack, New Hampshire",03054,New Hampshire,Region 1,Community water system,218,LONDONDERRY,Rockingham,1,1,3,-71.496412,42.84014,-71.496412,42.84014,-71.580412,-71.412412,42.75614,42.92414
NH0666030,DUBLIN VILLAGE PARK,"03444, Dublin, New Hampshire",03444,New Hampshire,Region 1,Non-Transient non-community system,44,DUBLIN,Cheshire,2,2,3,-72.021461,42.906558,-72.021461,42.906558,-72.156461,-71.886461,42.771558,43.041558
NH0077030,AMHERST COUNTRY CLUB,"72 Ponemah Rd, Amherst, New Hampshire, 03031",03031,New Hampshire,Region 1,Transient non-community system,180,AMHERST,Hillsborough,1,7,2,-71.608363,42.827943,-71.608363,42.827943,-71.618363,-71.598363,42.817943,42.837943
NH1177020,ALPINE GROVE BANQUET FACILITY,"25 Irene Dr, Hollis, Town of, New Hampshire, 03049",03049,New Hampshire,Region 1,Transient non-community system,300,HOLLIS,Hillsborough,2,2,2,-71.617867,42.716054,-71.617481,42.71568,-71.618867,-71.616867,42.715054,42.717054
NH1182050,PEU/WESCO UTILITIES,"03054, Merrimack, New Hampshire",03054,New Hampshire,Region 1,Community water system,140,HOOKSETT,Merrimack,3,54,3,-71.496412,42.84014,-71.496412,42.84014,-71.580412,-71.412412,42.75614,42.92414
NH0841010,FRANCONIA VILLAGE WATER,"03580, Easton, New Hampshire",03580,New Hampshire,Region 1,Community water system,750,FRANCONIA,Grafton,9,35,15,-71.744482,44.223651,-71.744482,44.223651,-71.961482,-71.527482,44.006651,44.440651
NH0512060,FOREST EDGE,"03845, Intervale, New Hampshire",03845,New Hampshire,Region 1,Community water system,118,CONWAY,Carroll,5,9,5,-71.132908,44.079064,-71.132908,44.079064,-71.338908,-70.926908,43.873064,44.285064
NH2347010,PEMI RIVER CAMPGROUND,"2458 US Route 3, Thornton, Town of, New Hampshire, 03285",03285,New Hampshire,Region 1,Transient non-community system,93,THORNTON,Grafton,3,4,2,-71.664128,43.872547,-71.664128,43.872547,-71.674128,-71.654128,43.862547,43.882547
NH1298040,CABOT INN AND SUITES,"104 Princeton Ave, Waltham, Massachusetts, 02451",02451,New Hampshire,Region 1,Transient non-community system,190,LANCASTER,Coos,3,3,2,-71.243468,42.402128,-71.243321,42.4021,-71.244468,-71.242468,42.401128,42.403128
NH1196030,MCLANE NORTHEAST,"932 Maple St, Hopkinton, Town of, New Hampshire, 03229",03229,New Hampshire,Region 1,Non-Transient non-community system,300,HOPKINTON,Merrimack,2,41,6,-71.712228,43.199907,-71.713291,43.20213,-71.713228,-71.711228,43.198907,43.200907
NH2447050,WATERVILLE CAMPGROUND II,"105 Fletcher Farm Rd, Bristol, New Hampshire, 03222",03222,New Hampshire,Region 1,Transient non-community system,100,WATERVILLE VLY,Grafton,1,1,2,-71.793569,43.602875,-71.793569,43.602875,-71.803569,-71.783569,43.592875,43.612875
NH2078010,STEELE HILL RESORT,"516 Steele Hill Rd, Sanbornton, Town of, New Hampshire, 03269",03269,New Hampshire,Region 1,Non-Transient non-community system,365,SANBORNTON,Belknap,8,7,3,-71.573634,43.545168,-71.573751,43.54512,-71.574634,-71.572634,43.544168,43.546168
NH1932180,TUXBURY MEADOWS,"21 Tuxbury Rd, Plaistow, Town of, New Hampshire, 03865",03865,New Hampshire,Region 1,Community water system,75,PLAISTOW,Rockingham,3,35,4,-71.095981,42.851703,-71.096221,42.85185,-71.096981,-71.094981,42.850703,42.852703
NH2561010,WOLFEBORO WATER AND SEWER,"03894, Wolfeboro, New Hampshire",03894,New Hampshire,Region 1,Community water system,5750,WOLFEBORO,Carroll,2,24,5,-71.208607,43.58173,-71.208607,43.58173,-71.350607,-71.066607,43.43973,43.72373
NH0196190,BAINBRIDGE PARK,"03110, New Hampshire",03110,New Hampshire,Region 1,Non-Transient non-community system,50,BEDFORD,Hillsborough,2,112,3,-71.469421,42.942761,-71.469421,42.942761,-71.617421,-71.321421,42.794761,43.090761
NH0512210,NEAR LEDGE,"03860, Hales Lctn, New Hampshire",03860,New Hampshire,Region 1,Community water system,63,CONWAY,Carroll,2,0,4,-71.123646,44.053392,-71.123646,44.053392,-71.208646,-71.038646,43.968392,44.138392
NH1652020,CHALK POND WATER,"01720, Acton, Massachusetts",01720,New Hampshire,Region 1,Community water system,200,NEWBURY,Merrimack,7,24,7,-71.441319,42.484011,-71.441319,42.484011,-71.498319,-71.384319,42.427011,42.541011
NH1618050,BERRY POND MOTEL,"03254, Moultonborough, New Hampshire",03254,New Hampshire,Region 1,Transient non-community system,180,MOULTONBOROUGH,Carroll,1,2,2,-71.362663,43.725563,-71.362663,43.725563,-71.532663,-71.192663,43.555563,43.895563
NH2546220,FIVE INDUSTRIAL DR,"03053, Londonderry, New Hampshire",03053,New Hampshire,Region 1,Non-Transient non-community system,40,WINDHAM,Rockingham,2,0,1,-71.365153,42.879317,-71.365153,42.879317,-71.449153,-71.281153,42.795317,42.963317
NH1852100,BOULDER HILLS,"03054, Merrimack, New Hampshire",03054,New Hampshire,Region 1,Community water system,39,PELHAM,Hillsborough,2,2,2,-71.496412,42.84014,-71.496412,42.84014,-71.580412,-71.412412,42.75614,42.92414
NH0067070,ALTON SHORES DEVELOPMENT/NORTH,"03810, Alton Bay, New Hampshire",03810,New Hampshire,Region 1,Transient non-community system,83,ALTON,Belknap,1,7,2,-71.240526,43.488123,-71.240526,43.488123,-71.327526,-71.153526,43.401123,43.575123
NH0068010,BAYSIDE INN,"86 RT-11D, Alton, Town of, New Hampshire, 03810",03810,New Hampshire,Region 1,Transient non-community system,60,ALTON,Belknap,1,1,3,-71.261563,43.502917,-71.261091,43.50307,-71.262563,-71.260563,43.501917,43.503917
NH0168090,WILLS INN,"03812, Bartlett, New Hampshire",03812,New Hampshire,Region 1,Transient non-community system,55,BARTLETT,Carroll,2,5,2,-71.283072,44.081431,-71.283072,44.081431,-71.456072,-71.110072,43.908431,44.254431
NH0768140,HAVEN RESTAURANT,"268 Calef Hwy, Epping, Town of, New Hampshire, 03042",03042,New Hampshire,Region 1,Transient non-community system,50,EPPING,Rockingham,2,7,2,-71.063403,43.042372,-71.063541,43.04244,-71.064403,-71.062403,43.041372,43.043372
NH0207070,WINNISQUAM BEACH CAMPGROUND,"142 Church St, Laconia, New Hampshire, 03246",03246,New Hampshire,Region 1,Transient non-community system,348,BELMONT,Belknap,6,2,2,-71.464961,43.531546,-71.465061,43.53168,-71.465961,-71.463961,43.530546,43.532546
NH0015010,ACWORTH PRIMARY SCH,"03602, Alstead, New Hampshire",03602,New Hampshire,Region 1,Non-Transient non-community system,32,ACWORTH,Sullivan,1,22,4,-72.356091,43.153859,-72.356091,43.153859,-72.469091,-72.243091,43.040859,43.266859
NH0027050,JIGGER JOHNSON CAMPGROUND,"105 Fletcher Farm Rd, Bristol, New Hampshire, 03222",03222,New Hampshire,Region 1,Transient non-community system,500,ALBANY,Carroll,1,0,2,-71.793569,43.602875,-71.793569,43.602875,-71.803569,-71.783569,43.592875,43.612875
NH1848060,WHITTIER HOUSE RESTAURANT,"03890, West Ossipee, New Hampshire",03890,New Hampshire,Region 1,Transient non-community system,150,OSSIPEE,Carroll,1,19,2,-71.180325,43.8222,-71.180325,43.8222,-71.273325,-71.087325,43.7292,43.9152
NH0612210,OLD COACH VILLAGE,"7 Clyde Rd, Derry, Town of, New Hampshire, 03038",03038,New Hampshire,Region 1,Community water system,50,DERRY,Rockingham,4,10,4,-71.286661,42.851026,-71.286531,42.85096,-71.287661,-71.285661,42.850026,42.852026
NH1758020,A AND M JUNCTION VARIETY,"03859, Newton Junction, New Hampshire",03859,New Hampshire,Region 1,Transient non-community system,32,NEWTON,Rockingham,2,27,2,-71.067752,42.868381,-71.067752,42.868381,-71.072752,-71.062752,42.863381,42.873381
NH1338010,WENDYS RESTAURANT,"146 Londonderry Tpke, Hooksett, Town of, New Hampshire, 03106",03106,New Hampshire,Region 1,Transient non-community system,500,LEE,Strafford,3,3,2,-71.410914,43.029955,-71.413301,43.02944,-71.411914,-71.409914,43.028955,43.030955
NH0448150,RIVERSIDE HOTEL,"RT-9, Chesterfield, Town of, New Hampshire, 03466",03466,New Hampshire,Region 1,Transient non-community system,200,CHESTERFIELD,Cheshire,3,10,2,-72.513901,42.896785,-72.513901,42.896785,-72.554901,-72.472901,42.855785,42.937785
NH2577080,WATEREST CAMPGROUND,"03293, Woodstock, New Hampshire",03293,New Hampshire,Region 1,Transient non-community system,90,WOODSTOCK,Grafton,1,0,2,-71.684071,43.9802,-71.684071,43.9802,-71.689071,-71.679071,43.9752,43.9852
NH0728010,EATON VILLAGE STORE,"03832, Eaton Center, New Hampshire",03832,New Hampshire,Region 1,Transient non-community system,25,EATON,Carroll,1,12,2,-71.088551,43.915151,-71.088551,43.915151,-71.101551,-71.075551,43.902151,43.928151
NH2568030,ALLEN A RESORT,"03226, Center Harbor, New Hampshire",03226,New Hampshire,Region 1,Transient non-community system,105,WOLFEBORO,Carroll,1,1,2,-71.46352,43.706634,-71.46352,43.706634,-71.58152,-71.34552,43.588634,43.824634
NH0619030,BROOKSTONE PARK/WEST,"9 Red Roof Ln, Salem, Town of, New Hampshire, 03079",03079,New Hampshire,Region 1,Transient non-community system,35,DERRY,Rockingham,2,0,2,-71.240013,42.780416,-71.239911,42.78035,-71.241013,-71.239013,42.779416,42.781416
NH1998080,FOGGS MINIMART,"462 US Highway 202, Rindge, Town of, New Hampshire, 03461",03461,New Hampshire,Region 1,Transient non-community system,250,RINDGE,Cheshire,2,2,2,-72.038577,42.760986,-72.040191,42.76116,-72.039577,-72.037577,42.759986,42.761986
NH2148030,TOWN AND COUNTRY MOTOR INN,"03581, Gorham, New Hampshire",03581,New Hampshire,Region 1,Transient non-community system,383,SHELBURNE,Coos,2,1,3,-71.176241,44.388341,-71.176241,44.388341,-71.339241,-71.013241,44.225341,44.551341
NH2546090,COMMONS AT WINDHAM 1/WEST BLDG,"25 Indian Rock Rd, Windham, Town of, New Hampshire, 03087",03087,New Hampshire,Region 1,Transient non-community system,25,WINDHAM,Rockingham,1,4,1,-71.295335,42.805657,-71.295621,42.80699,-71.296335,-71.294335,42.804657,42.806657
NH2206010,CARLISLE WIDE PLANK FLOORS,"1676 RT-9, Stoddard, Town of, New Hampshire, 03464",03464,New Hampshire,Region 1,Non-Transient non-community system,70,STODDARD,Cheshire,3,6,4,-72.077352,43.038163,-72.076431,43.03677,-72.078352,-72.076352,43.037163,43.039163
NH2281010,SURRY VILLAGE WATER,"18 Crain Rd, Surry, Town of, New Hampshire, 03431",03431,New Hampshire,Region 1,Community water system,50,SURRY,Cheshire,2,111,5,-72.32281,43.017566,-72.322851,43.01763,-72.32381,-72.32181,43.016566,43.018566
NH1078010,PIERCES COUNTRY INN,"261 Dogford Rd, Etna, New Hampshire, 03750",03750,New Hampshire,Region 1,Transient non-community system,30,HANOVER,Grafton,2,2,2,-72.215524,43.735591,-72.215524,43.735591,-72.225524,-72.205524,43.725591,43.745591
NH1427020,OGONTZ LOWER CAMP,"14 Ogontz Rd, Lisbon, New Hampshire, 03585",03585,New Hampshire,Region 1,Transient non-community system,150,LYMAN,Grafton,1,7,2,-71.909485,44.272415,-71.909485,44.272415,-71.919485,-71.899485,44.262415,44.282415
NH0887160,MEADOWBROOK FARM/STAGE,"72 Meadowbrook Ln, Gilford, Town of, New Hampshire, 03249",03249,New Hampshire,Region 1,Transient non-community system,592,GILFORD,Belknap,1,4,2,-71.410931,43.577263,-71.410931,43.577263,-71.420931,-71.400931,43.567263,43.587263
NH0958020,GRANTHAM IRVING BLUECANOE,"190 Commerce Way, Portsmouth, New Hampshire, 03801",03801,New Hampshire,Region 1,Transient non-community system,200,GRANTHAM,Sullivan,2,0,3,-70.786296,43.090914,-70.786296,43.090914,-70.796296,-70.776296,43.080914,43.100914
NH1847080,TERRACE PINES CAMPING,"03814, Ctr Ossipee, New Hampshire",03814,New Hampshire,Region 1,Transient non-community system,375,OSSIPEE,Carroll,2,6,2,-71.164821,43.783662,-71.164821,43.783662,-71.288821,-71.040821,43.659662,43.907662
NH2373010,NORTH COUNTRY VILLAGE,"1440 Lake Shore Rd, Gilford, Town of, New Hampshire, 03249",03249,New Hampshire,Region 1,Community water system,143,TUFTONBORO,Carroll,3,31,5,-71.441478,43.563207,-71.441941,43.56418,-71.442478,-71.440478,43.562207,43.564207
NH1932090,GREENFIELD HILL ESTATES,"39 Greenfield Dr, Plaistow, Town of, New Hampshire, 03865",03865,New Hampshire,Region 1,Community water system,80,PLAISTOW,Rockingham,6,20,5,-71.066241,42.837497,-71.065941,42.83732,-71.067241,-71.065241,42.836497,42.838497
NH1527200,OAK HILL GOLF COURSE,"159 Pease Rd, Meredith, Town of, New Hampshire, 03253",03253,New Hampshire,Region 1,Transient non-community system,50,MEREDITH,Belknap,2,14,2,-71.511364,43.621833,-71.513741,43.61946,-71.512364,-71.510364,43.620833,43.622833
NH2082030,REEDS CROSSING,"38 Allen St, Sandown, Town of, New Hampshire, 03873",03873,New Hampshire,Region 1,Community water system,40,SANDOWN,Rockingham,1,63,3,-71.216218,42.960983,-71.216261,42.96089,-71.217218,-71.215218,42.959983,42.961983
NH2456010,GRANITE STATE TELEPHONE,"03281, Weare, New Hampshire",03281,New Hampshire,Region 1,Non-Transient non-community system,54,WEARE,Hillsborough,4,0,3,-71.650036,43.059674,-71.650036,43.059674,-71.810036,-71.490036,42.899674,43.219674
NH2002050,GRANDVIEW ESTATES,"13 Violet Ct, Rochester, New Hampshire, 03867",03867,New Hampshire,Region 1,Community water system,30,ROCHESTER,Strafford,3,4,3,-70.983638,43.362423,-70.983671,43.36214,-70.984638,-70.982638,43.361423,43.363423
NH2089010,SANDOWN TOWN HALL FIRE STATION,"03873, Sandown, New Hampshire",03873,New Hampshire,Region 1,Transient non-community system,30,SANDOWN,Rockingham,2,7,2,-71.158492,42.90457,-71.158492,42.90457,-71.223492,-71.093492,42.83957,42.96957
NH1848100,PIZZA BARN,"1860 Route 16, Ossipee, Town of, New Hampshire, 03814",03814,New Hampshire,Region 1,Transient non-community system,200,OSSIPEE,Carroll,1,6,2,-71.178397,43.792225,-71.177601,43.79297,-71.179397,-71.177397,43.791225,43.793225
NH0447090,TOWN BEACH/NORTH SHORE,"03443, Chesterfield, New Hampshire",03443,New Hampshire,Region 1,Transient non-community system,50,CHESTERFIELD,Cheshire,1,5,2,-72.450083,42.874705,-72.450083,42.874705,-72.504083,-72.396083,42.820705,42.928705
NH0347030,MOUNTAIN VISTA RV VILLAGE,"03223, Campton, New Hampshire",03223,New Hampshire,Region 1,Transient non-community system,150,CAMPTON,Grafton,1,2,2,-71.640395,43.851718,-71.640395,43.851718,-71.957395,-71.323395,43.534718,44.168718
NH0849010,FNSP TRAM VALLEY STATION,"03580, Easton, New Hampshire",03580,New Hampshire,Region 1,Transient non-community system,900,FRANCONIA,Grafton,2,1,2,-71.744482,44.223651,-71.744482,44.223651,-71.961482,-71.527482,44.006651,44.440651
NH2342010,175 ESTATES,"03254, Moultonborough, New Hampshire",03254,New Hampshire,Region 1,Community water system,110,THORNTON,Grafton,5,1,6,-71.362663,43.725563,-71.362663,43.725563,-71.532663,-71.192663,43.555563,43.895563
NH1807010,PAWTUCKAWAY ST PK/ADMN COMPLEX,"128 Mountain Rd, Nottingham, New Hampshire, 03290",03290,New Hampshire,Region 1,Transient non-community system,75,NOTTINGHAM,Rockingham,2,3,2,-71.171222,43.076652,-71.171222,43.076652,-71.181222,-71.161222,43.066652,43.086652
NH1465010,MADISON ELEMENTARY SCH,"881 Tamworth Rd, Tamworth, Town of, New Hampshire, 03886",03886,New Hampshire,Region 1,Non-Transient non-community system,265,MADISON,Carroll,2,3,4,-71.265586,43.836367,-71.265586,43.836367,-71.275586,-71.255586,43.826367,43.846367
NH2397080,LAKE IVANHOE CAMPGROUND,"631 Acton Ridge Rd, Wakefield, Town of, New Hampshire, 03830",03830,New Hampshire,Region 1,Transient non-community system,188,WAKEFIELD,Carroll,1,1,1,-70.989997,43.604307,-70.990171,43.6074,-70.990997,-70.988997,43.603307,43.605307
NH1408020,BROOKSIDE MALL,"5 Beards Hill Rd, Bedford, Town of, New Hampshire, 03110",03110,New Hampshire,Region 1,Transient non-community system,300,LOUDON,Merrimack,1,5,2,-71.515671,42.966123,-71.516581,42.96585,-71.516671,-71.514671,42.965123,42.967123
NH2373020,BARVEL WHANG,"03850, Melvin Village, New Hampshire",03850,New Hampshire,Region 1,Transient non-community system,63,TUFTONBORO,Carroll,1,8,2,-71.304082,43.688886,-71.304082,43.688886,-71.330082,-71.278082,43.662886,43.714886
NH1875010,HAPPY VALLEY SCH,"132 Gulf Rd, Peterborough, Town of, New Hampshire, 03458",03458,New Hampshire,Region 1,Non-Transient non-community system,54,PETERBOROUGH,Hillsborough,2,25,4,-71.905728,42.918182,-71.905728,42.918182,-71.915728,-71.895728,42.908182,42.928182
NH2232040,PENINSULA AT WINDING BROOK,"03843, Hampton, New Hampshire",03843,New Hampshire,Region 1,Community water system,128,STRATHAM,Rockingham,3,8,5,-70.840111,42.93529,-70.840111,42.93529,-70.845111,-70.835111,42.93029,42.94029
NH1168010,COTTAGE PLACE ON SQUAM LAKE,"2 Flanders Rd, Meredith, Town of, New Hampshire, 03253",03253,New Hampshire,Region 1,Transient non-community system,70,HOLDERNESS,Grafton,2,6,4,-71.533144,43.628979,-71.532721,43.62898,-71.534144,-71.532144,43.627979,43.629979
NH1217010,BLACK MOUNTAIN SKI AREA,"373 Black Mountain Rd, Jackson, New Hampshire, 03846",03846,New Hampshire,Region 1,Transient non-community system,377,JACKSON,Carroll,1,0,1,-71.164885,44.165667,-71.164885,44.165667,-71.174885,-71.154885,44.155667,44.175667
NH1715020,MASCENIC REGIONAL HIGH SCH,"16 School St, Greenville, New Hampshire, 03048",03048,New Hampshire,Region 1,Non-Transient non-community system,1120,NEW IPSWICH,Hillsborough,4,66,4,-71.812039,42.766147,-71.812039,42.766147,-71.822039,-71.802039,42.756147,42.776147
NH0888400,COUNTRY COOK N AT THE LAKESIDE,"1457 Lake Shore Rd, Gilford, Town of, New Hampshire, 03249",03249,New Hampshire,Region 1,Transient non-community system,80,GILFORD,Belknap,1,7,2,-71.440772,43.563353,-71.440241,43.56263,-71.441772,-71.439772,43.562353,43.564353
NH0201020,BELMONT WATER DEPT/NORTH,"03054, Merrimack, New Hampshire",03054,New Hampshire,Region 1,Community water system,150,BELMONT,Belknap,1,2,3,-71.496412,42.84014,-71.496412,42.84014,-71.580412,-71.412412,42.75614,42.92414
NH0266020,BOVIE SCREEN PROCESS PRINTING,"03302, Concord, New Hampshire",03302,New Hampshire,Region 1,Non-Transient non-community system,36,BOW,Merrimack,3,163,4,-71.526498,43.20879,-71.526498,43.20879,-71.531498,-71.521498,43.20379,43.21379
NH0162320,PINE GLEN,"404 US-302, Bartlett, Town of, New Hampshire, 03838",03838,New Hampshire,Region 1,Transient non-community system,36,BARTLETT,Carroll,2,0,2,-71.203415,44.094372,-71.203791,44.09445,-71.204415,-71.202415,44.093372,44.095372
NH0162400,EAGLE RIDGE RESORT,"03838, Glen, New Hampshire",03838,New Hampshire,Region 1,Community water system,270,BARTLETT,Carroll,8,0,4,-71.181778,44.11327,-71.181778,44.11327,-71.302778,-71.060778,43.99227,44.23427
NH1272040,ROWELL ESTATES,"03848, Kingston, New Hampshire",03848,New Hampshire,Region 1,Community water system,62,KINGSTON,Rockingham,3,2,3,-71.076482,42.917311,-71.076482,42.917311,-71.155482,-70.997482,42.838311,42.996311
NH0158170,BARRINGTON STATION,"73 Durham Point Rd, Durham, Town of, New Hampshire, 03824",03824,New Hampshire,Region 1,Transient non-community system,125,BARRINGTON,Strafford,2,0,2,-70.905062,43.126077,-70.905101,43.12708,-70.906062,-70.904062,43.125077,43.127077
NH1197070,DUSTON COUNTRY CLUB,"40 Country Club Rd, Hopkinton, Town of, New Hampshire, 03229",03229,New Hampshire,Region 1,Transient non-community system,40,HOPKINTON,Merrimack,1,5,2,-71.742864,43.183138,-71.741411,43.18367,-71.743864,-71.741864,43.182138,43.184138
NH0231010,BERLIN WATER WORKS,"55 Willow St, Berlin, New Hampshire, 03570",03570,New Hampshire,Region 1,Community water system,9500,BERLIN,Coos,8,1,9,-71.184247,44.472648,-71.184631,44.4725,-71.185247,-71.183247,44.471648,44.473648
NH0055020,ALSTEAD PRIMARY SCH,"03602, Alstead, New Hampshire",03602,New Hampshire,Region 1,Non-Transient non-community system,177,ALSTEAD,Cheshire,1,0,4,-72.356091,43.153859,-72.356091,43.153859,-72.469091,-72.243091,43.040859,43.266859
NH0162430,BEARFOOT CREEK,"80 Washington St, Norwell, Town of, Massachusetts, 02061",02061,New Hampshire,Region 1,Community water system,25,BARTLETT,Carroll,2,2,6,-70.879517,42.172494,-70.881421,42.17089,-70.880517,-70.878517,42.171494,42.173494
NH2318080,TEDESCHI FOOD SHOPS,"3200 Hackberry Rd, Irving, Texas, 75063",75063,New Hampshire,Region 1,Transient non-community system,100,TAMWORTH,Carroll,1,9,3,-96.987891,32.925713,-96.987881,32.92494,-96.988891,-96.986891,32.924713,32.926713
NH0757020,WHALEBACK SKI AREA,"160 Whaleback Mountain Rd, Enfield, Town of, New Hampshire, 03748",03748,New Hampshire,Region 1,Transient non-community system,200,ENFIELD,Grafton,1,14,3,-72.183503,43.603513,-72.183371,43.6036,-72.184503,-72.182503,43.602513,43.604513
NH0413030,WINDY ACRES,"13 Windy Acres Rd, Charlestown, New Hampshire, 03603",03603,New Hampshire,Region 1,Community water system,180,CHARLESTOWN,Sullivan,2,30,6,-72.378747,43.310747,-72.378747,43.310747,-72.388747,-72.368747,43.300747,43.320747
NH0583020,IRON WHEEL MHP,"52 Iron Wheel Park, Danville, Town of, New Hampshire, 03819",03819,New Hampshire,Region 1,Community water system,107,DANVILLE,Rockingham,6,6,5,-71.105597,42.952665,-71.105597,42.952665,-71.115597,-71.095597,42.942665,42.962665
NH2312030,WHITE LAKE ESTATES,"03890, West Ossipee, New Hampshire",03890,New Hampshire,Region 1,Community water system,250,TAMWORTH,Carroll,3,70,3,-71.180325,43.8222,-71.180325,43.8222,-71.273325,-71.087325,43.7292,43.9152
NH0651010,DOVER WATER DEPT,"03820, Dover, New Hampshire",03820,New Hampshire,Region 1,Community water system,28000,DOVER,Strafford,19,33,8,-70.874582,43.195661,-70.874582,43.195661,-70.961582,-70.787582,43.108661,43.282661
NH0607030,HIS MANSION DINING HALL,"03054, Merrimack, New Hampshire",03054,New Hampshire,Region 1,Non-Transient non-community system,105,DEERING,Hillsborough,6,2,3,-71.496412,42.84014,-71.496412,42.84014,-71.580412,-71.412412,42.75614,42.92414
NH1045010,LINCOLN AKERMAN SCH,"8 Exeter Rd, Hampton Falls, Town of, New Hampshire, 03844",03844,New Hampshire,Region 1,Non-Transient non-community system,327,HAMPTON FALLS,Rockingham,2,2,5,-70.866704,42.917607,-70.866821,42.91757,-70.867704,-70.865704,42.916607,42.918607
NH1282030,PENDLETON COVE,"03254, Moultonborough, New Hampshire",03254,New Hampshire,Region 1,Community water system,125,LACONIA,Belknap,1,2,5,-71.362663,43.725563,-71.362663,43.725563,-71.532663,-71.192663,43.555563,43.895563
NH1287080,HACK MA TACK CAMPING AREA,"713 Endicott St N, Laconia, New Hampshire, 03246",03246,New Hampshire,Region 1,Transient non-community system,80,LACONIA,Belknap,3,5,2,-71.481555,43.618088,-71.479091,43.619,-71.482555,-71.480555,43.617088,43.619088
NH1338030,SUNNYS RESTAURANT,"03861, Lee, New Hampshire",03861,New Hampshire,Region 1,Transient non-community system,150,LEE,Strafford,1,5,3,-71.008531,43.12612,-71.008531,43.12612,-71.070531,-70.946531,43.06412,43.18812
NH2358200,WINNISQUAM MARKET AND DELI,"43 Ellis Farm Rd, Sanbornton, Town of, New Hampshire, 03269",03269,New Hampshire,Region 1,Transient non-community system,25,TILTON,Belknap,1,3,1,-71.523488,43.52236,-71.524481,43.52198,-71.524488,-71.522488,43.52136,43.52336
NH1847050,WHITS END CAMPGROUND I,"140 Newman Drew Rd, Ossipee, Town of, New Hampshire, 03890",03890,New Hampshire,Region 1,Transient non-community system,58,OSSIPEE,Carroll,1,1,2,-71.194394,43.807804,-71.191751,43.81083,-71.195394,-71.193394,43.806804,43.808804
NH1067020,SEVEN MAPLES CAMPGROUND,"24 Longview Rd, Hancock, Town of, New Hampshire, 03449",03449,New Hampshire,Region 1,Transient non-community system,50,HANCOCK,Hillsborough,1,4,4,-71.978233,42.984124,-71.978391,42.9841,-71.979233,-71.977233,42.983124,42.985124
NH0078050,BLACK FOREST CAFE,"22 Manchester Rd, Derry, Town of, New Hampshire, 03038",03038,New Hampshire,Region 1,Transient non-community system,25,AMHERST,Hillsborough,2,5,3,-71.3308,42.896516,-71.330881,42.89646,-71.3318,-71.3298,42.895516,42.897516
NH1151020,HINSDALE WATER DEPT/DOWNTOWN,"03451, Hinsdale, New Hampshire",03451,New Hampshire,Region 1,Community water system,1600,HINSDALE,Cheshire,3,79,3,-72.492715,42.784789,-72.492715,42.784789,-72.566715,-72.418715,42.710789,42.858789
NH1698040,ROSSIS ITALIAN RESTAURANT,"64 Winona Shores Rd, Meredith, Town of, New Hampshire, 03253",03253,New Hampshire,Region 1,Transient non-community system,480,NEW HAMPTON,Merrimack,1,0,3,-71.529887,43.65096,-71.530981,43.65141,-71.530887,-71.528887,43.64996,43.65196
NH1618340,RIDGEWOOD COUNTRY CLUB,"15 West Rd, Canterbury, Town of, New Hampshire, 03224",03224,New Hampshire,Region 1,Transient non-community system,120,MOULTONBOROUGH,Carroll,1,15,2,-71.596039,43.345886,-71.596221,43.34589,-71.597039,-71.595039,43.344886,43.346886
NH1908030,TALL TIMBER LODGE AND CABINS,"609 Beach Rd, Pittsburg, Town of, New Hampshire, 03592",03592,New Hampshire,Region 1,Transient non-community system,190,PITTSBURG,Coos,4,16,4,-71.35074,45.082542,-71.350711,45.08222,-71.35174,-71.34974,45.081542,45.083542
NH1649050,DR BRENNER/52 HIGH ST,"52 High St, New Boston, Town of, New Hampshire, 03070",03070,New Hampshire,Region 1,Transient non-community system,55,NEW BOSTON,Hillsborough,2,0,1,-71.692856,42.980437,-71.691941,42.98052,-71.693856,-71.691856,42.979437,42.981437
NH0767050,NEW ENGLAND DRAGWAY/SPECTATORS,"280 Exeter Rd, Epping, Town of, New Hampshire, 03042",03042,New Hampshire,Region 1,Transient non-community system,600,EPPING,Rockingham,1,0,2,-71.033604,43.020673,-71.033481,43.02076,-71.034604,-71.032604,43.019673,43.021673
NH2356050,WINNISQUAM RETAIL CENTER,"03289, Winnisquam, New Hampshire",03289,New Hampshire,Region 1,Transient non-community system,150,TILTON,Belknap,1,0,2,-71.51679,43.500397,-71.51679,43.500397,-71.52179,-71.51179,43.495397,43.505397
NH0882190,DOCKHAM SHORES ESTATES,"03254, Moultonborough, New Hampshire",03254,New Hampshire,Region 1,Community water system,150,GILFORD,Belknap,3,56,9,-71.362663,43.725563,-71.362663,43.725563,-71.532663,-71.192663,43.555563,43.895563
NH2375010,TUFTONBORO CENTRAL SCH,"03816, Ctr Tuftnboro, New Hampshire",03816,New Hampshire,Region 1,Non-Transient non-community system,200,TUFTONBORO,Carroll,3,3,3,-71.250294,43.65725,-71.250294,43.65725,-71.363294,-71.137294,43.54425,43.77025
NH1939060,RITE AID PHARMACY,"1821 Walden Office Sq, Schaumburg, Illinois, 60173",60173,New Hampshire,Region 1,Transient non-community system,50,PLAISTOW,Rockingham,2,0,1,-88.034509,42.06206,-88.034481,42.06202,-88.035509,-88.033509,42.06106,42.06306
NH0265050,BOW YOUTH CENTER,"21 Bow Center Rd, Bow, Town of, New Hampshire, 03304",03304,New Hampshire,Region 1,Non-Transient non-community system,150,BOW,Merrimack,3,3,3,-71.536305,43.149838,-71.535171,43.14981,-71.537305,-71.535305,43.148838,43.150838
NH2418080,SCHOOL HOUSE CAFE,"805 Route 103 E, Warner, New Hampshire, 03278",03278,New Hampshire,Region 1,Transient non-community system,50,WARNER,Merrimack,1,0,2,-71.736001,43.249871,-71.736001,43.249871,-71.746001,-71.726001,43.239871,43.259871
NH0112070,WATER WHEEL ESTATES,"22 Manchester Rd, Derry, Town of, New Hampshire, 03038",03038,New Hampshire,Region 1,Community water system,85,ATKINSON,Rockingham,4,38,3,-71.3308,42.896516,-71.330881,42.89646,-71.3318,-71.3298,42.895516,42.897516
NH0067060,CAMP MI TE NA,"117 Market St, Manchester, New Hampshire, 03101",03101,New Hampshire,Region 1,Transient non-community system,220,ALTON,Belknap,2,1,4,-71.465414,42.990832,-71.465414,42.990832,-71.475414,-71.455414,42.980832,43.000832
NH0155070,FRISBIE HEALTH SERVICES,"11 Whitehall Rd, Rochester, New Hampshire, 03867",03867,New Hampshire,Region 1,Non-Transient non-community system,85,BARRINGTON,Strafford,1,1,3,-70.961046,43.298178,-70.961046,43.298178,-70.971046,-70.951046,43.288178,43.308178
NH0168320,VILLAGER MOTEL,"1126 US-302, Bartlett, New Hampshire, 03812",03812,New Hampshire,Region 1,Transient non-community system,95,BARTLETT,Carroll,2,5,2,-71.263412,44.079003,-71.263412,44.079003,-71.273412,-71.253412,44.069003,44.089003
NH0162070,LINDERHOF GOLF COURSE,"03838, Glen, New Hampshire",03838,New Hampshire,Region 1,Community water system,295,BARTLETT,Carroll,2,22,4,-71.181778,44.11327,-71.181778,44.11327,-71.302778,-71.060778,43.99227,44.23427
NH1798170,SUSTYS CAFE,"159 1st NH Tpke, Northwood, Town of, New Hampshire, 03261",03261,New Hampshire,Region 1,Transient non-community system,30,NORTHWOOD,Rockingham,2,29,3,-71.150013,43.194113,-71.150191,43.19391,-71.151013,-71.149013,43.193113,43.195113
NH0162390,SUGARWOOD ON THE SACO,"03845, Intervale, New Hampshire",03845,New Hampshire,Region 1,Community water system,30,BARTLETT,Carroll,2,2,3,-71.132908,44.079064,-71.132908,44.079064,-71.338908,-70.926908,43.873064,44.285064
NH2177040,CAMP SUNAPEE/CHALET,"595 Grove St, Newton, Massachusetts, 02462",02462,New Hampshire,Region 1,Transient non-community system,40,SPRINGFIELD,Sullivan,1,0,2,-71.258357,42.328718,-71.258701,42.32876,-71.259357,-71.257357,42.327718,42.329718
NH0888380,GILFORD BIG APPLE STORE,"33 Sleeper Hill Rd, Gilford, Town of, New Hampshire, 03249",03249,New Hampshire,Region 1,Transient non-community system,25,GILFORD,Belknap,1,4,3,-71.447255,43.5391,-71.445811,43.53891,-71.448255,-71.446255,43.5381,43.5401
NH2345010,THORNTON CENTRAL SCH,"03264, Plymouth, New Hampshire",03264,New Hampshire,Region 1,Non-Transient non-community system,261,THORNTON,Grafton,2,4,4,-71.692968,43.756975,-71.692968,43.756975,-71.896968,-71.488968,43.552975,43.960975
NH1034010,HAMPSTEAD HOSPITAL,"218 East Rd, Hampstead, New Hampshire, 03841",03841,New Hampshire,Region 1,Non-Transient non-community system,192,HAMPSTEAD,Rockingham,4,7,4,-71.154183,42.869215,-71.154183,42.869215,-71.164183,-71.144183,42.859215,42.879215
NH1848410,OSSIPEE IRVING MAINWAY,"190 Commerce Way, Portsmouth, New Hampshire, 03801",03801,New Hampshire,Region 1,Transient non-community system,200,OSSIPEE,Carroll,1,2,2,-70.786296,43.090914,-70.786296,43.090914,-70.796296,-70.776296,43.080914,43.100914
NH1229030,VETERANS OF FOREIGN WARS,"03452, Jaffrey, New Hampshire",03452,New Hampshire,Region 1,Transient non-community system,400,JAFFREY,Cheshire,2,16,3,-72.019657,42.814458,-72.019657,42.814458,-72.138657,-71.900657,42.695458,42.933458
NH1862010,MEETING HOUSE WATER,"497 Woodlawn Ridge Rd, Pembroke, Town of, New Hampshire, 03275",03275,New Hampshire,Region 1,Community water system,35,PEMBROKE,Merrimack,16,31,5,-71.485966,43.166732,-71.485966,43.166732,-71.495966,-71.475966,43.156732,43.176732
NH1527290,HARBOR HILL CAMP AREA/MT TOP,"03253, Meredith, New Hampshire",03253,New Hampshire,Region 1,Transient non-community system,70,MEREDITH,Belknap,1,0,2,-71.49929,43.653586,-71.49929,43.653586,-71.64229,-71.35629,43.510586,43.796586
NH2549030,CASTLETON BANQUET FACILITIES,"58 Enterprise Dr, Windham, Town of, New Hampshire, 03087",03087,New Hampshire,Region 1,Transient non-community system,400,WINDHAM,Rockingham,3,2,3,-71.284238,42.807102,-71.284238,42.807102,-71.294238,-71.274238,42.797102,42.817102
NH0328050,CHRYSANTHIS RESTAURANT,"204 RT-13, Brookline, Town of, New Hampshire, 03033",03033,New Hampshire,Region 1,Transient non-community system,75,BROOKLINE,Hillsborough,2,3,2,-71.673845,42.756097,-71.674671,42.75594,-71.674845,-71.672845,42.755097,42.757097
NH0348090,SUNSET GRILL,"03223, Campton, New Hampshire",03223,New Hampshire,Region 1,Transient non-community system,85,CAMPTON,Grafton,1,7,3,-71.640395,43.851718,-71.640395,43.851718,-71.957395,-71.323395,43.534718,44.168718
NH1715010,NEW IPSWICH MARKET,"9 Columbia Dr, Amherst, Town of, New Hampshire, 03031",03031,New Hampshire,Region 1,Transient non-community system,100,NEW IPSWICH,Hillsborough,1,69,4,-71.579175,42.806644,-71.579811,42.80603,-71.580175,-71.578175,42.805644,42.807644
NH1277120,MILL BROOK RV PARK,"118 Freedom Hill Rd, Hampstead, Town of, New Hampshire, 03841",03841,New Hampshire,Region 1,Transient non-community system,230,KINGSTON,Rockingham,2,4,2,-71.17942,42.902476,-71.179151,42.90262,-71.18042,-71.17842,42.901476,42.903476
NH0438020,OLDE POST RESTAURANT,"15 Chester St, Chester, Town of, New Hampshire, 03036",03036,New Hampshire,Region 1,Transient non-community system,50,CHESTER,Rockingham,2,5,2,-71.258174,42.958073,-71.258361,42.9579,-71.259174,-71.257174,42.957073,42.959073
NH0342010,BEEBE RIVER,"12 Gearty Way, Campton, New Hampshire, 03223",03223,New Hampshire,Region 1,Community water system,63,CAMPTON,Grafton,4,80,14,-71.648053,43.849955,-71.648053,43.849955,-71.658053,-71.638053,43.839955,43.859955
NH1438070,BREAKFAST ON THE CONNECTICUT,"03244, Hillsborough, New Hampshire",03244,New Hampshire,Region 1,Transient non-community system,42,LYME,Grafton,1,2,2,-71.888022,43.149221,-71.888022,43.149221,-72.077022,-71.699022,42.960221,43.338221
NH1438080,LYME COUNTRY STORE,"13 Main St, Lyme, Town of, New Hampshire, 03768",03768,New Hampshire,Region 1,Transient non-community system,100,LYME,Grafton,2,5,2,-72.156618,43.810657,-72.156591,43.81077,-72.157618,-72.155618,43.809657,43.811657
NH1467020,KING PINE SKI AREA/MAIN LODGE,"03849, Madison, New Hampshire",03849,New Hampshire,Region 1,Transient non-community system,200,MADISON,Carroll,1,0,2,-71.141891,43.93966,-71.141891,43.93966,-71.291891,-70.991891,43.78966,44.08966
NH2077030,DEN BRAE GOLF COURSE,"80 Prescott Rd, Sanbornton, New Hampshire, 03269",03269,New Hampshire,Region 1,Transient non-community system,75,SANBORNTON,Belknap,1,8,2,-71.632539,43.500984,-71.632539,43.500984,-71.642539,-71.622539,43.490984,43.510984
NH2455040,JOHN STARK REG HIGH SCH,"258 Western Ave, Henniker, Town of, New Hampshire, 03242",03242,New Hampshire,Region 1,Non-Transient non-community system,949,WEARE,Hillsborough,5,7,4,-71.831945,43.179746,-71.832011,43.18011,-71.832945,-71.830945,43.178746,43.180746
NH1522070,PINE HILL COMMUNITY ASSN,"2 Pine Cone Ln, Meredith, Town of, New Hampshire, 03253",03253,New Hampshire,Region 1,Community water system,75,MEREDITH,Belknap,4,31,5,-71.461386,43.636235,-71.461021,43.63654,-71.462386,-71.460386,43.635235,43.637235
NH1658210,NEWBURY QUICK STOP,"03255, Mount Sunapee, New Hampshire",03255,New Hampshire,Region 1,Transient non-community system,100,NEWBURY,Merrimack,2,1,2,-72.037721,43.321361,-72.037721,43.321361,-72.122721,-71.952721,43.236361,43.406361
NH1721010,NEW LONDON SPRINGFIELD WATER,"72 Old Dump Rd, New London, New Hampshire, 03257",03257,New Hampshire,Region 1,Community water system,2750,NEW LONDON,Merrimack,8,87,4,-71.999344,43.434676,-71.999344,43.434676,-72.009344,-71.989344,43.424676,43.444676
