PWSID,PWS Name,Approximate Address,Postal,Primacy Agency,EPA Region,PWS Type,Population Served Count,Cities Served,Counties Served,# of Facilities,# of Violations,# of Site Visits,Longitude,Latitude,DisplayX,DisplayY,Xmin,Xmax,Ymin,Ymax
ND0100476,HETTINGER CITY OF,"58639, Bucyrus, North Dakota",58639,North Dakota,Region 8,Community water system,1226,HETTINGER,Adams,18,3,16,-102.635176,46.00319,-102.635176,46.00319,-103.272176,-101.998176,45.36619,46.64019
ND2001061,DAKOTA RURAL WATER DISTRICT NORTH,"58230, Finley, North Dakota",58230,North Dakota,Region 8,Community water system,963,SHARON,Griggs,7,0,13,-97.835691,47.515224,-97.835691,47.515224,-98.069691,-97.601691,47.281224,47.749224
ND2001121,DAKOTA RURAL WATER DISTRICT SOUTH,"58230, Finley, North Dakota",58230,North Dakota,Region 8,Community water system,1048,,Griggs,8,1,14,-97.835691,47.515224,-97.835691,47.515224,-98.069691,-97.601691,47.281224,47.749224
ND0800648,APPLE VALLEY COOP,"1624 Haroldson Ln, Menoken, North Dakota, 58558",58558,North Dakota,Region 8,Community water system,200,,Burleigh,9,7,15,-100.598287,46.822626,-100.598287,46.822626,-100.608287,-100.588287,46.812626,46.832626
ND3200944,TOLNA CITY OF,"58380, Tolna, North Dakota",58380,North Dakota,Region 8,Community water system,166,TOLNA,Nelson,6,8,17,-98.438251,47.829115,-98.438251,47.829115,-98.675251,-98.201251,47.592115,48.066115
ND5311497,LITTLE BEAVER BAY REC AREA,"58802, Williston, North Dakota",58802,North Dakota,Region 8,Transient non-community system,40,,Williams,3,1,1,-103.619032,48.146469,-103.619032,48.146469,-103.624032,-103.614032,48.141469,48.151469
ND3900196,COLFAX CITY OF,"58018, Colfax, North Dakota",58018,North Dakota,Region 8,Community water system,121,COLFAX,Richland,6,10,16,-96.874393,46.470714,-96.874393,46.470714,-97.016393,-96.732393,46.328714,46.612714
ND5000691,MINTO CITY OF,"114 Harvey Ave, Minto, North Dakota, 58261",58261,North Dakota,Region 8,Community water system,604,MINTO,Walsh,8,0,17,-97.370268,48.291577,-97.370268,48.291577,-97.380268,-97.360268,48.281577,48.301577
ND5001075,WALSH RURAL WATER DISTRICT,"58237, Grafton, North Dakota",58237,North Dakota,Region 8,Community water system,2600,,Walsh,12,0,16,-97.41095,48.416395,-97.41095,48.416395,-97.69995,-97.12195,48.127395,48.705395
ND3001431,MISSOURI WEST WATER SYSTEM,"2816 37th St NW, Mandan, North Dakota, 58554",58554,North Dakota,Region 8,Community water system,3238,,Morton,5,1,11,-100.928102,46.858897,-100.928131,46.85965,-100.929102,-100.927102,46.857897,46.859897
ND4500934,TAYLOR CITY OF,"58656, Taylor, North Dakota",58656,North Dakota,Region 8,Community water system,148,TAYLOR,Stark,6,9,18,-102.425256,46.90481,-102.425256,46.90481,-102.728256,-102.122256,46.60181,47.20781
ND0900017,AMENIA CITY OF,"203 Alley St, Amenia, North Dakota, 58004",58004,North Dakota,Region 8,Community water system,94,AMENIA,Cass,4,4,19,-97.220856,47.00658,-97.220856,47.00658,-97.230856,-97.210856,46.99658,47.01658
ND4700922,STREETER CITY OF,"314 1st Ave NE, Streeter, North Dakota, 58483",58483,North Dakota,Region 8,Community water system,170,STREETER,Stutsman,5,4,17,-99.355853,46.658596,-99.355901,46.65887,-99.356853,-99.354853,46.657596,46.659596
ND0900035,ARTHUR CITY OF,"340 Main St, Arthur, North Dakota, 58006",58006,North Dakota,Region 8,Community water system,337,ARTHUR,Cass,10,2,17,-97.218062,47.103609,-97.217851,47.1036,-97.219062,-97.217062,47.102609,47.104609
ND2710909,JUNIPER CAMPGROUND,"208 Scenic Dr, Watford City, North Dakota, 58854",58854,North Dakota,Region 8,Transient non-community system,67,,McKenzie,4,0,21,-103.260256,47.599815,-103.260181,47.59986,-103.261256,-103.259256,47.598815,47.600815
ND3900976,WALCOTT CITY OF,"58077, Walcott, North Dakota",58077,North Dakota,Region 8,Community water system,235,WALCOTT,Richland,7,8,12,-96.939661,46.548002,-96.939661,46.548002,-97.177661,-96.701661,46.310002,46.786002
ND0200226,DAZEY CITY OF,"424 4th Ave, Dazey, North Dakota, 58429",58429,North Dakota,Region 8,Community water system,104,DAZEY,Barnes,6,18,16,-98.20449,47.190416,-98.20449,47.190416,-98.21449,-98.19449,47.180416,47.200416
ND1100758,OAKES CITY OF,"124 S 5th St, Oakes, North Dakota, 58474",58474,North Dakota,Region 8,Community water system,1856,OAKES,Dickey,19,7,18,-98.093415,46.13751,-98.093415,46.13751,-98.103415,-98.083415,46.12751,46.14751
ND2300544,FAIRVIEW COLONY,"9644 74th St SE, Lamoure, North Dakota, 58458",58458,North Dakota,Region 8,Community water system,100,,LaMoure,9,11,3,-98.405571,46.340972,-98.405551,46.33737,-98.406571,-98.404571,46.339972,46.341972
ND0711443,THE FOOD BARN,"300 Railroad Ave W, Powers Lake, North Dakota, 58773",58773,North Dakota,Region 8,Transient non-community system,50,POWERS LAKE,Burke,3,5,16,-102.650438,48.561117,-102.650438,48.561117,-102.660438,-102.640438,48.551117,48.571117
ND0900492,HUNTER CITY OF,"58048, Hunter, North Dakota",58048,North Dakota,Region 8,Community water system,261,HUNTER,Cass,3,2,20,-97.261053,47.232801,-97.261053,47.232801,-97.452053,-97.070053,47.041801,47.423801
ND0700569,LIGNITE CITY OF,"110 Main St, Lignite, North Dakota, 58752",58752,North Dakota,Region 8,Community water system,155,LIGNITE,Burke,7,7,14,-102.563392,48.87819,-102.563392,48.87819,-102.573392,-102.553392,48.86819,48.88819
ND1101481,MAPLE RIVER HUTTERIAN ASSOCIATION,"9262 93rd Ave SE, Fullerton, North Dakota, 58441",58441,North Dakota,Region 8,Community water system,140,,Dickey,6,16,2,-98.442729,46.072499,-98.442729,46.072499,-98.452729,-98.432729,46.062499,46.082499
ND5300809,RAY CITY OF,"101 Main St, Ray, North Dakota, 58849",58849,North Dakota,Region 8,Community water system,592,,Williams,13,0,2,-103.165703,48.343549,-103.165721,48.34355,-103.166703,-103.164703,48.342549,48.344549
ND2511433,TOWNER STATE NURSERY,"58788, Denbigh, North Dakota",58788,North Dakota,Region 8,Transient non-community system,45,,McHenry,9,6,12,-100.408426,48.344534,-100.408426,48.344534,-100.863426,-99.953426,47.889534,48.799534
ND2911480,HAZEN BAY RECREATION AREA,"58545, Pick City, North Dakota",58545,North Dakota,Region 8,Transient non-community system,25,,Mercer,4,2,6,-101.623542,47.299134,-101.623542,47.299134,-101.941542,-101.305542,46.981134,47.617134
ND3900703,MOORETON CITY OF,"402 Ash Dr, Mooreton, North Dakota, 58061",58061,North Dakota,Region 8,Community water system,197,MOORETON,Richland,3,0,14,-96.875181,46.272799,-96.874861,46.2728,-96.876181,-96.874181,46.271799,46.273799
ND3000473,HEBRON CITY OF,"58638, Hebron, North Dakota",58638,North Dakota,Region 8,Community water system,747,HEBRON,Morton,8,8,19,-102.045241,46.902295,-102.045241,46.902295,-102.349241,-101.741241,46.598295,47.206295
ND0510149,STRAWBERRY LAKE CAMPGROUND,"307 1st St E, Bottineau, North Dakota, 58318",58318,North Dakota,Region 8,Transient non-community system,25,,Bottineau,3,9,23,-100.442703,48.831499,-100.442703,48.831499,-100.452703,-100.432703,48.821499,48.841499
ND0511413,PELICAN LAKE CAMPGROUND,"307 1st St E, Bottineau, North Dakota, 58318",58318,North Dakota,Region 8,Transient non-community system,40,,Bottineau,3,0,19,-100.442703,48.831499,-100.442703,48.831499,-100.452703,-100.432703,48.821499,48.841499
ND1100379,FULLERTON CITY OF,"8970 Highway 1, Oakes, North Dakota, 58474",58474,North Dakota,Region 8,Community water system,54,FULLERTON,Dickey,7,9,11,-98.090686,46.113926,-98.090686,46.113926,-98.100686,-98.080686,46.103926,46.123926
ND1801062,GRAND FORKS-TRAILL WATER DISTRICT,"1401 7th Ave NE, Thompson, North Dakota, 58278",58278,North Dakota,Region 8,Community water system,5995,,Grand Forks,21,0,15,-97.13164,47.773738,-97.13164,47.773738,-97.14164,-97.12164,47.763738,47.783738
ND4600341,FINLEY CITY OF,"208 4th St E, Finley, North Dakota, 58230",58230,North Dakota,Region 8,Community water system,445,FINLEY,Steele,5,1,16,-97.834426,47.512388,-97.834426,47.512388,-97.844426,-97.824426,47.502388,47.522388
ND0800096,DAKOTA ADVENTIST ACADEMY,"15905 Sheyenne Cir, Bismarck, North Dakota, 58503",58503,North Dakota,Region 8,Community water system,80,,Burleigh,10,18,17,-100.8832,46.979535,-100.8832,46.979535,-100.8932,-100.8732,46.969535,46.989535
ND2800953,UNDERWOOD CITY OF,"88 Lincoln Ave, Underwood, North Dakota, 58576",58576,North Dakota,Region 8,Community water system,778,UNDERWOOD,McLean,17,5,16,-101.13289,47.457626,-101.133101,47.45793,-101.13389,-101.13189,47.456626,47.458626
ND5301152,R & T WATER SYSTEM,"58849, Wheelock, North Dakota",58849,North Dakota,Region 8,Community water system,150,"RAY, TIOGA",Williams,15,4,15,-103.167087,48.34648,-103.167087,48.34648,-103.475087,-102.859087,48.03848,48.65448
ND2701606,ARNEGARD DIAMOND ESTATES,"58502, Bismarck, North Dakota",58502,North Dakota,Region 8,Community water system,75,,McKenzie,11,3,1,-100.788362,46.808919,-100.788362,46.808919,-100.793362,-100.783362,46.803919,46.813919
ND5200338,FESSENDEN CITY OF,"602 Railway St S, Fessenden, North Dakota, 58438",58438,North Dakota,Region 8,Community water system,479,FESSENDEN,Wells,3,1,14,-99.624812,47.647209,-99.624812,47.647209,-99.634812,-99.614812,47.637209,47.657209
ND5100849,RYDER CITY OF,"58779, Raub, North Dakota",58779,North Dakota,Region 8,Community water system,85,RYDER,Ward,8,27,13,-101.936552,47.74643,-101.936552,47.74643,-102.343552,-101.529552,47.33943,48.15343
ND2700006,ALEXANDER CITY OF,"58831, Alexander, North Dakota",58831,North Dakota,Region 8,Community water system,1335,ALEXANDER,McKenzie,9,2,12,-103.642507,47.839996,-103.642507,47.839996,-103.937507,-103.347507,47.544996,48.134996
ND2100816,REGENT CITY OF,"203 Main Ave, Regent, North Dakota, 58650",58650,North Dakota,Region 8,Community water system,160,REGENT,Hettinger,6,14,18,-102.557247,46.421177,-102.557247,46.421177,-102.567247,-102.547247,46.411177,46.431177
ND3000598,RIVERVIEW HEIGHTS,"2155 Missouri Dr N, Mandan, North Dakota, 58554",58554,North Dakota,Region 8,Community water system,200,MANDAN,Morton,5,12,14,-100.912481,46.884317,-100.912471,46.88459,-100.913481,-100.911481,46.883317,46.885317
ND0511396,HAHNS BAY RECREATION AREA,"307 1st St E, Bottineau, North Dakota, 58318",58318,North Dakota,Region 8,Transient non-community system,80,,Bottineau,3,3,20,-100.442703,48.831499,-100.442703,48.831499,-100.452703,-100.432703,48.821499,48.841499
ND1800311,EMERADO CITY OF,"201 Main St, Emerado, North Dakota, 58228",58228,North Dakota,Region 8,Community water system,414,EMERADO,Grand Forks,3,3,16,-97.370141,47.917467,-97.370141,47.917467,-97.380141,-97.360141,47.907467,47.927467
ND2711688,VIRTUCON PROPERTIES LLC,"58802, Williston, North Dakota",58802,North Dakota,Region 8,Non-Transient non-community system,27,,McKenzie,3,0,0,-103.619032,48.146469,-103.619032,48.146469,-103.624032,-103.614032,48.141469,48.151469
ND4000854,ST JOHN CITY OF,"58369, St John, North Dakota",58369,North Dakota,Region 8,Community water system,341,ST. JOHN,Rolette,7,7,15,-99.711501,48.94284,-99.711501,48.94284,-99.998501,-99.424501,48.65584,49.22984
ND1900731,NEW LEIPZIG CITY OF,"58562, Bentley, North Dakota",58562,North Dakota,Region 8,Community water system,221,NEW LEIPZIG,Grant,12,1,18,-101.942527,46.372513,-101.942527,46.372513,-102.302527,-101.582527,46.012513,46.732513
ND2500266,DRAKE CITY OF,"58736, Drake, North Dakota",58736,North Dakota,Region 8,Community water system,275,DRAKE,McHenry,7,1,19,-100.371917,47.924365,-100.371917,47.924365,-100.607917,-100.135917,47.688365,48.160365
ND0200882,SIBLEY CITY OF,"107 Lake Ave, Dazey, North Dakota, 58429",58429,North Dakota,Region 8,Community water system,30,SIBLEY,Barnes,6,15,10,-97.964482,47.214238,-97.964482,47.214238,-97.974482,-97.954482,47.204238,47.224238
ND3600231,DEVILS LAKE CITY OF,"423 6th St NE, Devils Lake, North Dakota, 58301",58301,North Dakota,Region 8,Community water system,7141,DEVILS LAKE,Ramsey,13,6,22,-98.859051,48.113827,-98.859051,48.11408,-98.860051,-98.858051,48.112827,48.114827
ND0600119,BOWMAN CITY OF,"58623, Buffalo Springs, North Dakota",58623,North Dakota,Region 8,Community water system,1650,BOWMAN,Bowman,19,1,15,-103.400967,46.181054,-103.400967,46.181054,-103.815967,-102.985967,45.766054,46.596054
ND4700637,MEDINA CITY OF,"58467, Crystal Springs, North Dakota",58467,North Dakota,Region 8,Community water system,308,MEDINA,Stutsman,11,3,17,-99.297279,46.893736,-99.297279,46.893736,-99.513279,-99.081279,46.677736,47.109736
ND2310414,LAMOURE COUNTY MEMORIAL PARK,"58458, Lamoure, North Dakota",58458,North Dakota,Region 8,Transient non-community system,25,,LaMoure,7,37,12,-98.293236,46.359149,-98.293236,46.359149,-98.468236,-98.118236,46.184149,46.534149
ND0901449,COUNTRY ACRES WATER CO,"7006 103rd Ave S, Horace, North Dakota, 58047",58047,North Dakota,Region 8,Community water system,50,,Cass,3,8,5,-96.906342,46.742532,-96.906351,46.74169,-96.907342,-96.905342,46.741532,46.743532
ND3200636,MCVILLE CITY OF,"113 N Main St, McVille, North Dakota, 58254",58254,North Dakota,Region 8,Community water system,349,MCVILLE,Nelson,7,0,17,-98.177261,47.76526,-98.176871,47.76527,-98.178261,-98.176261,47.76426,47.76626
ND2810954,COAL CREEK STATION,"2875 3rd St SW, Underwood, North Dakota, 58576",58576,North Dakota,Region 8,Non-Transient non-community system,532,,McLean,6,8,18,-101.161032,47.371546,-101.161111,47.37649,-101.162032,-101.160032,47.370546,47.372546
ND3900973,WAHPETON CITY OF,"1900 4th St N, Wahpeton, North Dakota, 58075",58075,North Dakota,Region 8,Community water system,7766,WAHPETON,Richland,8,2,20,-96.605322,46.287049,-96.604211,46.28823,-96.606322,-96.604322,46.286049,46.288049
ND2301467,WILLOWBANK COLONY,"8827 76th St SE, Edgeley, North Dakota, 58433",58433,North Dakota,Region 8,Community water system,95,,LaMoure,4,76,4,-98.571268,46.311885,-98.571268,46.311885,-98.581268,-98.561268,46.301885,46.321885
ND0410678,COTTONWOOD CAMPGROUND 6,"315 2nd Ave, Medora, North Dakota, 58645",58645,North Dakota,Region 8,Transient non-community system,90,,Billings,4,0,23,-103.524312,46.915787,-103.524321,46.91605,-103.525312,-103.523312,46.914787,46.916787
ND0200747,NOME CITY OF,"58062, Nome, North Dakota",58062,North Dakota,Region 8,Community water system,62,NOME,Barnes,6,3,13,-97.812637,46.678439,-97.812637,46.678439,-97.943637,-97.681637,46.547439,46.809439
ND0200858,SANBORN CITY OF,"58480, Sanborn, North Dakota",58480,North Dakota,Region 8,Community water system,192,SANBORN,Barnes,4,17,13,-98.226103,46.941628,-98.226103,46.941628,-98.439103,-98.013103,46.728628,47.154628
ND0901365,RIVERDALE SUBDIVISION,"215 Park Dr E, Horace, North Dakota, 58047",58047,North Dakota,Region 8,Community water system,88,,Cass,4,4,10,-96.901682,46.756912,-96.901781,46.75673,-96.902682,-96.900682,46.755912,46.757912
ND0900488,HORACE CITY OF,"215 Park Dr E, Horace, North Dakota, 58047",58047,North Dakota,Region 8,Community water system,2430,HORACE,Cass,11,4,16,-96.901682,46.756912,-96.901781,46.75673,-96.902682,-96.900682,46.755912,46.757912
ND2000203,COOPERSTOWN CITY OF,"58425, Cooperstown, North Dakota",58425,North Dakota,Region 8,Community water system,984,COOPERSTOWN,Griggs,7,3,15,-98.122121,47.444454,-98.122121,47.444454,-98.500121,-97.744121,47.066454,47.822454
ND4901071,TRAILL RURAL WATER DISTRICT,"1401 7th Ave NE, Thompson, North Dakota, 58278",58278,North Dakota,Region 8,Community water system,2800,HILLSBORO,Traill,34,2,16,-97.13164,47.773738,-97.13164,47.773738,-97.14164,-97.12164,47.763738,47.783738
ND3201072,TRI-COUNTY WATER DISTRICT,"58272, Petersburg, North Dakota",58272,North Dakota,Region 8,Community water system,2538,LAKOTA,Nelson,10,1,15,-98.002303,48.009061,-98.002303,48.009061,-98.188303,-97.816303,47.823061,48.195061
ND3800877,SHERWOOD CITY OF,"204 Main St, Sherwood, North Dakota, 58782",58782,North Dakota,Region 8,Community water system,242,SHERWOOD,Renville,9,1,13,-101.6327,48.960061,-101.6327,48.960061,-101.6427,-101.6227,48.950061,48.970061
ND0700114,BOWBELLS CITY OF,"100 Main St, Bowbells, North Dakota, 58721",58721,North Dakota,Region 8,Community water system,336,BOWBELLS,Burke,17,8,13,-102.245978,48.803195,-102.246171,48.80331,-102.246978,-102.244978,48.802195,48.804195
ND5301079,WILLIAMS RURAL WATER DISTRICT,"58802, Williston, North Dakota",58802,North Dakota,Region 8,Community water system,5102,,Williams,3,4,10,-103.619032,48.146469,-103.619032,48.146469,-103.624032,-103.614032,48.141469,48.151469
ND4100357,FORMAN CITY OF,"58032, Forman, North Dakota",58032,North Dakota,Region 8,Community water system,504,FORMAN,Sargent,9,3,15,-97.639047,46.104839,-97.639047,46.104839,-97.794047,-97.484047,45.949839,46.259839
ND1110760,OAKES GOLF CLUB,"1351 N 14th St, Oakes, North Dakota, 58474",58474,North Dakota,Region 8,Transient non-community system,50,,Dickey,3,20,10,-98.080028,46.151809,-98.080028,46.151809,-98.090028,-98.070028,46.141809,46.161809
ND2300535,KULM CITY OF,"10 1st St SW, Kulm, North Dakota, 58456",58456,North Dakota,Region 8,Community water system,354,KULM,LaMoure,7,8,14,-98.949228,46.301599,-98.949228,46.301599,-98.959228,-98.939228,46.291599,46.311599
ND2100726,NEW ENGLAND CITY OF,"9 7th St E, New England, North Dakota, 58647",58647,North Dakota,Region 8,Community water system,600,NEW ENGLAND,Hettinger,13,1,16,-102.865258,46.538251,-102.865258,46.538251,-102.875258,-102.855258,46.528251,46.548251
ND0201032,WIMBLEDON CITY OF,"421 W Main St, Valley City, North Dakota, 58072",58072,North Dakota,Region 8,Community water system,216,WIMBLEDON,Barnes,6,31,14,-98.007719,46.923214,-98.007719,46.923214,-98.017719,-97.997719,46.913214,46.933214
ND2900470,HAZEN CITY OF,"58545, Pick City, North Dakota",58545,North Dakota,Region 8,Community water system,2411,HAZEN,Mercer,9,0,14,-101.623542,47.299134,-101.623542,47.299134,-101.941542,-101.305542,46.981134,47.617134
ND3400856,ST THOMAS CITY OF,"338 4th Ave, St Thomas, North Dakota, 58276",58276,North Dakota,Region 8,Community water system,331,ST. THOMAS,Pembina,3,1,15,-97.447918,48.61921,-97.447918,48.61921,-97.457918,-97.437918,48.60921,48.62921
ND0501127,ALL SEASONS WD-SYSTEM III,"1066 Highway 5 NE, Bottineau, North Dakota, 58318",58318,North Dakota,Region 8,Community water system,790,,Bottineau,14,3,17,-100.474392,48.820711,-100.474392,48.820711,-100.484392,-100.464392,48.810711,48.830711
ND4600875,SHARON CITY OF,"58277, Sharon, North Dakota",58277,North Dakota,Region 8,Community water system,96,SHARON,Steele,6,3,13,-97.899121,47.59622,-97.899121,47.59622,-98.141121,-97.657121,47.35422,47.83822
ND2500956,UPHAM CITY OF,"111 C Ave S, Upham, North Dakota, 58789",58789,North Dakota,Region 8,Community water system,130,UPHAM,McHenry,11,15,19,-100.727943,48.580409,-100.728191,48.58041,-100.728943,-100.726943,48.579409,48.581409
ND5101130,UPPER SOURIS WUA-SYSTEM II,"43601 506th St NW, Kenmare, North Dakota, 58746",58746,North Dakota,Region 8,Community water system,230,,Ward,9,7,13,-102.082544,48.691138,-102.082741,48.69114,-102.083544,-102.081544,48.690138,48.692138
ND4900382,GALESBURG CITY OF,"58035, Galesburg, North Dakota",58035,North Dakota,Region 8,Community water system,108,GALESBURG,Traill,6,8,13,-97.406532,47.267765,-97.406532,47.267765,-97.636532,-97.176532,47.037765,47.497765
ND5300936,TIOGA CITY OF,"12 1st St SW, Tioga, North Dakota, 58852",58852,North Dakota,Region 8,Community water system,1230,,Williams,19,2,2,-102.940257,48.394415,-102.940257,48.394415,-102.950257,-102.930257,48.384415,48.404415
ND1400732,NEW ROCKFORD CITY OF,"117 1st St S, New Rockford, North Dakota, 58356",58356,North Dakota,Region 8,Community water system,1391,NEW ROCKFORD,Eddy,7,2,16,-99.125588,47.67892,-99.125588,47.67892,-99.135588,-99.115588,47.66892,47.68892
ND3501476,ALL SEASONS WD-SYSTEM V,"1066 Highway 5 NE, Bottineau, North Dakota, 58318",58318,North Dakota,Region 8,Community water system,1075,,Pierce,3,0,4,-100.474392,48.820711,-100.474392,48.820711,-100.484392,-100.464392,48.810711,48.830711
ND5200927,SYKESTON CITY OF,"24 Main Ave N, Sykeston, North Dakota, 58486",58486,North Dakota,Region 8,Community water system,117,SYKESTON,Wells,6,5,16,-99.399611,47.464321,-99.399611,47.464321,-99.409611,-99.389611,47.454321,47.474321
ND1400879,SHEYENNE CITY OF,"58374, Sheyenne, North Dakota",58374,North Dakota,Region 8,Community water system,204,SHEYENNE,Eddy,11,3,16,-99.114802,47.82483,-99.114802,47.82483,-99.511802,-98.717802,47.42783,48.22183
ND3501069,SELZ WATER USERS ASSOCIATION,"366 Flora St, Harvey, North Dakota, 58341",58341,North Dakota,Region 8,Community water system,43,,Pierce,6,17,16,-99.889051,47.857693,-99.889051,47.857693,-99.899051,-99.879051,47.847693,47.867693
ND3901043,WYNDMERE CITY OF,"451 4th St, Wyndmere, North Dakota, 58081",58081,North Dakota,Region 8,Community water system,429,WYNDMERE,Richland,7,15,16,-97.130679,46.265442,-97.130679,46.265442,-97.140679,-97.120679,46.255442,46.275442
ND3900001,ABERCROMBIE CITY OF,"58001, Abercrombie, North Dakota",58001,North Dakota,Region 8,Community water system,263,ABERCROMBIE,Richland,7,36,14,-96.727081,46.447765,-96.727081,46.447765,-96.734081,-96.720081,46.440765,46.454765
ND3900443,HANKINSON CITY OF,"319 Main Ave S, Hankinson, North Dakota, 58041",58041,North Dakota,Region 8,Community water system,919,HANKINSON,Richland,10,11,19,-96.902058,46.071042,-96.902058,46.071042,-96.912058,-96.892058,46.061042,46.081042
ND2711664,ND INDOOR RV PARK,"2052 125th Ave NW, Watford City, North Dakota, 58854",58854,North Dakota,Region 8,Transient non-community system,480,,McKenzie,6,0,1,-103.269967,47.710796,-103.269967,47.710796,-103.279967,-103.259967,47.700796,47.720796
ND0900336,FARGO CITY OF,"435 14th Ave S, Fargo, North Dakota, 58103",58103,North Dakota,Region 8,Community water system,105549,FARGO,Cass,8,6,20,-96.786491,46.859687,-96.786491,46.86055,-96.787491,-96.785491,46.858687,46.860687
ND3800695,MOHALL CITY OF,"58761, Loraine, North Dakota",58761,North Dakota,Region 8,Community water system,783,MOHALL,Renville,18,2,12,-101.511797,48.76467,-101.511797,48.76467,-101.821797,-101.201797,48.45467,49.07467
ND4600487,HOPE CITY OF,"107 Steele Ave, Hope, North Dakota, 58046",58046,North Dakota,Region 8,Community water system,258,HOPE,Steele,4,20,15,-97.723392,47.322307,-97.723381,47.32254,-97.724392,-97.722392,47.321307,47.323307
ND0800083,IMPERIAL VALLEY WATER CO,"58502, Bismarck, North Dakota",58502,North Dakota,Region 8,Community water system,345,,Burleigh,9,7,14,-100.788362,46.808919,-100.788362,46.808919,-100.793362,-100.783362,46.803919,46.813919
ND0501057,ALL SEASONS WD-SYSTEM I,"1066 Highway 5 NE, Bottineau, North Dakota, 58318",58318,North Dakota,Region 8,Community water system,890,,Bottineau,11,0,18,-100.474392,48.820711,-100.474392,48.820711,-100.484392,-100.464392,48.810711,48.830711
ND3700314,ENDERLIN CITY OF,"411 Railway St, Enderlin, North Dakota, 58027",58027,North Dakota,Region 8,Community water system,886,ENDERLIN,Ransom,10,3,16,-97.601021,46.623832,-97.601021,46.623832,-97.611021,-97.591021,46.613832,46.633832
ND5101074,UPPER SOURIS WUA-SYSTEM I,"43601 506th St NW, Kenmare, North Dakota, 58746",58746,North Dakota,Region 8,Community water system,1296,,Ward,8,11,14,-102.082544,48.691138,-102.082741,48.69114,-102.083544,-102.081544,48.690138,48.692138
ND5300948,TRENTON WATER USERS ASSOC,"58853, Trenton, North Dakota",58853,North Dakota,Region 8,Community water system,500,TRENTON,Williams,3,8,12,-103.831022,48.0742,-103.831022,48.0742,-103.857022,-103.805022,48.0482,48.1002
ND1000768,OSNABROCK CITY OF,"12380 83rd St NE, Milton, North Dakota, 58260",58260,North Dakota,Region 8,Community water system,134,OSNABROCK,Cavalier,9,3,15,-97.971237,48.615586,-97.971237,48.615586,-97.981237,-97.961237,48.605586,48.625586
ND3401128,NORTH VALLEY WD-SYSTEM II - AKRA,"13532 Highway 5, Cavalier, North Dakota, 58220",58220,North Dakota,Region 8,Community water system,3422,,Pembina,57,0,16,-97.743555,48.771752,-97.742821,48.77037,-97.744555,-97.742555,48.770752,48.772752
ND1800036,ARVILLA WATER USERS ASSOCIATION,"58214, Arvilla, North Dakota",58214,North Dakota,Region 8,Community water system,150,ARVILLA,Grand Forks,3,1,15,-97.499171,47.917137,-97.499171,47.917137,-97.603171,-97.395171,47.813137,48.021137
ND2710034,ARNEGARD CITY PARK,"211 Frontage Rd, Arnegard, North Dakota, 58835",58835,North Dakota,Region 8,Transient non-community system,25,ARNEGARD,McKenzie,3,9,9,-103.434613,47.805127,-103.434631,47.80527,-103.435613,-103.433613,47.804127,47.806127
ND5100593,MAKOTI CITY OF,"58756, Makoti, North Dakota",58756,North Dakota,Region 8,Community water system,154,MAKOTI,Ward,7,22,14,-101.872063,47.934304,-101.872063,47.934304,-102.065063,-101.679063,47.741304,48.127304
ND4001153,ALL SEASONS WD-SYSTEM IV,"1066 Highway 5 NE, Bottineau, North Dakota, 58318",58318,North Dakota,Region 8,Community water system,670,,Rolette,11,0,16,-100.474392,48.820711,-100.474392,48.820711,-100.484392,-100.464392,48.810711,48.830711
ND0511249,METIGOSHE DRIVE INN,"Lake Loop Rd, Bottineau, North Dakota, 58318",58318,North Dakota,Region 8,Transient non-community system,30,,Bottineau,3,0,23,-100.380757,48.971521,-100.380757,48.971521,-100.387757,-100.373757,48.964521,48.978521
ND2701623,RIDGEVIEW PARK,"16048 35th St NW, Fairview, North Dakota, 59221",59221,North Dakota,Region 8,Community water system,160,,McKenzie,5,1,1,-104.023692,47.920572,-104.023701,47.9202,-104.024692,-104.022692,47.919572,47.921572
ND0910998,CENTRAL LIVESTOCK,"851 Arena Rd, West Fargo, North Dakota, 58078",58078,North Dakota,Region 8,Transient non-community system,100,,Cass,3,10,23,-96.913397,46.884935,-96.913397,46.884935,-96.923397,-96.903397,46.874935,46.894935
ND2900402,GOLDEN VALLEY CITY OF,"110 1st Ave SW, Golden Valley, North Dakota, 58541",58541,North Dakota,Region 8,Community water system,182,GOLDEN VALLEY (CORPORATE AND N,Mercer,6,4,17,-102.066202,47.289402,-102.066501,47.28941,-102.067202,-102.065202,47.288402,47.290402
ND2000446,HANNAFORD CITY OF,"58448, Walum, North Dakota",58448,North Dakota,Region 8,Community water system,131,HANNAFORD,Griggs,5,4,14,-98.187814,47.312494,-98.187814,47.312494,-98.414814,-97.960814,47.085494,47.539494
ND1500469,HAZELTON CITY OF,"58544, Hazelton, North Dakota",58544,North Dakota,Region 8,Community water system,235,HAZELTON,Emmons,13,8,16,-100.279707,46.485615,-100.279707,46.485615,-100.598707,-99.960707,46.166615,46.804615
ND3901068,SOUTHEAST WUD (EAST),"206 Main St, Mantador, North Dakota, 58058",58058,North Dakota,Region 8,Community water system,4000,"ABERCROMBIE, WAHPETON",Richland,14,0,18,-96.977246,46.165448,-96.977246,46.165448,-96.987246,-96.967246,46.155448,46.175448
ND4100848,RUTLAND CITY OF,"115 Gay St, Rutland, North Dakota, 58067",58067,North Dakota,Region 8,Community water system,163,RUTLAND,Sargent,3,16,13,-97.508754,46.053214,-97.508754,46.053214,-97.518754,-97.498754,46.043214,46.063214
ND1200211,CROSBY CITY OF,"15 E Central Ave, Crosby, North Dakota, 58730",58730,North Dakota,Region 8,Community water system,1070,CROSBY,Divide,7,0,14,-103.294925,48.913062,-103.294925,48.913062,-103.304925,-103.284925,48.903062,48.923062
ND2611267,DOYLE MEMORIAL STATE PARK,"58495, Wishek, North Dakota",58495,North Dakota,Region 8,Transient non-community system,40,,McIntosh,4,6,6,-99.556377,46.257916,-99.556377,46.257916,-99.879377,-99.233377,45.934916,46.580916
ND0800144,COUNTRY CLUB CO-OP,"58501, Bismarck, North Dakota",58501,North Dakota,Region 8,Community water system,162,,Burleigh,7,0,12,-100.787071,46.81149,-100.787071,46.81149,-100.982071,-100.592071,46.61649,47.00649
ND2301216,BERLIN CITY OF,"202 2nd St N, Berlin, North Dakota, 58415",58415,North Dakota,Region 8,Community water system,34,BERLIN,LaMoure,6,5,11,-98.490081,46.378918,-98.490491,46.37891,-98.491081,-98.489081,46.377918,46.379918
ND1101442,SOUTHEAST WUD (WEST),"206 Main St, Mantador, North Dakota, 58058",58058,North Dakota,Region 8,Community water system,1275,,Dickey,8,0,8,-96.977246,46.165448,-96.977246,46.165448,-96.987246,-96.967246,46.155448,46.175448
ND2300969,VERONA CITY OF,"58490, Verona, North Dakota",58490,North Dakota,Region 8,Community water system,85,VERONA,LaMoure,6,16,16,-98.074839,46.362704,-98.074839,46.362704,-98.226839,-97.922839,46.210704,46.514704
ND3100838,ROSS CITY OF,"2 Central Ave W, Ross, North Dakota, 58776",58776,North Dakota,Region 8,Community water system,97,ROSS,Mountrail,6,20,13,-102.544255,48.312774,-102.544255,48.312774,-102.554255,-102.534255,48.302774,48.322774
ND0900412,GRANDIN CITY OF,"58038, Grandin, North Dakota",58038,North Dakota,Region 8,Community water system,173,GRANDIN,Cass,4,4,14,-96.858442,47.281335,-96.858442,47.281335,-97.155442,-96.561442,46.984335,47.578335
ND1300606,MANNING WATER BOARD,"207 Manning Ave, Manning, North Dakota, 58642",58642,North Dakota,Region 8,Community water system,55,MANNING,Dunn,7,4,14,-102.770702,47.231659,-102.770791,47.23166,-102.771702,-102.769702,47.230659,47.232659
ND2300291,EDGELEY CITY OF,"215 6th Ave, Edgeley, North Dakota, 58433",58433,North Dakota,Region 8,Community water system,563,EDGELEY,LaMoure,7,7,15,-98.712269,46.360941,-98.712269,46.360941,-98.722269,-98.702269,46.350941,46.370941
ND5200118,BOWDON CITY OF,"58418, Heaton, North Dakota",58418,North Dakota,Region 8,Community water system,131,BOWDON,Wells,6,27,19,-99.707816,47.468331,-99.707816,47.468331,-99.933816,-99.481816,47.242331,47.694331
ND2600556,LEHR CITY OF,"500 Main St S, Lehr, North Dakota, 58460",58460,North Dakota,Region 8,Community water system,80,LEHR,McIntosh,7,18,17,-99.353116,46.278717,-99.353116,46.278717,-99.363116,-99.343116,46.268717,46.288717
ND4500065,BELFIELD CITY OF,"208 Main St N, Belfield, North Dakota, 58622",58622,North Dakota,Region 8,Community water system,800,BELFIELD,Stark,18,1,16,-103.199133,46.887091,-103.198901,46.88708,-103.200133,-103.198133,46.886091,46.888091
ND4200626,MC CLUSKY CITY OF,"117 Avenue B N, McClusky, North Dakota, 58463",58463,North Dakota,Region 8,Community water system,380,MCCLUSKY,Sheridan,5,1,16,-100.442321,47.487993,-100.442321,47.487993,-100.452321,-100.432321,47.477993,47.497993
ND3001489,SOUTHWEST WA-TOWER HILL (MISSOURI WEST),"4665 2nd St SW, Dickinson, North Dakota, 58601",58601,North Dakota,Region 8,Community water system,43,,Morton,3,0,3,-102.848072,46.872372,-102.848081,46.87225,-102.849072,-102.847072,46.871372,46.873372
ND3001488,SOUTHWEST WA-CROWN BUTTE(MISSOURI WEST),"4665 2nd St SW, Dickinson, North Dakota, 58601",58601,North Dakota,Region 8,Community water system,34,,Morton,3,0,3,-102.848072,46.872372,-102.848081,46.87225,-102.849072,-102.847072,46.871372,46.873372
ND1601470,GREATER RAMSEY WD - CARRINGTON,"113 Shamrock Ln SE, Devils Lake, North Dakota, 58301",58301,North Dakota,Region 8,Community water system,275,,Foster,3,2,3,-98.865062,48.097904,-98.864681,48.09831,-98.866062,-98.864062,48.096904,48.098904
ND1811323,LARSONS DRIVE INN,"58251, Larimore, North Dakota",58251,North Dakota,Region 8,Transient non-community system,30,,Grand Forks,3,6,7,-97.627412,47.908969,-97.627412,47.908969,-97.882412,-97.372412,47.653969,48.163969
ND1600159,CARRINGTON CITY OF,"103 10th Ave N, Carrington, North Dakota, 58421",58421,North Dakota,Region 8,Community water system,2065,CARRINGTON,Foster,8,2,15,-99.126415,47.453839,-99.126415,47.453839,-99.136415,-99.116415,47.443839,47.463839
ND4500396,GLADSTONE CITY OF,"405 Cliff St, Gladstone, North Dakota, 58630",58630,North Dakota,Region 8,Community water system,239,GLADSTONE,Stark,6,4,15,-102.567944,46.859812,-102.567981,46.85963,-102.568944,-102.566944,46.858812,46.860812
ND4500891,SOUTH HEART CITY OF,"103 6th St NW, South Heart, North Dakota, 58655",58655,North Dakota,Region 8,Community water system,301,SOUTH HEART,Stark,7,2,17,-102.994641,46.863577,-102.994681,46.86358,-102.995641,-102.993641,46.862577,46.864577
ND4900803,PORTLAND CITY OF,"702 Arnold Ave, Portland, North Dakota, 58274",58274,North Dakota,Region 8,Community water system,606,PORTLAND,Traill,3,2,17,-97.371028,47.499381,-97.371028,47.499381,-97.381028,-97.361028,47.489381,47.509381
ND4501434,SOUTHWEST WATER AUTHORITY,"4665 2nd St SW, Dickinson, North Dakota, 58601",58601,North Dakota,Region 8,Community water system,7919,DICKINSON,Stark,6,1,16,-102.848072,46.872372,-102.848081,46.87225,-102.849072,-102.847072,46.871372,46.873372
ND0900945,TOWER CITY CITY OF,"421 W Main St, Valley City, North Dakota, 58072",58072,North Dakota,Region 8,Community water system,253,TOWER CITY,Cass,7,15,13,-98.007719,46.923214,-98.007719,46.923214,-98.017719,-97.997719,46.913214,46.933214
ND4010280,KELVIN KLINIC BAR,"502 Kersten St, Bottineau, North Dakota, 58318",58318,North Dakota,Region 8,Transient non-community system,40,,Rolette,3,8,11,-100.435493,48.82675,-100.435901,48.82676,-100.436493,-100.434493,48.82575,48.82775
ND1900162,CARSON CITY OF,"100 S Main St, Carson, North Dakota, 58529",58529,North Dakota,Region 8,Community water system,293,CARSON,Grant,8,4,20,-101.564285,46.419557,-101.564285,46.419557,-101.574285,-101.554285,46.409557,46.429557
ND3200653,MICHIGAN CITY OF,"58259, Whitman, North Dakota",58259,North Dakota,Region 8,Community water system,294,MICHIGAN CITY (CORPORATE NAME,Nelson,8,0,16,-98.122437,48.024149,-98.122437,48.024149,-98.293437,-97.951437,47.853149,48.195149
ND3100898,STANLEY CITY OF,"208 S Main St, Stanley, North Dakota, 58784",58784,North Dakota,Region 8,Community water system,1458,STANLEY,Mountrail,7,6,12,-102.390631,48.31715,-102.390631,48.31715,-102.400631,-102.380631,48.30715,48.32715
ND0801031,WILTON CITY OF,"121 Dakota Ave, Wilton, North Dakota, 58579",58579,North Dakota,Region 8,Community water system,711,WILTON,Burleigh,7,2,18,-100.784534,47.158063,-100.784521,47.15801,-100.785534,-100.783534,47.157063,47.159063
ND0801036,WING CITY OF,"58494, Wing, North Dakota",58494,North Dakota,Region 8,Community water system,152,WING,Burleigh,8,20,16,-100.281351,47.139305,-100.281351,47.139305,-100.474351,-100.088351,46.946305,47.332305
ND1500571,LINTON CITY OF,"101 1st St NE, Linton, North Dakota, 58552",58552,North Dakota,Region 8,Community water system,1097,LINTON,Emmons,13,2,16,-100.23139,46.266976,-100.23139,46.266976,-100.24139,-100.22139,46.256976,46.276976
ND0801502,SOUTH CENTRAL RWD NORTH BURLEIGH,"58502, Bismarck, North Dakota",58502,North Dakota,Region 8,Community water system,9848,,Burleigh,15,0,5,-100.788362,46.808919,-100.788362,46.808919,-100.793362,-100.783362,46.803919,46.813919
ND3001490,SOUTHWEST WA-JUNCTION INN(MISSOURI WEST),"4665 2nd St SW, Dickinson, North Dakota, 58601",58601,North Dakota,Region 8,Community water system,173,,Morton,3,0,3,-102.848072,46.872372,-102.848081,46.87225,-102.849072,-102.847072,46.871372,46.873372
ND2901491,SOUTHWEST WA - ZAP TREATMENT PLANT,"4665 2nd St SW, Dickinson, North Dakota, 58601",58601,North Dakota,Region 8,Community water system,150,,Mercer,7,0,3,-102.848072,46.872372,-102.848081,46.87225,-102.849072,-102.847072,46.871372,46.873372
ND0511551,A-FRAME BAR & GRILL,"58318, Bottineau, North Dakota",58318,North Dakota,Region 8,Transient non-community system,150,,Bottineau,3,1,3,-100.446232,48.825619,-100.446232,48.825619,-100.710232,-100.182232,48.561619,49.089619
ND2500509,KARLSRUHE CITY OF,"58744, Karlsruhe, North Dakota",58744,North Dakota,Region 8,Community water system,82,KARLSRUHE,McHenry,7,33,18,-100.619001,48.092233,-100.619001,48.092233,-101.001001,-100.237001,47.710233,48.474233
ND1501653,SOUTH CENTRAL RWD-EMMONS,"58502, Bismarck, North Dakota",58502,North Dakota,Region 8,Community water system,500,,Emmons,6,0,0,-100.788362,46.808919,-100.788362,46.808919,-100.793362,-100.783362,46.803919,46.813919
ND1801456,FOREST RIVER COLONY,"4068 35th Ave NE, Fordville, North Dakota, 58231",58231,North Dakota,Region 8,Community water system,100,,Grand Forks,7,23,5,-97.702284,48.180376,-97.702284,48.180376,-97.712284,-97.692284,48.170376,48.190376
ND3400777,PEMBINA CITY OF,"152 W Rolette St, Pembina, North Dakota, 58271",58271,North Dakota,Region 8,Community water system,592,PEMBINA,Pembina,6,10,17,-97.243991,48.967943,-97.244191,48.96773,-97.244991,-97.242991,48.966943,48.968943
ND2711604,HURLEY ENTERPRISES,"59221, Fairview, North Dakota",59221,North Dakota,Region 8,Transient non-community system,1050,,McKenzie,9,2,1,-104.045951,47.851162,-104.045951,47.851162,-104.464951,-103.626951,47.432162,48.270162
ND4300871,SELFRIDGE CITY OF,"21 N Main St, Selfridge, North Dakota, 58568",58568,North Dakota,Region 8,Community water system,160,SELFRIDGE,Sioux,7,57,16,-100.931579,46.041396,-100.931579,46.041396,-100.941579,-100.921579,46.031396,46.051396
ND2601055,ZEELAND CITY OF,"58581, Zeeland, North Dakota",58581,North Dakota,Region 8,Community water system,86,ZEELAND,McIntosh,6,11,17,-99.833636,45.97096,-99.833636,45.97096,-100.122636,-99.544636,45.68196,46.25996
ND5301555,R & R TRAILER COURT,"10391 Beaver Lodge Ln, Tioga, North Dakota, 58852",58852,North Dakota,Region 8,Community water system,75,,Williams,3,13,1,-102.926572,48.393652,-102.926581,48.39349,-102.927572,-102.925572,48.392652,48.394652
ND2800949,TURTLE LAKE CITY OF,"107 Eggert St, Turtle Lake, North Dakota, 58575",58575,North Dakota,Region 8,Community water system,581,TURTLE LAKE,McLean,3,0,17,-100.891501,47.521688,-100.891241,47.52168,-100.892501,-100.890501,47.520688,47.522688
ND0900387,GARDNER CITY OF,"409 Front St, Gardner, North Dakota, 58036",58036,North Dakota,Region 8,Community water system,74,GARDNER,Cass,6,11,13,-96.968287,47.147643,-96.967941,47.1477,-96.969287,-96.967287,47.146643,47.148643
ND5100072,BERTHOLD CITY OF,"223 Main St N, Berthold, North Dakota, 58718",58718,North Dakota,Region 8,Community water system,454,BERTHOLD,Ward,8,28,14,-101.736713,48.31527,-101.736971,48.31527,-101.737713,-101.735713,48.31427,48.31627
ND1000543,LANGDON CITY OF,"324 8th Ave, Langdon, North Dakota, 58249",58249,North Dakota,Region 8,Community water system,1878,LANGDON,Cavalier,8,10,20,-98.369491,48.760132,-98.369491,48.76003,-98.370491,-98.368491,48.759132,48.761132
ND5311699,ALLSTATE PETERBUILT,"13579 58th St NW, Williston, North Dakota, 58801",58801,North Dakota,Region 8,Transient non-community system,70,,Williams,3,0,0,-103.620892,48.255597,-103.620891,48.25615,-103.621892,-103.619892,48.254597,48.256597
ND3900055,BARNEY CITY OF,"7890 County Road 3, Barney, North Dakota, 58008",58008,North Dakota,Region 8,Community water system,52,BARNEY,Richland,3,11,15,-97.000501,46.269726,-97.000501,46.269726,-97.010501,-96.990501,46.259726,46.279726
ND5301012,WILLISTON CITY OF,"58802, Williston, North Dakota",58802,North Dakota,Region 8,Community water system,14716,WILLISTON,Williams,8,8,18,-103.619032,48.146469,-103.619032,48.146469,-103.624032,-103.614032,48.141469,48.151469
ND4711364,CRYSTAL SPRINGS BAPTIST CAMP,"4848 36th St SE, Medina, North Dakota, 58467",58467,North Dakota,Region 8,Transient non-community system,50,,Stutsman,6,1,19,-99.436662,46.885382,-99.436661,46.8853,-99.437662,-99.435662,46.884382,46.886382
ND2300537,LAMOURE CITY OF,"33 Center Ave W, Lamoure, North Dakota, 58458",58458,North Dakota,Region 8,Community water system,889,LA MOURE,LaMoure,6,0,16,-98.295012,46.358035,-98.295012,46.358035,-98.305012,-98.285012,46.348035,46.368035
ND1200748,NOONAN CITY OF,"412 Hagerud St, Noonan, North Dakota, 58765",58765,North Dakota,Region 8,Community water system,121,NOONAN,Divide,8,21,14,-103.006535,48.886948,-103.006535,48.886948,-103.016535,-102.996535,48.876948,48.896948
ND0600819,RHAME CITY OF,"109 Main St S, Rhame, North Dakota, 58651",58651,North Dakota,Region 8,Community water system,169,RHAME,Bowman,6,3,14,-103.656267,46.231779,-103.656267,46.231779,-103.666267,-103.646267,46.221779,46.241779
ND0801154,SOUTH CENTRAL REGIONAL WATER DISTRICT,"58502, Bismarck, North Dakota",58502,North Dakota,Region 8,Community water system,2903,,Burleigh,14,0,15,-100.788362,46.808919,-100.788362,46.808919,-100.793362,-100.783362,46.803919,46.813919
ND0700344,FLAXTON CITY OF,"103 Davis Ave NE, Flaxton, North Dakota, 58737",58737,North Dakota,Region 8,Community water system,66,FLAXTON,Burke,6,17,12,-102.394199,48.898834,-102.394381,48.89894,-102.395199,-102.393199,48.897834,48.899834
ND0511305,METIGOSHE MINISTRIES-PELICAN LAKE,"10605 Lake Loop Rd E, Bottineau, North Dakota, 58318",58318,North Dakota,Region 8,Transient non-community system,150,,Bottineau,5,0,21,-100.342696,48.968372,-100.342696,48.968372,-100.352696,-100.332696,48.958372,48.978372
ND2901054,ZAP CITY OF,"121 Main St, Zap, North Dakota, 58580",58580,North Dakota,Region 8,Community water system,237,ZAP,Mercer,8,3,14,-101.924381,47.286779,-101.924091,47.28678,-101.925381,-101.923381,47.285779,47.287779
ND4001136,INTERNATIONAL PEACE GARDEN,"10939 Highway 281, Dunseith, North Dakota, 58329",58329,North Dakota,Region 8,Transient non-community system,25,,Rolette,12,8,13,-100.052684,48.998095,-100.052684,48.998095,-100.062684,-100.042684,48.988095,49.008095
ND1100306,ELLENDALE CITY OF,"55 3rd Ave S, Ellendale, North Dakota, 58436",58436,North Dakota,Region 8,Community water system,1394,ELLENDALE,Dickey,7,2,16,-98.524525,46.00087,-98.524525,46.00087,-98.534525,-98.514525,45.99087,46.01087
ND0510048,BIRCHWOOD INC,"21 Birchwood Heights Rd S, Bottineau, North Dakota, 58318",58318,North Dakota,Region 8,Transient non-community system,70,,Bottineau,3,5,27,-100.373547,48.987708,-100.373547,48.987708,-100.383547,-100.363547,48.977708,48.997708
ND3400269,DRAYTON CITY OF,"507 River Range Rd, Drayton, North Dakota, 58225",58225,North Dakota,Region 8,Community water system,824,DRAYTON,Pembina,6,8,23,-97.169838,48.566987,-97.169991,48.56728,-97.170838,-97.168838,48.565987,48.567987
ND3400980,WALHALLA CITY OF,"1103 Central Ave, Walhalla, North Dakota, 58282",58282,North Dakota,Region 8,Community water system,996,WALHALLA,Pembina,11,10,16,-97.914104,48.923146,-97.914281,48.9233,-97.915104,-97.913104,48.922146,48.924146
ND4300884,SOLEN CITY OF,"Leach St, Solen, North Dakota, 58570",58570,North Dakota,Region 8,Community water system,83,SOLEN,Sioux,6,65,16,-100.797983,46.387854,-100.797983,46.387854,-100.800983,-100.794983,46.384854,46.390854
ND2200827,ROBINSON CITY OF,"58478, Robinson, North Dakota",58478,North Dakota,Region 8,Community water system,37,ROBINSON,Kidder,7,8,15,-99.781327,47.14035,-99.781327,47.14035,-100.081327,-99.481327,46.84035,47.44035
ND0400638,MEDORA CITY OF,"465 Pacific Ave, Medora, North Dakota, 58645",58645,North Dakota,Region 8,Community water system,112,MEDORA,Billings,8,5,16,-103.522468,46.912205,-103.522061,46.91257,-103.523468,-103.521468,46.911205,46.913205
ND5201309,CENTRAL PLAINS WATER DISTRICT,"105 Main Ave S, Fessenden, North Dakota, 58438",58438,North Dakota,Region 8,Community water system,3499,,Wells,12,6,17,-99.63024,47.648069,-99.63024,47.648069,-99.64024,-99.62024,47.638069,47.658069
ND5100515,KENMARE CITY OF,"5 3rd St NW, Kenmare, North Dakota, 58746",58746,North Dakota,Region 8,Community water system,1096,KENMARE,Ward,9,10,11,-102.08267,48.673558,-102.08267,48.673558,-102.09267,-102.07267,48.663558,48.683558
ND0900166,CASSELTON CITY OF,"702 1st St N, Casselton, North Dakota, 58012",58012,North Dakota,Region 8,Community water system,2329,CASSELTON,Cass,4,3,19,-97.21108,46.901578,-97.21108,46.901578,-97.22108,-97.20108,46.891578,46.911578
ND5000773,PARK RIVER CITY OF,"514 Briggs Ave S, Park River, North Dakota, 58270",58270,North Dakota,Region 8,Community water system,1403,PARK RIVER,Walsh,16,1,16,-97.742928,48.393747,-97.742928,48.393747,-97.752928,-97.732928,48.383747,48.403747
ND0511294,BOTTINEAU WINTER PARK SKI AREA,"58318, Bottineau, North Dakota",58318,North Dakota,Region 8,Transient non-community system,150,,Bottineau,2,13,23,-100.446232,48.825619,-100.446232,48.825619,-100.710232,-100.182232,48.561619,49.089619
ND0901363,OXBOW CITY OF,"5138 157th Ave SE, Leonard, North Dakota, 58052",58052,North Dakota,Region 8,Community water system,305,OXBOW,Cass,7,5,11,-97.178372,46.66817,-97.177071,46.66817,-97.179372,-97.177372,46.66717,46.66917
ND2711676,RAKKEN ARROW RV PARK,"12597 Zoe Rd, Watford City, North Dakota, 58854",58854,North Dakota,Region 8,Transient non-community system,135,,McKenzie,3,0,1,-103.281602,47.741737,-103.281611,47.74181,-103.282602,-103.280602,47.740737,47.742737
ND2200913,STEELE CITY OF,"103 W Broadway, Steele, North Dakota, 58482",58482,North Dakota,Region 8,Community water system,715,STEELE,Kidder,10,3,18,-99.915846,46.854667,-99.915846,46.854667,-99.925846,-99.905846,46.844667,46.864667
ND2701682,MCKENZIE COUNTY RW-SYSTEM 2,"1300 12th St SE, Watford City, North Dakota, 58854",58854,North Dakota,Region 8,Community water system,393,,McKenzie,3,1,0,-103.261948,47.787652,-103.261948,47.787652,-103.271948,-103.251948,47.777652,47.797652
ND4100428,GWINNER CITY OF,"4 1st St SE, Gwinner, North Dakota, 58040",58040,North Dakota,Region 8,Community water system,753,GWINNER,Sargent,9,0,17,-97.661007,46.225542,-97.661007,46.225542,-97.671007,-97.651007,46.215542,46.235542
ND4701042,WOODWORTH CITY OF,"101 1st Ave E, Woodworth, North Dakota, 58496",58496,North Dakota,Region 8,Community water system,50,WOODWORTH,Stutsman,7,15,13,-99.304922,47.141676,-99.304921,47.14175,-99.305922,-99.303922,47.140676,47.142676
ND1700403,GOLVA CITY OF,"58632, Golva, North Dakota",58632,North Dakota,Region 8,Community water system,61,GOLVA,Golden Valley,7,9,14,-103.983467,46.735374,-103.983467,46.735374,-104.190467,-103.776467,46.528374,46.942374
ND0500099,BOTTINEAU CITY OF,"58318, Bottineau, North Dakota",58318,North Dakota,Region 8,Community water system,2211,BOTTINEAU,Bottineau,17,2,18,-100.446232,48.825619,-100.446232,48.825619,-100.710232,-100.182232,48.561619,49.089619
ND0500887,SOURIS CITY OF,"58783, Landa, North Dakota",58783,North Dakota,Region 8,Community water system,58,SOURIS,Bottineau,6,25,17,-100.680246,48.90885,-100.680246,48.90885,-100.968246,-100.392246,48.62085,49.19685
ND4800078,BISBEE CITY OF,"302 Main St, Bisbee, North Dakota, 58317",58317,North Dakota,Region 8,Community water system,126,BISBEE,Towner,6,15,16,-99.378902,48.626605,-99.378902,48.626605,-99.388902,-99.368902,48.616605,48.636605
ND1801056,AGASSIZ WATER USERS DISTRICT,"217 Main Ave, Gilby, North Dakota, 58235",58235,North Dakota,Region 8,Community water system,3438,,Grand Forks,12,2,16,-97.469427,48.084084,-97.469427,48.084084,-97.479427,-97.459427,48.074084,48.094084
ND1311473,MEDICINE HOLE GOLF COURSE,"10352 2nd St SW, Killdeer, North Dakota, 58640",58640,North Dakota,Region 8,Transient non-community system,50,,Dunn,3,5,9,-102.746655,47.386312,-102.746655,47.386312,-102.756655,-102.736655,47.376312,47.396312
ND0510106,METIGOSHE MINISTRIES-CENTER SITE,"10605 Lake Loop Rd E, Bottineau, North Dakota, 58318",58318,North Dakota,Region 8,Transient non-community system,25,,Bottineau,7,12,23,-100.342696,48.968372,-100.342696,48.968372,-100.352696,-100.332696,48.958372,48.978372
ND2700990,WATFORD CITY CITY OF,"213 2nd St NE, Watford City, North Dakota, 58854",58854,North Dakota,Region 8,Community water system,1744,WATFORD CITY,McKenzie,17,7,14,-103.281603,47.80299,-103.281861,47.80299,-103.282603,-103.280603,47.80199,47.80399
ND0300762,OBERON CITY OF,"58357, Oberon, North Dakota",58357,North Dakota,Region 8,Community water system,105,OBERON,Benson,5,22,17,-99.203371,47.92294,-99.203371,47.92294,-99.475371,-98.931371,47.65094,48.19494
ND2500415,GRANVILLE CITY OF,"103 3rd St SW, Granville, North Dakota, 58741",58741,North Dakota,Region 8,Community water system,241,GRANVILLE,McHenry,10,7,18,-100.843112,48.266176,-100.843111,48.26639,-100.844112,-100.842112,48.265176,48.267176
ND0700198,COLUMBUS CITY OF,"58727, Columbus, North Dakota",58727,North Dakota,Region 8,Community water system,133,COLUMBUS,Burke,5,4,12,-102.780272,48.906319,-102.780272,48.906319,-102.982272,-102.578272,48.704319,49.108319
ND3200536,LAKOTA CITY OF,"58344, Lakota, North Dakota",58344,North Dakota,Region 8,Community water system,672,LAKOTA,Nelson,8,4,16,-98.345492,48.042684,-98.345492,48.042684,-98.593492,-98.097492,47.794684,48.290684
ND4900622,MAYVILLE CITY OF,"21 1st St NE, Mayville, North Dakota, 58257",58257,North Dakota,Region 8,Community water system,1858,MAYVILLE,Traill,7,7,17,-97.326195,47.501253,-97.326061,47.50101,-97.327195,-97.325195,47.500253,47.502253
ND3000012,ALMONT CITY OF,"58520, Almont, North Dakota",58520,North Dakota,Region 8,Community water system,122,ALMONT,Morton,8,67,14,-101.505516,46.728794,-101.505516,46.728794,-101.718516,-101.292516,46.515794,46.941794
ND2800389,GARRISON CITY OF,"58540, Emmet, North Dakota",58540,North Dakota,Region 8,Community water system,1453,GARRISON,McLean,6,9,20,-101.414477,47.653559,-101.414477,47.653559,-102.266477,-100.562477,46.801559,48.505559
ND1100346,FORBES CITY OF,"37129 101st St, Forbes, South Dakota, 58439",58439,North Dakota,Region 8,Community water system,53,FORBES,Dickey,3,15,16,-98.760043,45.924945,-98.760043,45.924945,-98.770043,-98.750043,45.914945,45.934945
ND5300425,GRENORA CITY OF,"1 Main St, Grenora, North Dakota, 58845",58845,North Dakota,Region 8,Community water system,244,GRENORA,Williams,7,11,13,-103.937443,48.616732,-103.937791,48.61674,-103.938443,-103.936443,48.615732,48.617732
ND4200404,GOODRICH CITY OF,"58444, Goodrich, North Dakota",58444,North Dakota,Region 8,Community water system,98,GOODRICH,Sheridan,4,20,18,-100.121181,47.475008,-100.121181,47.475008,-100.292181,-99.950181,47.304008,47.646008
ND0511342,WASHEGUM CAMPGROUND 72,"58318, Bottineau, North Dakota",58318,North Dakota,Region 8,Transient non-community system,100,,Bottineau,4,3,21,-100.446232,48.825619,-100.446232,48.825619,-100.710232,-100.182232,48.561619,49.089619
ND2701477,MCKENZIE COUNTY RURAL WATER,"1300 12th St SE, Watford City, North Dakota, 58854",58854,North Dakota,Region 8,Community water system,700,,McKenzie,5,12,2,-103.261948,47.787652,-103.261948,47.787652,-103.271948,-103.251948,47.777652,47.797652
ND0900769,PAGE CITY OF,"117 Morton Ave, Page, North Dakota, 58064",58064,North Dakota,Region 8,Community water system,232,PAGE,Cass,6,5,14,-97.571371,47.157222,-97.570921,47.15723,-97.572371,-97.570371,47.156222,47.158222
ND0900999,WEST FARGO CITY OF,"810 12th Ave NW, West Fargo, North Dakota, 58078",58078,North Dakota,Region 8,Community water system,25830,WEST FARGO,Cass,33,1,21,-96.913512,46.891327,-96.913531,46.89213,-96.914512,-96.912512,46.890327,46.892327
ND2100704,MOTT CITY OF,"202 E 3rd St, Mott, North Dakota, 58646",58646,North Dakota,Region 8,Community water system,721,MOTT,Hettinger,8,5,18,-102.323586,46.373408,-102.323586,46.373408,-102.333586,-102.313586,46.363408,46.383408
ND2801400,MCLEAN-SHERIDAN WATER DISTRICT-SYSTEM 1,"987 17th Ave NW, Turtle Lake, North Dakota, 58575",58575,North Dakota,Region 8,Community water system,1025,,McLean,11,2,15,-100.907732,47.55656,-100.908621,47.55656,-100.908732,-100.906732,47.55556,47.55756
ND3700876,SHELDON CITY OF,"110 Island Ave, Sheldon, North Dakota, 58068",58068,North Dakota,Region 8,Community water system,116,SHELDON,Ransom,3,3,14,-97.490662,46.590258,-97.490662,46.590258,-97.500662,-97.480662,46.580258,46.600258
ND3900183,CHRISTINE CITY OF,"58015, Christine, North Dakota",58015,North Dakota,Region 8,Community water system,156,CHRISTINE,Richland,7,7,13,-96.804416,46.573835,-96.804416,46.573835,-96.864416,-96.744416,46.513835,46.633835
ND1300259,DODGE CITY OF,"58625, Dodge, North Dakota",58625,North Dakota,Region 8,Community water system,87,DODGE,Dunn,6,9,17,-102.184914,47.400224,-102.184914,47.400224,-102.428914,-101.940914,47.156224,47.644224
ND1500921,STRASBURG CITY OF,"713 Main St, Strasburg, North Dakota, 58573",58573,North Dakota,Region 8,Community water system,409,STRASBURG,Emmons,17,5,15,-100.159836,46.133834,-100.159836,46.133834,-100.169836,-100.149836,46.123834,46.143834
ND2701003,BADLANDS POWER FUELS TC,"1713 3rd St SE, Watford City, North Dakota, 58854",58854,North Dakota,Region 8,Community water system,80,,McKenzie,7,16,8,-103.279472,47.78187,-103.279781,47.78187,-103.280472,-103.278472,47.78087,47.78287
ND2801696,MCLEAN-SHERIDAN WATER DISTRICT-SYSTEM 2,"987 17th Ave NW, Turtle Lake, North Dakota, 58575",58575,North Dakota,Region 8,Community water system,260,,McLean,2,0,0,-100.907732,47.55656,-100.908621,47.55656,-100.908732,-100.906732,47.55556,47.55756
ND0900134,BUFFALO CITY OF,"409 Main St, Buffalo, North Dakota, 58011",58011,North Dakota,Region 8,Community water system,188,BUFFALO,Cass,3,9,16,-97.549467,46.919624,-97.549467,46.919624,-97.559467,-97.539467,46.909624,46.929624
ND3400170,CAVALIER CITY OF,"301 Division Ave N, Cavalier, North Dakota, 58220",58220,North Dakota,Region 8,Community water system,1302,CAVALIER,Pembina,4,4,11,-97.622235,48.802467,-97.622235,48.802467,-97.632235,-97.612235,48.792467,48.812467
ND3900567,LIDGERWOOD CITY OF,"15 Wiley Ave N, Lidgerwood, North Dakota, 58053",58053,North Dakota,Region 8,Community water system,652,LIDGERWOOD,Richland,8,1,19,-97.151952,46.075559,-97.151611,46.07556,-97.152952,-97.150952,46.074559,46.076559
ND4700519,KENSAL CITY OF,"404 Main St, Kensal, North Dakota, 58455",58455,North Dakota,Region 8,Community water system,163,KENSAL,Stutsman,7,14,15,-98.73361,47.300137,-98.73361,47.300137,-98.74361,-98.72361,47.290137,47.310137
ND1300276,DUNN CENTER CITY OF,"3 Main St W, Dunn Center, North Dakota, 58626",58626,North Dakota,Region 8,Community water system,146,DUNN CENTER,Dunn,8,8,14,-102.684569,47.415566,-102.684569,47.415566,-102.694569,-102.674569,47.405566,47.425566
ND0511340,BOAT RAMP 74,"58318, Bottineau, North Dakota",58318,North Dakota,Region 8,Transient non-community system,100,,Bottineau,3,2,21,-100.446232,48.825619,-100.446232,48.825619,-100.710232,-100.182232,48.561619,49.089619
ND3600208,CRARY CITY OF,"58301, Devils Lake, North Dakota",58301,North Dakota,Region 8,Community water system,142,CRARY,Ramsey,6,48,15,-98.85847,48.110592,-98.85847,48.110592,-99.16147,-98.55547,47.807592,48.413592
ND0511341,MAID O MOON SHINE CAMPGROUND,"58318, Bottineau, North Dakota",58318,North Dakota,Region 8,Transient non-community system,140,,Bottineau,3,2,21,-100.446232,48.825619,-100.446232,48.825619,-100.710232,-100.182232,48.561619,49.089619
ND3000736,NEW SALEM CITY OF,"400 Main Ave, New Salem, North Dakota, 58563",58563,North Dakota,Region 8,Community water system,946,NEW SALEM,Morton,5,0,19,-101.411902,46.842437,-101.411901,46.8425,-101.412902,-101.410902,46.841437,46.843437
ND5010352,FORDVILLE PUBLIC SCHOOL,"58231, Fordville, North Dakota",58231,North Dakota,Region 8,Non-Transient non-community system,75,,Walsh,3,24,14,-97.793987,48.219599,-97.793987,48.219599,-98.027987,-97.559987,47.985599,48.453599
ND0511343,GROUP CAMP COMPLEX 71,"58318, Bottineau, North Dakota",58318,North Dakota,Region 8,Transient non-community system,100,,Bottineau,3,2,21,-100.446232,48.825619,-100.446232,48.825619,-100.710232,-100.182232,48.561619,49.089619
ND2600038,ASHLEY CITY OF,"113 1st Ave NW, Ashley, North Dakota, 58413",58413,North Dakota,Region 8,Community water system,749,ASHLEY,McIntosh,7,0,15,-99.373178,46.035727,-99.373178,46.035727,-99.383178,-99.363178,46.025727,46.045727
ND2800194,COLEHARBOR CITY OF,"1102 County Road 22, Washburn, North Dakota, 58577",58577,North Dakota,Region 8,Community water system,79,COLEHARBOR,McLean,3,6,15,-101.015221,47.287482,-101.015221,47.28718,-101.016221,-101.014221,47.286482,47.288482
ND2800989,WASHBURN CITY OF,"907 Main Ave, Washburn, North Dakota, 58577",58577,North Dakota,Region 8,Community water system,1246,WASHBURN,McLean,6,29,19,-101.026183,47.287783,-101.026371,47.28759,-101.027183,-101.025183,47.286783,47.288783
ND2701631,M&M PARK,"16048 35th St NW, Fairview, North Dakota, 59221",59221,North Dakota,Region 8,Community water system,150,,McKenzie,3,2,1,-104.023692,47.920572,-104.023701,47.9202,-104.024692,-104.022692,47.919572,47.921572
ND0811391,PIONEER PARK,"400 E Front Ave, Bismarck, North Dakota, 58504",58504,North Dakota,Region 8,Transient non-community system,30,,Burleigh,3,1,9,-100.785971,46.804197,-100.785961,46.80447,-100.786971,-100.784971,46.803197,46.805197
ND4900482,HILLSBORO CITY OF,"19 S Main St, Hillsboro, North Dakota, 58045",58045,North Dakota,Region 8,Community water system,1603,HILLSBORO,Traill,9,1,16,-97.061293,47.403059,-97.061293,47.403059,-97.071293,-97.051293,47.393059,47.413059
ND2701701,WATFORD RESIDENCE SUITES,"2312 12th St NE, Watford City, North Dakota, 58854",58854,North Dakota,Region 8,Community water system,32,,McKenzie,3,0,0,-103.262093,47.830187,-103.262093,47.830187,-103.272093,-103.252093,47.820187,47.840187
ND0800080,BISMARCK CITY OF,"58506, Bismarck, North Dakota",58506,North Dakota,Region 8,Community water system,61272,BISMARCK,Burleigh,7,0,26,-100.788362,46.808919,-100.788362,46.808919,-100.793362,-100.783362,46.803919,46.813919
ND2711299,TOBACCO GARDEN RECREATION AREA,"4781 Highway 1806 W, Watford City, North Dakota, 58854",58854,North Dakota,Region 8,Transient non-community system,30,,McKenzie,6,25,23,-103.103432,48.104148,-103.105091,48.10414,-103.104432,-103.102432,48.103148,48.105148
ND3700574,LISBON CITY OF,"423 Main St, Lisbon, North Dakota, 58054",58054,North Dakota,Region 8,Community water system,2154,LISBON,Ransom,12,0,14,-97.681452,46.442251,-97.681452,46.442251,-97.691452,-97.671452,46.432251,46.452251
ND4101425,MILNOR CITY OF,"58060, Delamere, North Dakota",58060,North Dakota,Region 8,Community water system,653,MILNOR,Sargent,3,5,12,-97.455966,46.259351,-97.455966,46.259351,-97.684966,-97.226966,46.030351,46.488351
ND1001380,LANGDON RURAL WATER DISTRICT,"13532 Highway 5, Cavalier, North Dakota, 58220",58220,North Dakota,Region 8,Community water system,2410,LANGDON,Cavalier,6,6,13,-97.743555,48.771752,-97.742821,48.77037,-97.744555,-97.742555,48.770752,48.772752
ND1300432,HALLIDAY CITY OF,"131 E Main St, Halliday, North Dakota, 58636",58636,North Dakota,Region 8,Community water system,188,HALLIDAY,Dunn,5,6,15,-102.335547,47.354496,-102.335547,47.354496,-102.345547,-102.325547,47.344496,47.364496
ND5000408,GRAFTON CITY OF,"5 E 4th St, Grafton, North Dakota, 58237",58237,North Dakota,Region 8,Community water system,4284,GRAFTON,Walsh,7,2,22,-97.41098,48.420595,-97.41098,48.420595,-97.42098,-97.40098,48.410595,48.430595
ND2200951,TUTTLE CITY OF,"58488, Tuttle, North Dakota",58488,North Dakota,Region 8,Community water system,80,TUTTLE,Kidder,8,17,14,-99.994343,47.142743,-99.994343,47.142743,-100.179343,-99.809343,46.957743,47.327743
ND2711599,SHORT STOP CONVENIENCE STORE,"203 Frontage Rd, Arnegard, North Dakota, 58835",58835,North Dakota,Region 8,Transient non-community system,100,,McKenzie,3,2,1,-103.435232,47.805117,-103.435241,47.80522,-103.436232,-103.434232,47.804117,47.806117
ND0910480,KNICKERBOCKER LIQUOR LOCKER,"412 Main Ave, Horace, North Dakota, 58047",58047,North Dakota,Region 8,Transient non-community system,30,,Cass,4,19,22,-96.810032,46.67109,-96.810361,46.67109,-96.811032,-96.809032,46.67009,46.67209
ND1800550,LARIMORE CITY OF,"122 W Main St, Larimore, North Dakota, 58251",58251,North Dakota,Region 8,Community water system,1346,LARIMORE,Grand Forks,9,0,17,-97.624902,47.905692,-97.624901,47.90562,-97.625902,-97.623902,47.904692,47.906692
ND4701303,STUTSMAN RURAL WATER DISTRICT,"1812 Highway 281 N, Jamestown, North Dakota, 58401",58401,North Dakota,Region 8,Community water system,3000,,Stutsman,9,0,13,-98.725715,46.926424,-98.725715,46.926424,-98.735715,-98.715715,46.916424,46.936424
ND0501001,WESTHOPE CITY OF,"95 1st Ave W, Westhope, North Dakota, 58793",58793,North Dakota,Region 8,Community water system,429,WESTHOPE,Bottineau,9,0,16,-101.022241,48.909377,-101.022241,48.90968,-101.023241,-101.021241,48.908377,48.910377
ND0501030,WILLOW CITY CITY OF,"58384, Barton, North Dakota",58384,North Dakota,Region 8,Community water system,163,WILLOW CITY,Bottineau,9,46,17,-100.293682,48.605635,-100.293682,48.605635,-100.688682,-99.898682,48.210635,49.000635
ND2900074,BEULAH CITY OF,"58523, Beulah, North Dakota",58523,North Dakota,Region 8,Community water system,3121,BEULAH,Mercer,14,4,19,-101.779902,47.266794,-101.779902,47.266794,-102.065902,-101.493902,46.980794,47.552794
ND3900333,FAIRMOUNT CITY OF,"104 1st St N, Fairmount, North Dakota, 58030",58030,North Dakota,Region 8,Community water system,367,FAIRMOUNT,Richland,7,10,18,-96.603842,46.055809,-96.604131,46.05581,-96.604842,-96.602842,46.054809,46.056809
ND2800650,MERCER CITY OF,"58559, Mercer, North Dakota",58559,North Dakota,Region 8,Community water system,94,MERCER,McLean,6,33,12,-100.712015,47.490283,-100.712015,47.490283,-100.909015,-100.515015,47.293283,47.687283
ND0500549,LANSFORD CITY OF,"732 Main St, Lansford, North Dakota, 58750",58750,North Dakota,Region 8,Community water system,245,LANSFORD,Bottineau,6,4,14,-101.376661,48.629192,-101.376651,48.62896,-101.377661,-101.375661,48.628192,48.630192
ND4700498,JAMESTOWN CITY OF,"102 3rd Ave SE, Jamestown, North Dakota, 58401",58401,North Dakota,Region 8,Community water system,15427,JAMESTOWN,Stutsman,17,0,21,-98.705482,46.908719,-98.705641,46.90871,-98.706482,-98.704482,46.907719,46.909719
ND2400380,GACKLE CITY OF,"201 Main St, Gackle, North Dakota, 58442",58442,North Dakota,Region 8,Community water system,310,GACKLE,Logan,12,6,14,-99.142646,46.628447,-99.142646,46.628447,-99.152646,-99.132646,46.618447,46.638447
ND1600398,GLENFIELD CITY OF,"58443, Juanita, North Dakota",58443,North Dakota,Region 8,Community water system,91,GLENFIELD,Foster,7,5,13,-98.566962,47.45384,-98.566962,47.45384,-98.882962,-98.250962,47.13784,47.76984
ND1900303,ELGIN CITY OF,"305 N Main St, Elgin, North Dakota, 58533",58533,North Dakota,Region 8,Community water system,642,ELGIN,Grant,11,5,17,-101.845262,46.404652,-101.845262,46.404652,-101.855262,-101.835262,46.394652,46.414652
ND5100923,SURREY CITY OF,"100 Pleasant Ave S, Surrey, North Dakota, 58785",58785,North Dakota,Region 8,Community water system,934,SURREY,Ward,5,3,12,-101.133772,48.237129,-101.134061,48.23713,-101.134772,-101.132772,48.236129,48.238129
ND4500821,RICHARDTON CITY OF,"111 North Ave W, Richardton, North Dakota, 58652",58652,North Dakota,Region 8,Community water system,529,RICHARDTON,Stark,9,0,17,-102.316976,46.883962,-102.317021,46.88381,-102.317976,-102.315976,46.882962,46.884962
ND4000834,ROLLA CITY OF,"14 1st St SE, Rolla, North Dakota, 58367",58367,North Dakota,Region 8,Community water system,1280,ROLLA,Rolette,11,4,18,-99.615051,48.858994,-99.615051,48.858994,-99.625051,-99.605051,48.848994,48.868994
ND0900613,MAPLETON CITY OF,"651 2nd St, Mapleton, North Dakota, 58059",58059,North Dakota,Region 8,Community water system,762,MAPLETON,Cass,4,1,18,-97.052091,46.889296,-97.052091,46.88946,-97.053091,-97.051091,46.888296,46.890296
ND2300508,JUD CITY OF,"58454, Alfred, North Dakota",58454,North Dakota,Region 8,Community water system,72,JUD,LaMoure,5,9,15,-98.897835,46.525489,-98.897835,46.525489,-99.154835,-98.640835,46.268489,46.782489
ND4011639,BORDER LOUNGE,"10934 Highway 30, Saint John, North Dakota, 58369",58369,North Dakota,Region 8,Transient non-community system,40,,Rolette,3,0,1,-99.657844,48.998675,-99.657741,48.99883,-99.658844,-99.656844,48.997675,48.999675
ND5100868,SAWYER CITY OF,"45 Main St S, Sawyer, North Dakota, 58781",58781,North Dakota,Region 8,Community water system,357,SAWYER,Ward,7,2,16,-101.053085,48.09032,-101.053085,48.09032,-101.063085,-101.043085,48.08032,48.10032
ND0901410,FRADETS ORCHARD WATER SYSTEM,"207 Apple Ln, Horace, North Dakota, 58047",58047,North Dakota,Region 8,Community water system,56,,Cass,4,42,7,-96.91077,46.762698,-96.911281,46.76275,-96.91177,-96.90977,46.761698,46.763698
ND4711217,JAMESTOWN CAMPGROUND,"3605 80th Ave SE, Jamestown, North Dakota, 58401",58401,North Dakota,Region 8,Transient non-community system,25,,Stutsman,3,4,17,-98.776691,46.891271,-98.776801,46.89128,-98.777691,-98.775691,46.890271,46.892271
ND0300659,MINNEWAUKAN CITY OF,"170 Main St W, Minnewaukan, North Dakota, 58351",58351,North Dakota,Region 8,Community water system,224,MINNEWAUKAN,Benson,6,1,18,-99.253571,48.071169,-99.253571,48.071169,-99.263571,-99.243571,48.061169,48.081169
ND3111579,MON-DAK WATER & SEPTIC,"58784, Belden, North Dakota",58784,North Dakota,Region 8,Transient non-community system,135,,Mountrail,7,3,1,-102.386204,48.312555,-102.386204,48.312555,-102.828204,-101.944204,47.870555,48.754555
ND0600869,SCRANTON CITY OF,"109 2nd Ave SW, Scranton, North Dakota, 58653",58653,North Dakota,Region 8,Community water system,281,SCRANTON,Bowman,9,3,14,-103.14485,46.147332,-103.14485,46.147332,-103.15485,-103.13485,46.137332,46.157332
ND0200763,ORISKA CITY OF,"58063, Oriska, North Dakota",58063,North Dakota,Region 8,Community water system,118,ORISKA,Barnes,4,21,12,-97.791036,46.931961,-97.791036,46.931961,-97.983036,-97.599036,46.739961,47.123961
ND5200169,CATHAY CITY OF,"232 1st St, Cathay, North Dakota, 58422",58422,North Dakota,Region 8,Community water system,43,CATHAY,Wells,5,20,18,-99.412741,47.555019,-99.412741,47.555019,-99.422741,-99.402741,47.545019,47.565019
ND1800410,GRAND FORKS CITY OF,"58201, Grand Forks, North Dakota",58201,North Dakota,Region 8,Community water system,52838,GRAND FORKS,Grand Forks,9,9,18,-97.048115,47.89778,-97.048115,47.89778,-97.304115,-96.792115,47.64178,48.15378
ND0900489,HORSESHOE BEND,"7 Horseshoe Bnd, Horace, North Dakota, 58047",58047,North Dakota,Region 8,Community water system,110,,Cass,6,25,10,-96.906082,46.792106,-96.906082,46.792106,-96.916082,-96.896082,46.782106,46.802106
ND5301011,WILDROSE CITY OF,"417 Main St, Wildrose, North Dakota, 58795",58795,North Dakota,Region 8,Community water system,110,WILDROSE,Williams,7,15,13,-103.184245,48.628623,-103.184245,48.628623,-103.194245,-103.174245,48.618623,48.638623
ND2911297,BEULAH BAY REC AREA,"1900 Central Ave N, Beulah, North Dakota, 58523",58523,North Dakota,Region 8,Transient non-community system,25,,Mercer,3,7,16,-101.778859,47.281394,-101.778859,47.281394,-101.788859,-101.768859,47.271394,47.291394
ND5301063,SPRINGBROOK MEADOWS MHP,"58802, Williston, North Dakota",58802,North Dakota,Region 8,Community water system,300,,Williams,5,4,1,-103.619032,48.146469,-103.619032,48.146469,-103.624032,-103.614032,48.141469,48.151469
ND5101447,WEST RIVER WATER AND SEWER,"6601 8th Ave NW, Minot, North Dakota, 58703",58703,North Dakota,Region 8,Community water system,450,,Ward,5,6,6,-101.390732,48.245023,-101.390981,48.24501,-101.391732,-101.389732,48.244023,48.246023
ND2911495,BEULAH BAY REC AREA #2,"1900 Central Ave N, Beulah, North Dakota, 58523",58523,North Dakota,Region 8,Transient non-community system,100,,Mercer,3,5,4,-101.778859,47.281394,-101.778859,47.281394,-101.788859,-101.768859,47.271394,47.291394
ND0900030,ARGUSVILLE CITY OF,"602 Lynn Dawn Dr, Argusville, North Dakota, 58005",58005,North Dakota,Region 8,Community water system,475,ARGUSVILLE,Cass,5,3,12,-96.936132,47.055732,-96.936091,47.05546,-96.937132,-96.935132,47.054732,47.056732
ND4500242,DICKINSON CITY OF,"3411 Public Works Blvd, Dickinson, North Dakota, 58601",58601,North Dakota,Region 8,Community water system,17787,DICKINSON,Stark,8,10,18,-102.726868,46.881278,-102.726868,46.881278,-102.736868,-102.716868,46.871278,46.891278
ND0201058,BARNES RURAL WATER DISTRICT,"421 W Main St, Valley City, North Dakota, 58072",58072,North Dakota,Region 8,Community water system,3939,VALLEY CITY,Barnes,8,0,17,-98.007719,46.923214,-98.007719,46.923214,-98.017719,-97.997719,46.913214,46.933214
ND2500964,VELVA CITY OF,"101 1st St W, Velva, North Dakota, 58790",58790,North Dakota,Region 8,Community water system,1084,VELVA,McHenry,9,9,18,-100.930789,48.057881,-100.931241,48.05794,-100.931789,-100.929789,48.056881,48.058881
ND0500620,MAXBASS CITY OF,"58760, Maxbass, North Dakota",58760,North Dakota,Region 8,Community water system,84,MAXBASS,Bottineau,8,10,18,-101.139181,48.721905,-101.139181,48.721905,-101.497181,-100.781181,48.363905,49.079905
ND0100812,REEDER CITY OF,"58649, Reeder, North Dakota",58649,North Dakota,Region 8,Community water system,162,REEDER,Adams,6,7,17,-102.944816,46.107144,-102.944816,46.107144,-103.217816,-102.671816,45.834144,46.380144
ND3400707,MOUNTAIN CITY OF,"58262, Mountain, North Dakota",58262,North Dakota,Region 8,Community water system,92,MOUNTAIN,Pembina,5,14,12,-97.865906,48.681165,-97.865906,48.681165,-97.955906,-97.775906,48.591165,48.771165
ND1800753,NORTHWOOD CITY OF,"12 N Raymond St, Northwood, North Dakota, 58267",58267,North Dakota,Region 8,Community water system,945,NORTHWOOD,Grand Forks,10,3,18,-97.568132,47.734931,-97.568421,47.73493,-97.569132,-97.567132,47.733931,47.735931
ND5100660,MINOT CITY OF,"58702, Minot, North Dakota",58702,North Dakota,Region 8,Community water system,40888,MINOT,Ward,21,3,18,-101.295252,48.231299,-101.295252,48.231299,-101.300252,-101.290252,48.226299,48.236299
ND1000658,MILTON CITY OF,"12380 83rd St NE, Milton, North Dakota, 58260",58260,North Dakota,Region 8,Community water system,58,MILTON,Cavalier,4,23,12,-97.971237,48.615586,-97.971237,48.615586,-97.981237,-97.961237,48.605586,48.625586
ND3211493,MCVILLE FARMERS UNION,"11182 Highway 15, Mcville, North Dakota, 58254",58254,North Dakota,Region 8,Transient non-community system,200,,Nelson,3,6,3,-98.185411,47.765166,-98.185791,47.7647,-98.186411,-98.184411,47.764166,47.766166
ND2601037,WISHEK CITY OF,"503 2nd Ave N, Wishek, North Dakota, 58495",58495,North Dakota,Region 8,Community water system,1002,WISHEK,McIntosh,8,5,12,-99.558994,46.261105,-99.558994,46.261105,-99.568994,-99.548994,46.251105,46.271105
ND1300730,NEW HRADEC WATERWORKS,"104 Lafayette St, Dickinson, North Dakota, 58601",58601,North Dakota,Region 8,Community water system,60,NEW HRADEC,Dunn,4,10,12,-102.884082,46.999982,-102.884081,46.99998,-102.885082,-102.883082,46.998982,47.000982
ND2800825,RIVERDALE CITY OF,"300 2nd St, Riverdale, North Dakota, 58565",58565,North Dakota,Region 8,Community water system,205,RIVERDALE,McLean,6,13,21,-101.373633,47.497834,-101.373633,47.497834,-101.383633,-101.363633,47.487834,47.507834
ND3200776,PEKIN CITY OF,"58361, Pekin, North Dakota",58361,North Dakota,Region 8,Community water system,70,PEKIN,Nelson,5,11,15,-98.327907,47.792255,-98.327907,47.792255,-98.461907,-98.193907,47.658255,47.926255
ND3000400,GLEN ULLIN CITY OF,"119 Main St S, Glen Ullin, North Dakota, 58631",58631,North Dakota,Region 8,Community water system,807,GLEN ULLIN,Morton,7,3,17,-101.830171,46.815165,-101.830541,46.81515,-101.831171,-101.829171,46.814165,46.816165
ND5311471,MISSOURI-YELLOWSTONE INTERPRETIVE CENTER,"15349 39th Ln NW, Williston, North Dakota, 58801",58801,North Dakota,Region 8,Transient non-community system,100,,Williams,3,1,7,-104.003316,47.984265,-104.001521,47.98638,-104.004316,-104.002316,47.983265,47.985265
ND1501310,STATE LINE WATER COOP INC,"9545 11th Ave SE, Strasburg, North Dakota, 58573",58573,North Dakota,Region 8,Community water system,386,,Emmons,5,1,11,-100.150057,46.037556,-100.150057,46.037556,-100.160057,-100.140057,46.027556,46.047556
ND0300987,WARWICK CITY OF,"112 Main St S, Warwick, North Dakota, 58381",58381,North Dakota,Region 8,Community water system,65,WARWICK,Benson,5,39,17,-98.709559,47.853404,-98.709559,47.853404,-98.719559,-98.699559,47.843404,47.863404
ND0900460,HARWOOD CITY OF,"108 Main St, Harwood, North Dakota, 58042",58042,North Dakota,Region 8,Community water system,718,HARWOOD,Cass,9,5,15,-96.879719,46.977879,-96.880051,46.97774,-96.880719,-96.878719,46.976879,46.978879
ND1100698,MONANGO CITY OF,"308 Main Ave, Monango, North Dakota, 58436",58436,North Dakota,Region 8,Community water system,36,MONANGO,Dickey,5,42,12,-98.592975,46.172983,-98.592975,46.172983,-98.602975,-98.582975,46.162983,46.182983
ND2801430,GARRISON RURAL WATER DISTRICT,"58540, Emmet, North Dakota",58540,North Dakota,Region 8,Community water system,1228,,McLean,5,0,11,-101.414477,47.653559,-101.414477,47.653559,-102.266477,-100.562477,46.801559,48.505559
ND3310177,MILTON R YOUNG STATION WELL - MPC,"3401 24th St SW, Center, North Dakota, 58530",58530,North Dakota,Region 8,Non-Transient non-community system,150,,Oliver,6,0,17,-101.228282,47.068066,-101.228282,47.068066,-101.238282,-101.218282,47.058066,47.078066
ND0510107,TWIN OAKS RESORT,"2530 87th St NW, Lansford, North Dakota, 58750",58750,North Dakota,Region 8,Transient non-community system,100,,Bottineau,6,7,22,-101.263312,48.675922,-101.263311,48.67547,-101.264312,-101.262312,48.674922,48.676922
ND0300553,LEEDS CITY OF,"58346, Harlow, North Dakota",58346,North Dakota,Region 8,Community water system,427,LEEDS,Benson,8,10,17,-99.436466,48.290059,-99.436466,48.290059,-99.672466,-99.200466,48.054059,48.526059
ND2800619,MAX CITY OF,"58579, Wilton, North Dakota",58579,North Dakota,Region 8,Community water system,334,MAX,McLean,3,3,15,-100.787563,47.160904,-100.787563,47.160904,-101.058563,-100.516563,46.889904,47.431904
ND1000721,NEKOMA CITY OF,"58249, Langdon, North Dakota",58249,North Dakota,Region 8,Community water system,50,NEKOMA,Cavalier,5,13,10,-98.371459,48.763294,-98.371459,48.763294,-98.793459,-97.949459,48.341294,49.185294
ND3000342,FLASHER CITY OF,"58535, Flasher, North Dakota",58535,North Dakota,Region 8,Community water system,232,FLASHER,Morton,10,4,17,-101.233547,46.4555,-101.233547,46.4555,-101.522547,-100.944547,46.1665,46.7445
ND3701448,SOUTHEAST WUD (CENTRAL-LISBON),"6564 137th Ave SE, Lisbon, North Dakota, 58054",58054,North Dakota,Region 8,Community water system,1675,,Ransom,4,1,8,-97.552756,46.461877,-97.552756,46.461877,-97.562756,-97.542756,46.451877,46.471877
ND0900217,DAVENPORT CITY OF,"120 Main St, Davenport, North Dakota, 58021",58021,North Dakota,Region 8,Community water system,252,DAVENPORT,Cass,5,8,15,-97.07076,46.712106,-97.070491,46.71234,-97.07176,-97.06976,46.711106,46.713106
ND5101687,NORTHWESTERN AREA WATER SUPPLY,"900 E Boulevard Ave, Bismarck, North Dakota, 58505",58505,North Dakota,Region 8,Community water system,0,,Ward,2,0,0,-100.778174,46.816717,-100.778181,46.81723,-100.779174,-100.777174,46.815717,46.817717
ND4700188,CLEVELAND CITY OF,"6865 36th St SE, Cleveland, North Dakota, 58424",58424,North Dakota,Region 8,Community water system,83,CLEVELAND,Stutsman,6,8,17,-99.017012,46.892167,-99.017021,46.89253,-99.018012,-99.016012,46.891167,46.893167
ND3000596,MANDAN CITY OF,"205 2nd Ave NW, Mandan, North Dakota, 58554",58554,North Dakota,Region 8,Community water system,18331,MANDAN,Morton,7,0,23,-100.893139,46.8274,-100.893161,46.8274,-100.894139,-100.892139,46.8264,46.8284
ND0901184,BROOKTREE WELLS INC,"106 Brooktree Park, Harwood, North Dakota, 58042",58042,North Dakota,Region 8,Community water system,45,,Cass,5,12,10,-96.893606,47.002306,-96.893361,47.00257,-96.894606,-96.892606,47.001306,47.003306
ND2900902,STANTON CITY OF,"109 Harmon Ave, Stanton, North Dakota, 58571",58571,North Dakota,Region 8,Community water system,366,STANTON,Mercer,8,2,16,-101.384191,47.321022,-101.384191,47.3209,-101.385191,-101.383191,47.320022,47.322022
ND4511651,STALLION ROCKIES LTD,"11160 32nd St SW, Dickinson, North Dakota, 58601",58601,North Dakota,Region 8,Transient non-community system,350,,Stark,3,1,1,-102.802801,46.948432,-102.802831,46.94827,-102.803801,-102.801801,46.947432,46.949432
ND0911393,"K & K CONSTRUCTION AND REPAIR, INC.","1202 7th Ave NE, West Fargo, North Dakota, 58078",58078,North Dakota,Region 8,Non-Transient non-community system,70,,Cass,4,2,19,-96.873941,46.883667,-96.873901,46.88499,-96.874941,-96.872941,46.882667,46.884667
ND1911236,HEART BUTTE F U CAMP,"58402, Jamestown, North Dakota",58402,North Dakota,Region 8,Transient non-community system,65,,Grant,3,7,17,-98.710161,46.907739,-98.710161,46.907739,-98.715161,-98.705161,46.902739,46.912739
ND5200458,HARVEY CITY OF,"58341, Manfred, North Dakota",58341,North Dakota,Region 8,Community water system,1783,HARVEY,Wells,7,1,20,-99.932417,47.768872,-99.932417,47.768872,-100.567417,-99.297417,47.133872,48.403872
ND2900789,PICK CITY CITY OF,"18 1st Ln SE, Pick City, North Dakota, 58545",58545,North Dakota,Region 8,Community water system,123,PICK CITY,Mercer,6,7,20,-101.454222,47.510616,-101.454811,47.51056,-101.455222,-101.453222,47.509616,47.511616
ND3500842,RUGBY CITY OF,"223 South Ave, Hebron, North Dakota, 58638",58638,North Dakota,Region 8,Community water system,2876,RUGBY,Pierce,13,1,22,-102.052273,46.894972,-102.052273,46.894972,-102.062273,-102.042273,46.884972,46.904972
ND5311584,T&T ENTERPRISES (WATER HAULER),"2015 6th Ave E, Williston, North Dakota, 58801",58801,North Dakota,Region 8,Transient non-community system,300,,Williams,7,0,1,-103.613592,48.163419,-103.613881,48.16342,-103.614592,-103.612592,48.162419,48.164419
ND2801487,NORTH CENTRAL RW CONSORTIUM (RIVERDALE),"3811 Burdick Expy E, Minot, North Dakota, 58701",58701,North Dakota,Region 8,Community water system,476,,McLean,3,3,3,-101.235952,48.229507,-101.235951,48.22972,-101.236952,-101.234952,48.228507,48.230507
ND0200581,LITCHVILLE CITY OF,"421 W Main St, Valley City, North Dakota, 58072",58072,North Dakota,Region 8,Community water system,172,LITCHVILLE,Barnes,3,25,13,-98.007719,46.923214,-98.007719,46.923214,-98.017719,-97.997719,46.913214,46.933214
ND2400715,NAPOLEON CITY OF,"225 Lake Ave W, Napoleon, North Dakota, 58561",58561,North Dakota,Region 8,Community water system,792,NAPOLEON,Logan,10,2,15,-99.770493,46.501049,-99.770493,46.501049,-99.780493,-99.760493,46.491049,46.511049
ND5101065,NORTH PRAIRIE RWD-SYSTEM III,"3811 Burdick Expy E, Minot, North Dakota, 58701",58701,North Dakota,Region 8,Community water system,3736,,Ward,9,1,10,-101.235952,48.229507,-101.235951,48.22972,-101.236952,-101.234952,48.228507,48.230507
ND5101125,NORTH PRAIRIE RWD-SYSTEM 1&2,"3811 Burdick Expy E, Minot, North Dakota, 58701",58701,North Dakota,Region 8,Community water system,7117,,Ward,4,1,9,-101.235952,48.229507,-101.235951,48.22972,-101.236952,-101.234952,48.228507,48.230507
ND4800828,ROCK LAKE CITY OF,"58365, Rocklake, North Dakota",58365,North Dakota,Region 8,Community water system,101,ROCKLAKE (CORPORATE NAME FOR R,Towner,6,31,15,-99.248798,48.786935,-99.248798,48.786935,-99.496798,-99.000798,48.538935,49.034935
ND1211226,AMBROSE COMMUNITY WELL,"58833, Ambrose, North Dakota",58833,North Dakota,Region 8,Transient non-community system,75,AMBROSE,Divide,5,11,26,-103.48757,48.879911,-103.48757,48.879911,-103.75057,-103.22457,48.616911,49.142911
ND0411415,BURNING HILLS AMPHITHEATER,"475 E River Rd, Medora, North Dakota, 58645",58645,North Dakota,Region 8,Transient non-community system,900,,Billings,4,1,21,-103.596081,47.222662,-103.596081,47.222662,-103.606081,-103.586081,47.212662,47.232662
ND2800069,BENEDICT CITY OF,"58716, Benedict, North Dakota",58716,North Dakota,Region 8,Community water system,66,BENEDICT,McLean,7,20,15,-101.079592,47.828649,-101.079592,47.828649,-101.246592,-100.912592,47.661649,47.995649
ND5010350,SIDETRACK BAR & DAM CAFE,"58231, Fordville, North Dakota",58231,North Dakota,Region 8,Transient non-community system,30,,Walsh,3,23,17,-97.793987,48.219599,-97.793987,48.219599,-98.027987,-97.559987,47.985599,48.453599
ND4800152,CANDO CITY OF,"502 Main St, Cando, North Dakota, 58324",58324,North Dakota,Region 8,Community water system,1115,CANDO,Towner,8,4,17,-99.203211,48.489852,-99.203211,48.48985,-99.204211,-99.202211,48.488852,48.490852
ND1500429,HAGUE CITY OF,"58502, Bismarck, North Dakota",58502,North Dakota,Region 8,Community water system,71,HAGUE,Emmons,7,10,16,-100.788362,46.808919,-100.788362,46.808919,-100.793362,-100.783362,46.803919,46.813919
ND1300520,KILLDEER CITY OF,"58640, Killdeer, North Dakota",58640,North Dakota,Region 8,Community water system,751,KILLDEER,Dunn,9,0,13,-102.755479,47.369586,-102.755479,47.369586,-103.099479,-102.411479,47.025586,47.713586
ND0200958,VALLEY CITY CITY OF,"254 2nd Ave NE, Valley City, North Dakota, 58072",58072,North Dakota,Region 8,Community water system,6585,VALLEY CITY,Barnes,9,7,19,-98.001491,46.924814,-98.001491,46.924814,-98.011491,-97.991491,46.914814,46.934814
ND1700059,BEACH CITY OF,"153 E Main St, Beach, North Dakota, 58621",58621,North Dakota,Region 8,Community water system,1019,BEACH,Golden Valley,13,6,16,-104.003906,46.914836,-104.003906,46.914836,-104.013906,-103.993906,46.904836,46.924836
ND0300587,MADDOCK CITY OF,"309 2nd St, Maddock, North Dakota, 58348",58348,North Dakota,Region 8,Community water system,382,MADDOCK,Benson,7,6,17,-99.529886,47.961653,-99.529886,47.961653,-99.539886,-99.519886,47.951653,47.971653
ND4000277,DUNSEITH CITY OF,"101 Peace Garden Ave E, Dunseith, North Dakota, 58329",58329,North Dakota,Region 8,Community water system,773,DUNSEITH,Rolette,15,9,18,-100.062482,48.813011,-100.062482,48.813011,-100.072482,-100.052482,48.803011,48.823011
ND2711694,THE DAKOTAN MOTEL,"13047 N 80th Pl, Scottsdale, Arizona, 85260",85260,North Dakota,Region 8,Transient non-community system,60,,McKenzie,3,0,0,-111.907509,33.605231,-111.907101,33.60523,-111.908509,-111.906509,33.604231,33.606231
ND3400720,NECHE CITY OF,"58265, Neche, North Dakota",58265,North Dakota,Region 8,Community water system,371,NECHE,Pembina,6,6,17,-97.552756,48.982431,-97.552756,48.982431,-97.755756,-97.349756,48.779431,49.185431
ND0311302,SULLYS HILL NATL GAME PRESERVE,"221 2nd St NW, Devils Lake, North Dakota, 58301",58301,North Dakota,Region 8,Transient non-community system,300,,Benson,6,7,19,-98.867711,48.109816,-98.867701,48.11005,-98.868711,-98.866711,48.108816,48.110816
ND3300174,CENTER NORTH SYSTEM,"312 Lincoln Ave N, Center, North Dakota, 58530",58530,North Dakota,Region 8,Community water system,434,CENTER,Oliver,9,1,14,-101.298261,47.119401,-101.299051,47.11917,-101.299261,-101.297261,47.118401,47.120401
ND2710994,T ROOSEVELT NATL PK-NORTH,"208 Scenic Dr, Watford City, North Dakota, 58854",58854,North Dakota,Region 8,Transient non-community system,35,,McKenzie,4,0,23,-103.257871,47.59915,-103.257871,47.59915,-103.267871,-103.247871,47.58915,47.60915
ND3601424,GREATER RAMSEY WATER DISTRICT,"113 Shamrock Ln SE, Devils Lake, North Dakota, 58301",58301,North Dakota,Region 8,Community water system,3080,,Ramsey,8,3,13,-98.865062,48.097904,-98.864681,48.09831,-98.866062,-98.864062,48.096904,48.098904
ND0700800,PORTAL CITY OF,"25 Railway Ave, Portal, North Dakota, 58772",58772,North Dakota,Region 8,Community water system,126,PORTAL,Burke,6,25,14,-102.547888,48.996166,-102.547888,48.996166,-102.557888,-102.537888,48.986166,49.006166
ND0700804,POWERS LAKE CITY OF,"58773, Powers Lake, North Dakota",58773,North Dakota,Region 8,Community water system,280,POWERS LAKE,Burke,10,5,13,-102.669126,48.416021,-102.669126,48.416021,-103.104126,-102.234126,47.981021,48.851021
ND4101452,SUNDALE HUTTERIAN ASSOCIATION,"14226 75th St SE, Milnor, North Dakota, 58060",58060,North Dakota,Region 8,Community water system,110,,Sargent,5,13,6,-97.442697,46.326006,-97.442697,46.326006,-97.452697,-97.432697,46.316006,46.336006
ND0311637,SOUTHEND R & R,"Highway 20, Warwick, North Dakota, 58381",58381,North Dakota,Region 8,Transient non-community system,100,,Benson,3,1,1,-98.716477,47.879021,-98.716477,47.879021,-98.803477,-98.629477,47.792021,47.966021
ND5100138,BURLINGTON CITY OF,"58722, Burlington, North Dakota",58722,North Dakota,Region 8,Community water system,1060,BURLINGTON,Ward,11,18,14,-101.429401,48.27526,-101.429401,48.27526,-101.599401,-101.259401,48.10526,48.44526
ND3000597,CROWN BUTTE COOP,"224 Crown Butte Dr, Mandan, North Dakota, 58554",58554,North Dakota,Region 8,Community water system,320,,Morton,12,11,15,-101.065372,46.870067,-101.065371,46.87029,-101.066372,-101.064372,46.869067,46.871067
ND3200023,ANETA CITY OF,"58212, Aneta, North Dakota",58212,North Dakota,Region 8,Community water system,222,ANETA,Nelson,6,7,17,-97.991126,47.6806,-97.991126,47.6806,-98.219126,-97.763126,47.4526,47.9086
ND0900524,KINDRED CITY OF,"58051, Kindred, North Dakota",58051,North Dakota,Region 8,Community water system,692,KINDRED,Cass,3,0,17,-97.095365,46.616111,-97.095365,46.616111,-97.307365,-96.883365,46.404111,46.828111
ND0800570,LINCOLN CITY OF,"74 Santee Rd, Lincoln, North Dakota, 58504",58504,North Dakota,Region 8,Community water system,2406,LINCOLN,Burleigh,9,3,18,-100.690021,46.764307,-100.690031,46.76453,-100.691021,-100.689021,46.763307,46.765307
ND3800397,GLENBURN CITY OF,"215 Main St, Glenburn, North Dakota, 58740",58740,North Dakota,Region 8,Community water system,380,GLENBURN,Renville,3,0,14,-101.221677,48.513074,-101.221677,48.513074,-101.231677,-101.211677,48.503074,48.523074
ND4900465,HATTON CITY OF,"405 Railroad Ave W, Hatton, North Dakota, 58240",58240,North Dakota,Region 8,Community water system,777,HATTON,Traill,3,1,18,-97.462785,47.6394,-97.462785,47.6394,-97.472785,-97.452785,47.6294,47.6494
ND0901131,CASS RURAL WATER DISTRICT-PHASE III,"131 Maple St, Kindred, North Dakota, 58051",58051,North Dakota,Region 8,Community water system,1682,,Cass,8,0,16,-97.012401,46.646457,-97.012421,46.6467,-97.013401,-97.011401,46.645457,46.647457
ND5301686,WESTERN AREA WATER SUPPLY AUTHORITY,"58802, Williston, North Dakota",58802,North Dakota,Region 8,Community water system,0,,Williams,6,0,0,-103.619032,48.146469,-103.619032,48.146469,-103.624032,-103.614032,48.141469,48.151469
ND4000833,ROLETTE CITY OF,"304 Main St, Rolette, North Dakota, 58366",58366,North Dakota,Region 8,Community water system,594,ROLETTE,Rolette,6,10,17,-99.844809,48.662042,-99.844809,48.662042,-99.854809,-99.834809,48.652042,48.672042
ND3100798,PLAZA CITY OF,"3811 Burdick Expy E, Minot, North Dakota, 58701",58701,North Dakota,Region 8,Community water system,171,PLAZA,Mountrail,9,18,13,-101.235952,48.229507,-101.235951,48.22972,-101.236952,-101.234952,48.228507,48.230507
ND0901124,CASS RURAL WATER DISTRICT-PHASE II,"131 Maple St, Kindred, North Dakota, 58051",58051,North Dakota,Region 8,Community water system,1700,,Cass,13,0,16,-97.012401,46.646457,-97.012421,46.6467,-97.013401,-97.011401,46.645457,46.647457
ND3900607,MANTADOR CITY OF,"58058, Mantador, North Dakota",58058,North Dakota,Region 8,Community water system,64,MANTADOR,Richland,3,2,15,-96.976192,46.16554,-96.976192,46.16554,-97.066192,-96.886192,46.07554,46.25554
ND4400615,MARMARTH CITY OF,"58643, Marmarth, North Dakota",58643,North Dakota,Region 8,Community water system,136,MARMARTH,Slope,6,8,15,-103.898352,46.176756,-103.898352,46.176756,-104.262352,-103.534352,45.812756,46.540756
ND3111582,WHITING OIL & GAS,"4499 Highway 8, New Town, North Dakota, 58763",58763,North Dakota,Region 8,Non-Transient non-community system,50,,Mountrail,4,0,1,-102.353649,48.066488,-102.353649,48.066488,-102.363649,-102.343649,48.056488,48.076488
ND0901483,CASS RURAL WD (FARGO-SOUTH),"131 Maple St, Kindred, North Dakota, 58051",58051,North Dakota,Region 8,Community water system,1105,,Cass,3,0,3,-97.012401,46.646457,-97.012421,46.6467,-97.013401,-97.011401,46.645457,46.647457
ND0901060,CASS RURAL WATER DISTRICT-PHASE I,"131 Maple St, Kindred, North Dakota, 58051",58051,North Dakota,Region 8,Community water system,3658,,Cass,13,1,16,-97.012401,46.646457,-97.012421,46.6467,-97.013401,-97.011401,46.645457,46.647457
ND5311611,GLACIER POTABLE WATER,"7345 State Highway 789, Lander, Wyoming, 82520",82520,North Dakota,Region 8,Transient non-community system,120,,Williams,3,0,1,-108.648117,42.738381,-108.649351,42.73824,-108.649117,-108.647117,42.737381,42.739381
ND1700870,SENTINEL BUTTE CITY OF,"S West St, Sentinel Butte, North Dakota, 58654",58654,North Dakota,Region 8,Community water system,56,SENTINEL BUTTE,Golden Valley,6,4,14,-103.839839,46.916494,-103.839839,46.916494,-103.841839,-103.837839,46.914494,46.918494
ND2500946,TOWNER CITY OF,"508 1st St NW, Towner, North Dakota, 58788",58788,North Dakota,Region 8,Community water system,533,TOWNER,McHenry,8,0,17,-100.40669,48.351159,-100.406321,48.35116,-100.40769,-100.40569,48.350159,48.352159
ND2000077,BINFORD CITY OF,"58416, Binford, North Dakota",58416,North Dakota,Region 8,Community water system,183,BINFORD,Griggs,6,18,15,-98.346023,47.560486,-98.346023,47.560486,-98.517023,-98.175023,47.389486,47.731486
ND3600298,EDMORE CITY OF,"58330, Edmore, North Dakota",58330,North Dakota,Region 8,Community water system,182,EDMORE,Ramsey,3,1,8,-98.456074,48.413464,-98.456074,48.413464,-98.690074,-98.222074,48.179464,48.647464
ND4701151,MONTPELIER CITY OF,"58472, Millarton, North Dakota",58472,North Dakota,Region 8,Community water system,87,MONTPELIER,Stutsman,4,12,10,-98.586687,46.700225,-98.586687,46.700225,-98.897687,-98.275687,46.389225,47.011225
