PWSID,PWS Name,Approximate Address,Postal,Primacy Agency,EPA Region,PWS Type,Population Served Count,Cities Served,Counties Served,# of Facilities,# of Violations,# of Site Visits,Latitude,Longitude,DisplayX,DisplayY,Xmin,Xmax,Ymin,Ymax
OR4100628,COUNTRY CLUB WATER DISTRICT,"97011, Brightwood, Oregon",97011,Oregon,Region 10,Community water system,150,,Clackamas,7,52,6,-122.025064,45.375043,-122.025064,45.375043,-122.166064,-121.884064,45.234043,45.516043
OR4190299,LAST CHANCE SALOON,"4859 Forsythe Dr SE, Salem, Oregon, 97302",97302,Oregon,Region 10,Transient non-community system,60,,Marion,5,68,3,-123.014729,44.884768,-123.014981,44.88485,-123.015729,-123.013729,44.883768,44.885768
OR4193484,MERLIN MOBILE HOME PARK,"6125 Azalea Dr, Grants Pass, Oregon, 97526",97526,Oregon,Region 10,Transient non-community system,25,,Josephine,5,9,4,-123.441338,42.515047,-123.441161,42.51632,-123.442338,-123.440338,42.514047,42.516047
OR4100522,"MILTON-FREEWATER, CITY OF","97862, Milton Freewater, Oregon",97862,Oregon,Region 10,Community water system,7070,,Umatilla,20,194,4,-118.395014,45.942154,-118.395014,45.942154,-118.817014,-117.973014,45.520154,46.364154
OR4190413,ONEYS RESTAURANT/LOUNGE,"1263 NE Hawthorne Ave, Hillsboro, Oregon, 97124",97124,Oregon,Region 10,Transient non-community system,60,,Clatsop,5,46,4,-122.968051,45.534032,-122.968321,45.53417,-122.969051,-122.967051,45.533032,45.535032
OR4191912,SMOKE ON THE WATER,"2700 Lakeshore Dr, Selma, Oregon, 97538",97538,Oregon,Region 10,Transient non-community system,29,,Josephine,5,26,3,-123.575307,42.263134,-123.575121,42.26332,-123.576307,-123.574307,42.262134,42.264134
OR4190178,COE MCNARY DAM,"97882, Umatilla, Oregon",97882,Oregon,Region 10,Non-Transient non-community system,120,,Umatilla,10,184,3,-119.334321,45.917679,-119.334321,45.917679,-119.775321,-118.893321,45.476679,46.358679
OR4192114,WELLS CREEK INN,"2071 NE Stephens St, Roseburg, Oregon, 97470",97470,Oregon,Region 10,Transient non-community system,25,,Douglas,5,29,3,-123.350713,43.234152,-123.350511,43.23416,-123.351713,-123.349713,43.233152,43.235152
OR4194129,SUTTLE LODGE AND BOATHOUSE,"13300 Highway 20, Sisters, Oregon, 97759",97759,Oregon,Region 10,Transient non-community system,70,,Jefferson,3,28,3,-121.720893,44.428459,-121.720893,44.428459,-121.730893,-121.710893,44.418459,44.438459
OR4194172,BROTHERS STAGE STOP,"34100 E Highway 20, Brothers, Oregon, 97712",97712,Oregon,Region 10,Transient non-community system,30,,Deschutes,3,42,4,-120.603323,43.813816,-120.602991,43.81446,-120.604323,-120.602323,43.812816,43.814816
OR4100431,WISEMANS MOBILE COURT,"1369 G St, Arcata, California, 95521",95521,Oregon,Region 10,Community water system,114,,Klamath,7,140,6,-124.084433,40.872502,-124.084671,40.87256,-124.085433,-124.083433,40.871502,40.873502
OR4101536,FORDICE WATER SYSTEM,"97838, Hermiston, Oregon",97838,Oregon,Region 10,Community water system,36,,Umatilla,3,2,1,-119.286581,45.8416,-119.286581,45.8416,-119.575581,-118.997581,45.5526,46.1306
OR4195327,BROADACRES STORE/TAVERN,"18466 Butteville Rd NE, Aurora, Oregon, 97002",97002,Oregon,Region 10,Transient non-community system,50,,Marion,3,4,3,-122.869497,45.186685,-122.867171,45.18618,-122.870497,-122.868497,45.185685,45.187685
OR4193556,LONE ELDER STORE,"25995 S Hwy-170, Canby, Oregon, 97013",97013,Oregon,Region 10,Transient non-community system,150,,Clackamas,3,77,3,-122.680365,45.230757,-122.680721,45.23071,-122.681365,-122.679365,45.229757,45.231757
OR4101509,DEAN MINARD WATER DISTRICT,"97423, Coquille, Oregon",97423,Oregon,Region 10,Community water system,135,,Coos,3,32,5,-124.185521,43.179201,-124.185521,43.179201,-124.397521,-123.973521,42.967201,43.391201
OR4105395,NORTH BRIGHTWOOD IMPROV ASSN,"97067, Welches, Oregon",97067,Oregon,Region 10,Community water system,50,,Clackamas,10,287,6,-121.967655,45.343396,-121.967655,45.343396,-122.070655,-121.864655,45.240396,45.446396
OR4190376,YMCA LOW ECHO,"540 YMCA Way, Ashland, Oregon, 97520",97520,Oregon,Region 10,Transient non-community system,35,,Klamath,3,40,2,-122.673317,42.186481,-122.672821,42.18673,-122.674317,-122.672317,42.185481,42.187481
OR4194724,BEND RESEARCH INC,"97701, Bend, Oregon",97701,Oregon,Region 10,Non-Transient non-community system,110,,Deschutes,9,10,4,-121.298827,44.065092,-121.298827,44.065092,-121.810827,-120.786827,43.553092,44.577092
OR4101058,SEVENTH MOUNTAIN RESORT,"97701, Bend, Oregon",97701,Oregon,Region 10,Non-Transient non-community system,400,,Deschutes,4,71,4,-121.298827,44.065092,-121.298827,44.065092,-121.810827,-120.786827,43.553092,44.577092
OR4105661,CANBY GROVE CONF CTR WELL 3,"7501 S Knights Bridge Rd, Canby, Oregon, 97013",97013,Oregon,Region 10,Transient non-community system,40,,Clackamas,3,28,4,-122.712342,45.267011,-122.712342,45.267011,-122.722342,-122.702342,45.257011,45.277011
OR4194996,CANBY GROVE CONF CTR WELL 2,"7501 S Knights Bridge Rd, Canby, Oregon, 97013",97013,Oregon,Region 10,Transient non-community system,40,,Clackamas,5,20,4,-122.712342,45.267011,-122.712342,45.267011,-122.722342,-122.702342,45.257011,45.277011
OR4190047,CANBY GROVE CONF CTR WELL 1,"7501 S Knights Bridge Rd, Canby, Oregon, 97013",97013,Oregon,Region 10,Transient non-community system,40,,Clackamas,7,24,4,-122.712342,45.267011,-122.712342,45.267011,-122.722342,-122.702342,45.257011,45.277011
OR4190234,SMITH FROZEN FOODS INC,"101 Depot St, Weston, Oregon, 97886",97886,Oregon,Region 10,Non-Transient non-community system,175,,Umatilla,8,73,3,-118.428128,45.82092,-118.428271,45.82083,-118.429128,-118.427128,45.81992,45.82192
OR4194399,MARION CO PUBLIC WORKS,"5155 Silverton Rd NE, Salem, Oregon, 97305",97305,Oregon,Region 10,Non-Transient non-community system,200,,Marion,5,147,4,-122.955416,44.973464,-122.956301,44.97416,-122.956416,-122.954416,44.972464,44.974464
OR4194699,BROOKS CSD,"5155 Silverton Rd NE, Salem, Oregon, 97305",97305,Oregon,Region 10,Non-Transient non-community system,400,,Marion,3,69,2,-122.955416,44.973464,-122.956301,44.97416,-122.956416,-122.954416,44.972464,44.974464
OR4195469,MCKENZIE STATION ESPRESSO,"56393 McKenzie Hwy, Blue River, Oregon, 97413",97413,Oregon,Region 10,Transient non-community system,30,,Lane,3,5,2,-122.162762,44.174517,-122.162631,44.17474,-122.163762,-122.161762,44.173517,44.175517
OR4193577,TENNIS WEST RAQUET CLUB,"6860 SW Winding Way, Corvallis, Oregon, 97333",97333,Oregon,Region 10,Transient non-community system,39,,Benton,9,20,4,-123.328883,44.551654,-123.329851,44.55144,-123.329883,-123.327883,44.550654,44.552654
OR4193749,PIONEER ELEMENTARY SD 8C,"195 SW 3rd Ave, Ontario, Oregon, 97914",97914,Oregon,Region 10,Non-Transient non-community system,120,,Malheur,5,14,2,-116.966026,44.024356,-116.965931,44.02463,-116.967026,-116.965026,44.023356,44.025356
OR4190267,THE DALLES COUNTRY CLUB,"4550 Highway 30W, The Dalles, Oregon, 97058",97058,Oregon,Region 10,Transient non-community system,25,,Wasco,12,15,3,-121.212809,45.653965,-121.216381,45.65377,-121.213809,-121.211809,45.652965,45.654965
OR4195036,HORSE RANCH RV PARK,"74543 Highway 31, La Pine, Oregon, 97739",97739,Oregon,Region 10,Transient non-community system,45,,Lake,4,21,2,-121.509131,43.622054,-121.509131,43.622054,-121.519131,-121.499131,43.612054,43.632054
OR4194110,HORIZON VIEW HILLS WS,"6150 Winema Rd, Cloverdale, Oregon, 97112",97112,Oregon,Region 10,Transient non-community system,15,,Tillamook,7,5,4,-123.965095,45.147474,-123.965095,45.147474,-123.975095,-123.955095,45.137474,45.157474
OR4190401,MOUNTAIN VIEW MOTEL,"28180 SW Heater Rd, Sherwood, Oregon, 97140",97140,Oregon,Region 10,Transient non-community system,30,,Columbia,5,9,3,-122.86018,45.317317,-122.858801,45.31797,-122.86118,-122.85918,45.316317,45.318317
OR4100705,SOUTH UMPQUA WATER ASSOCIATION,"97469, Riddle, Oregon",97469,Oregon,Region 10,Community water system,575,,Douglas,3,25,5,-123.362901,42.951888,-123.362901,42.951888,-123.560901,-123.164901,42.753888,43.149888
OR4100374,NORTH HILL WATER CORPORATION,"31066 Cecil St, Hermiston, Oregon, 97838",97838,Oregon,Region 10,Community water system,100,,Umatilla,10,170,6,-119.28991,45.872782,-119.289911,45.87256,-119.29091,-119.28891,45.871782,45.873782
OR4100828,INDIAN MEADOW WATER COMPANY,"97759, Sisters, Oregon",97759,Oregon,Region 10,Community water system,500,,Deschutes,5,15,7,-121.547282,44.290616,-121.547282,44.290616,-121.873282,-121.221282,43.964616,44.616616
OR4192005,FALL CREEK CHRISTIAN CHURCH,"38301 Jasper Lowell Rd, Fall Creek, Oregon, 97438",97438,Oregon,Region 10,Transient non-community system,35,,Lane,3,10,4,-122.847734,43.965975,-122.847821,43.96605,-122.848734,-122.846734,43.964975,43.966975
OR4193602,BLM PAGE SPRINGS REC SITE,"28910 Highway 20 W, Hines, Oregon, 97738",97738,Oregon,Region 10,Transient non-community system,30,,Harney,3,9,4,-119.095999,43.523742,-119.095931,43.52271,-119.096999,-119.094999,43.522742,43.524742
OR4194796,CATFISH JUNCTION #2,"97907, Huntington, Oregon",97907,Oregon,Region 10,Transient non-community system,50,,Malheur,5,53,3,-117.267563,44.349535,-117.267563,44.349535,-117.766563,-116.768563,43.850535,44.848535
OR4194980,CATFISH JUNCTION LLC,"97907, Huntington, Oregon",97907,Oregon,Region 10,Transient non-community system,50,,Malheur,3,45,4,-117.267563,44.349535,-117.267563,44.349535,-117.766563,-116.768563,43.850535,44.848535
OR4194765,BECKLIN HOLDINGS INC,"97528, Grants Pass, Oregon",97528,Oregon,Region 10,Non-Transient non-community system,205,,Josephine,5,71,3,-123.326831,42.439921,-123.326831,42.439921,-123.331831,-123.321831,42.434921,42.444921
OR4193513,PINE TREE TAVERN,"1320 Redwood Ave, Grants Pass, Oregon, 97527",97527,Oregon,Region 10,Transient non-community system,40,,Josephine,3,49,4,-123.353751,42.422487,-123.353741,42.42262,-123.354751,-123.352751,42.421487,42.423487
OR4190607,GRONER ELEMENTARY SD 1J,"4901 SE Witch Hazel Rd, Hillsboro, Oregon, 97123",97123,Oregon,Region 10,Non-Transient non-community system,250,,Washington,5,132,4,-122.93198,45.499597,-122.931841,45.4999,-122.93298,-122.93098,45.498597,45.500597
OR4190606,FARMINGTON VIEW ELEM SD 1J,"4901 SE Witch Hazel Rd, Hillsboro, Oregon, 97123",97123,Oregon,Region 10,Non-Transient non-community system,340,,Washington,5,19,4,-122.93198,45.499597,-122.931841,45.4999,-122.93298,-122.93098,45.498597,45.500597
OR4193774,WEST UNION ELEM SD 1,"4901 SE Witch Hazel Rd, Hillsboro, Oregon, 97123",97123,Oregon,Region 10,Non-Transient non-community system,400,,Washington,6,85,4,-122.93198,45.499597,-122.931841,45.4999,-122.93298,-122.93098,45.498597,45.500597
OR4192159,SANTIAM GOLF CLUB,"97383, Stayton, Oregon",97383,Oregon,Region 10,Transient non-community system,200,,Marion,3,15,5,-122.793811,44.802661,-122.793811,44.802661,-123.017811,-122.569811,44.578661,45.026661
OR4105261,KLAMATH CO PKS HENZEL PARK,"305 Main St, Klamath Falls, Oregon, 97601",97601,Oregon,Region 10,Transient non-community system,57,,Klamath,3,23,4,-121.784462,42.223052,-121.784881,42.22329,-121.785462,-121.783462,42.222052,42.224052
OR4190818,KLAMATH CO PKS HAGELSTEIN PARK,"305 Main St, Klamath Falls, Oregon, 97601",97601,Oregon,Region 10,Transient non-community system,50,,Klamath,3,22,4,-121.784462,42.223052,-121.784881,42.22329,-121.785462,-121.783462,42.222052,42.224052
OR4190192,METOLIUS MEADOWS PROP OWNERS,"97730, Camp Sherman, Oregon",97730,Oregon,Region 10,Community water system,300,,Jefferson,4,66,5,-121.654815,44.443453,-121.654815,44.443453,-121.930815,-121.378815,44.167453,44.719453
OR4101138,DESERT MOBILE HOME ESTATES,"97501, Medford, Oregon",97501,Oregon,Region 10,Community water system,100,,Jackson,4,23,5,-122.874957,42.323766,-122.874957,42.323766,-122.969957,-122.779957,42.228766,42.418766
OR4101143,WELDON MOBILE HOME PARK,"2704 Stearns Way, Medford, Oregon, 97501",97501,Oregon,Region 10,Community water system,108,,Jackson,6,44,6,-122.904224,42.336161,-122.904224,42.336161,-122.914224,-122.894224,42.326161,42.346161
OR4101148,COLUMBIA ACRES WATER ASSOC,"97056, Scappoose, Oregon",97056,Oregon,Region 10,Community water system,110,,Columbia,6,78,5,-122.876989,45.754626,-122.876989,45.754626,-123.114989,-122.638989,45.516626,45.992626
OR4101158,NORTH CORVALLIS MHP-WELL #1,"5140 NW Highway 99, Corvallis, Oregon, 97330",97330,Oregon,Region 10,Community water system,100,,Benton,7,58,4,-123.242747,44.623027,-123.242747,44.623027,-123.252747,-123.232747,44.613027,44.633027
OR4192783,USFS HUMBUG CAMPGROUND,"97360, Mill City, Oregon",97360,Oregon,Region 10,Transient non-community system,25,,Marion,5,4,3,-122.480818,44.749054,-122.480818,44.749054,-122.570818,-122.390818,44.659054,44.839054
OR4194526,USFS BIG MEADOWS HORSE CAMP HP,"97360, Mill City, Oregon",97360,Oregon,Region 10,Transient non-community system,45,,Linn,3,5,4,-122.480818,44.749054,-122.480818,44.749054,-122.570818,-122.390818,44.659054,44.839054
OR4192785,USFS HOOVER CAMPGROUND,"97360, Mill City, Oregon",97360,Oregon,Region 10,Transient non-community system,185,,Linn,3,9,4,-122.480818,44.749054,-122.480818,44.749054,-122.570818,-122.390818,44.659054,44.839054
OR4193814,USFS BREITENBUSH CG,"97360, Mill City, Oregon",97360,Oregon,Region 10,Transient non-community system,125,,Marion,5,65,5,-122.480818,44.749054,-122.480818,44.749054,-122.570818,-122.390818,44.659054,44.839054
OR4192787,USFS RIVERSIDE CAMPGROUND,"97360, Mill City, Oregon",97360,Oregon,Region 10,Transient non-community system,60,,Linn,5,64,6,-122.480818,44.749054,-122.480818,44.749054,-122.570818,-122.390818,44.659054,44.839054
OR4192786,USFS WHISPERING FALLS CG,"97360, Mill City, Oregon",97360,Oregon,Region 10,Transient non-community system,50,,Marion,5,61,5,-122.480818,44.749054,-122.480818,44.749054,-122.570818,-122.390818,44.659054,44.839054
OR4195005,USFS COVE CREEK CG,"97360, Mill City, Oregon",97360,Oregon,Region 10,Transient non-community system,100,,Linn,6,3,3,-122.480818,44.749054,-122.480818,44.749054,-122.570818,-122.390818,44.659054,44.839054
OR4101223,WALNUT MOBILE HOME PARK,"28455 SW Boones Ferry Rd, Wilsonville, Oregon, 97070",97070,Oregon,Region 10,Community water system,175,,Clackamas,9,149,5,-122.769839,45.3137,-122.769991,45.3137,-122.770839,-122.768839,45.3127,45.3147
OR4194451,WILLAMETTE EGG FARMS - CANBY,"31348 S Hwy-170, Canby, Oregon, 97013",97013,Oregon,Region 10,Non-Transient non-community system,100,,Clackamas,8,189,4,-122.681361,45.153209,-122.680691,45.15321,-122.682361,-122.680361,45.152209,45.154209
OR4100810,HARMONY ACRES MOBILE PARK,"97389, Tangent, Oregon",97389,Oregon,Region 10,Community water system,31,,Linn,6,159,6,-123.110185,44.544891,-123.110185,44.544891,-123.212185,-123.008185,44.442891,44.646891
OR4100808,COUNTRY VIEW MH ESTATES,"1361 Evan Ln, Ashland, Oregon, 97520",97520,Oregon,Region 10,Community water system,132,,Jackson,8,158,9,-122.693716,42.196451,-122.693551,42.19648,-122.694716,-122.692716,42.195451,42.197451
OR4195001,SHADY COVE SUBWAY,"530 Park Dr, Shady Cove, Oregon, 97539",97539,Oregon,Region 10,Transient non-community system,150,,Jackson,3,35,4,-122.818808,42.608681,-122.819771,42.60871,-122.819808,-122.817808,42.607681,42.609681
OR4193606,FIR RIDGE CAMPGROUND,"97325, Aumsville, Oregon",97325,Oregon,Region 10,Transient non-community system,21,,Lincoln,5,15,4,-122.871424,44.845065,-122.871424,44.845065,-122.965424,-122.777424,44.751065,44.939065
OR4190887,KIDCO HEAD START-RIVERSIDE,"300 Market St, Lebanon, Oregon, 97355",97355,Oregon,Region 10,Non-Transient non-community system,150,,Linn,3,43,3,-122.902241,44.518182,-122.902251,44.51784,-122.903241,-122.901241,44.517182,44.519182
OR4194028,CHEMULT BUDGET INN,"97731, Diamond Lake, Oregon",97731,Oregon,Region 10,Transient non-community system,50,,Klamath,3,29,5,-121.805484,43.135738,-121.805484,43.135738,-122.262484,-121.348484,42.678738,43.592738
OR4100626,"PILOT ROCK, CITY OF","97868, Pilot Rock, Oregon",97868,Oregon,Region 10,Community water system,1540,,Umatilla,5,55,4,-118.83261,45.480843,-118.83261,45.480843,-119.14761,-118.51761,45.165843,45.795843
OR4100657,PORTLAND WATER BUREAU,"1900 N Interstate Ave, Portland, Oregon, 97227",97227,Oregon,Region 10,Community water system,614059,,Multnomah,47,16,8,-122.674411,45.536591,-122.673031,45.5366,-122.675411,-122.673411,45.535591,45.537591
OR4101495,SWEDETOWN WATER ASSOC,"23121 Swedetown Rd, Clatskanie, Oregon, 97016",97016,Oregon,Region 10,Community water system,40,,Columbia,3,67,5,-123.088334,46.042407,-123.087381,46.04437,-123.089334,-123.087334,46.041407,46.043407
OR4101264,SPAR TREE MHP,"9226 SE Fuller Rd, Happy Valley, Oregon, 97086",97086,Oregon,Region 10,Community water system,25,,Clackamas,5,109,4,-122.575288,45.456254,-122.574761,45.45613,-122.576288,-122.574288,45.455254,45.457254
OR4195272,APPLEGATE VALLEY FAM MED PRAC,"6450 Williams Hwy, Grants Pass, Oregon, 97527",97527,Oregon,Region 10,Transient non-community system,25,,Josephine,3,0,3,-123.332456,42.347035,-123.332741,42.34707,-123.333456,-123.331456,42.346035,42.348035
OR4101067,ROGUE RIVER MOBILE ESTATES,"Foothill Blvd, Grants Pass, Oregon, 97526",97526,Oregon,Region 10,Community water system,75,,Jackson,9,101,6,-123.262296,42.436368,-123.262296,42.436368,-123.300296,-123.224296,42.398368,42.474368
OR4191681,KIDCO HEAD START-SUNNYSIDE,"300 Market St, Lebanon, Oregon, 97355",97355,Oregon,Region 10,Non-Transient non-community system,50,,Linn,5,68,4,-122.902241,44.518182,-122.902251,44.51784,-122.903241,-122.901241,44.517182,44.519182
OR4194102,TOUVELLE LODGE,"97503, Medford, Oregon",97503,Oregon,Region 10,Transient non-community system,50,,Jackson,5,62,3,-122.83843,42.430411,-122.83843,42.430411,-123.09943,-122.57743,42.169411,42.691411
OR4101288,EAST YAMHILL RURAL WD,"97148, Yamhill, Oregon",97148,Oregon,Region 10,Community water system,90,,Yamhill,3,19,7,-123.183149,45.342364,-123.183149,45.342364,-123.486149,-122.880149,45.039364,45.645364
OR4101013,ALDRIDGE DITCH CO WS,"5690 Collins Rd, Hood River, Oregon, 97031",97031,Oregon,Region 10,Community water system,49,,Hood River,4,32,5,-121.63597,45.56399,-121.636471,45.56399,-121.63697,-121.63497,45.56299,45.56499
OR4100139,RANCHERO PETITE IMPROV DIST,"31800 SE Chin St, Boring, Oregon, 97009",97009,Oregon,Region 10,Community water system,40,,Clackamas,4,47,5,-122.33565,45.443162,-122.335651,45.44259,-122.33665,-122.33465,45.442162,45.444162
OR4101323,SOUTH YAMHILL WATER DISTRICT,"14613 Highway 47, Yamhill, Oregon, 97148",97148,Oregon,Region 10,Community water system,40,,Yamhill,3,42,4,-123.178038,45.32235,-123.179551,45.32184,-123.179038,-123.177038,45.32135,45.32335
OR4100984,MOBILE VILLAGE INC,"29106 NE 99th Ave, Battle Ground, Washington, 98604",98604,Oregon,Region 10,Community water system,100,,Multnomah,5,78,5,-122.571429,45.833015,-122.573131,45.83188,-122.572429,-122.570429,45.832015,45.834015
OR4195061,UNITED STATES BASKETBALL ACADEMY,"54705 McKenzie Hwy, Blue River, Oregon, 97413",97413,Oregon,Region 10,Transient non-community system,45,,Lane,5,29,4,-122.226237,44.173009,-122.226237,44.173009,-122.236237,-122.216237,44.163009,44.183009
OR4194862,EAST LAKE RV PARK,"97739, La Pine, Oregon",97739,Oregon,Region 10,Transient non-community system,50,,Deschutes,3,12,4,-121.502181,43.6701,-121.502181,43.6701,-122.164181,-120.840181,43.0081,44.3321
OR4190497,EAST LAKE RESORT,"97739, La Pine, Oregon",97739,Oregon,Region 10,Transient non-community system,50,,Deschutes,3,19,5,-121.502181,43.6701,-121.502181,43.6701,-122.164181,-120.840181,43.0081,44.3321
OR4195055,FLYING EAGLE MARKET & VIDEO,"14420 Highway 62, Eagle Point, Oregon, 97524",97524,Oregon,Region 10,Transient non-community system,100,,Jackson,10,46,4,-122.812064,42.516736,-122.811701,42.51677,-122.813064,-122.811064,42.515736,42.517736
OR4194706,KELLYS CORNER MARKET,"14480 SE Orient Dr, Boring, Oregon, 97009",97009,Oregon,Region 10,Transient non-community system,200,,Clackamas,6,44,4,-122.308689,45.418613,-122.308371,45.41878,-122.309689,-122.307689,45.417613,45.419613
OR4101448,SMGV/WIDGI CREEK,"22648 Nelson Rd, Bend, Oregon, 97701",97701,Oregon,Region 10,Community water system,300,,Deschutes,3,21,4,-121.191182,44.087414,-121.191182,44.087414,-121.201182,-121.181182,44.077414,44.097414
OR4100842,"STANFIELD, CITY OF","97875, Stanfield, Oregon",97875,Oregon,Region 10,Community water system,2115,,Umatilla,14,182,6,-119.216336,45.783929,-119.216336,45.783929,-119.360336,-119.072336,45.639929,45.927929
OR4194049,WALTS RV PARK,"97624, Chiloquin, Oregon",97624,Oregon,Region 10,Transient non-community system,70,,Klamath,3,27,5,-121.864128,42.574969,-121.864128,42.574969,-122.678128,-121.050128,41.760969,43.388969
OR4193542,BOMBER MOTEL,"13515 SE McLoughlin Blvd, Portland, Oregon, 97222",97222,Oregon,Region 10,Transient non-community system,50,,Clackamas,5,17,4,-122.633888,45.425273,-122.635101,45.42518,-122.634888,-122.632888,45.424273,45.426273
OR4191547,NORTH ASHLAND PROFESSIONAL CONDO ASSN,"51 Water St, Ashland, Oregon, 97520",97520,Oregon,Region 10,Transient non-community system,150,,Jackson,5,36,4,-122.715108,42.198798,-122.715711,42.19902,-122.716108,-122.714108,42.197798,42.199798
OR4100772,CHAPARRAL MOBILE RANCH,"2065 Bear Hollow Dr, Park City, Utah, 84098",84098,Oregon,Region 10,Community water system,103,,Marion,5,5,5,-111.550609,40.696676,-111.550871,40.69647,-111.551609,-111.549609,40.695676,40.697676
OR4194440,BONANZA CITY LIBRARY,"97623, Bonanza, Oregon",97623,Oregon,Region 10,Transient non-community system,40,,Klamath,5,19,4,-121.411476,42.291715,-121.411476,42.291715,-121.943476,-120.879476,41.759715,42.823715
OR4195373,DIAMOND MEADOWS,"97733, Crescent Lake, Oregon",97733,Oregon,Region 10,Transient non-community system,15,,Klamath,3,13,3,-121.930645,43.50615,-121.930645,43.50615,-122.252645,-121.608645,43.18415,43.82815
OR4101368,TUMALO WEST WATER SYSTEM,"22648 Nelson Rd, Bend, Oregon, 97701",97701,Oregon,Region 10,Community water system,75,,Deschutes,4,23,5,-121.191182,44.087414,-121.191182,44.087414,-121.201182,-121.181182,44.077414,44.097414
OR4101367,DEER TRAIL WATER SYSTEM,"22648 Nelson Rd, Bend, Oregon, 97701",97701,Oregon,Region 10,Community water system,45,,Deschutes,3,30,6,-121.191182,44.087414,-121.191182,44.087414,-121.201182,-121.181182,44.077414,44.097414
OR4100863,SMITH ROCK MOBILE ESTATES,"22648 Nelson Rd, Bend, Oregon, 97701",97701,Oregon,Region 10,Community water system,60,,Deschutes,5,164,6,-121.191182,44.087414,-121.191182,44.087414,-121.201182,-121.181182,44.077414,44.097414
OR4100123,SUN COUNTRY WTR SADDLEBACK,"22648 Nelson Rd, Bend, Oregon, 97701",97701,Oregon,Region 10,Community water system,300,,Deschutes,4,10,5,-121.191182,44.087414,-121.191182,44.087414,-121.201182,-121.181182,44.077414,44.097414
OR4100118,FOUR SEASONS MHP,"22648 Nelson Rd, Bend, Oregon, 97701",97701,Oregon,Region 10,Community water system,100,,Deschutes,5,64,6,-121.191182,44.087414,-121.191182,44.087414,-121.201182,-121.181182,44.077414,44.097414
OR4100117,DESCHUTES MOBILE PARK,"22648 Nelson Rd, Bend, Oregon, 97701",97701,Oregon,Region 10,Community water system,62,,Deschutes,3,13,5,-121.191182,44.087414,-121.191182,44.087414,-121.201182,-121.181182,44.077414,44.097414
OR4100090,HUNNELL HILLS WATER SYSTEM,"22648 Nelson Rd, Bend, Oregon, 97701",97701,Oregon,Region 10,Community water system,45,,Deschutes,4,44,7,-121.191182,44.087414,-121.191182,44.087414,-121.201182,-121.181182,44.077414,44.097414
OR4100111,SUN MOUNTAIN WATER SYSTEM LLC,"22648 Nelson Rd, Bend, Oregon, 97701",97701,Oregon,Region 10,Community water system,740,,Deschutes,7,18,7,-121.191182,44.087414,-121.191182,44.087414,-121.201182,-121.181182,44.077414,44.097414
OR4101182,COUNTRY GARDEN ESTATES MHP,"97844, Irrigon, Oregon",97844,Oregon,Region 10,Community water system,175,,Morrow,7,188,5,-119.492785,45.893678,-119.492785,45.893678,-119.663785,-119.321785,45.722678,46.064678
OR4100565,CARMEL BEACH WATER DISTRICT,"9948 NE Avery St, Newport, Oregon, 97365",97365,Oregon,Region 10,Community water system,36,,Lincoln,6,78,7,-124.057198,44.709617,-124.056881,44.70946,-124.058198,-124.056198,44.708617,44.710617
OR4100992,ARNEYS FOREST VIEW MHP,"97760, Terrebonne, Oregon",97760,Oregon,Region 10,Community water system,50,,Lane,6,46,5,-121.295645,44.436534,-121.295645,44.436534,-121.580645,-121.010645,44.151534,44.721534
OR4101073,RAINBOW PARK MHP,"97760, Terrebonne, Oregon",97760,Oregon,Region 10,Community water system,30,,Lane,5,65,5,-121.295645,44.436534,-121.295645,44.436534,-121.580645,-121.010645,44.151534,44.721534
OR4192061,SAWYERS LANDING RV PARK,"4098 Yaquina Bay Rd, Newport, Oregon, 97365",97365,Oregon,Region 10,Transient non-community system,25,,Lincoln,5,138,6,-124.009889,44.602535,-124.010021,44.60254,-124.010889,-124.008889,44.601535,44.603535
OR4195173,SHORT STOP #1,"97838, Hermiston, Oregon",97838,Oregon,Region 10,Transient non-community system,200,,Umatilla,5,22,3,-119.286581,45.8416,-119.286581,45.8416,-119.575581,-118.997581,45.5526,46.1306
OR4101233,DEER ISLAND WATERWORKS,"97056, Scappoose, Oregon",97056,Oregon,Region 10,Community water system,90,,Columbia,5,148,6,-122.876989,45.754626,-122.876989,45.754626,-123.114989,-122.638989,45.516626,45.992626
OR4101254,CLOVERCREST COMMUNITY WATER SYSTEM,"10414 Galice Rd, Merlin, Oregon, 97532",97532,Oregon,Region 10,Community water system,65,,Josephine,6,90,5,-123.58844,42.558856,-123.588501,42.55894,-123.58944,-123.58744,42.557856,42.559856
OR4101256,PARKDALE WATER SYSTEM,"97528, Grants Pass, Oregon",97528,Oregon,Region 10,Community water system,100,,Josephine,4,13,5,-123.326831,42.439921,-123.326831,42.439921,-123.331831,-123.321831,42.434921,42.444921
OR4101276,VALLEY COURT APARTMENTS,"1080 SE Belle Aire Dr, Grants Pass, Oregon, 97526",97526,Oregon,Region 10,Community water system,34,,Josephine,3,56,5,-123.312134,42.426524,-123.311841,42.42589,-123.313134,-123.311134,42.425524,42.427524
OR4190060,CAMP HOWARD-CYO,"11010 SE Camp Howard Rd, Corbett, Oregon, 97019",97019,Oregon,Region 10,Transient non-community system,160,,Clackamas,8,29,4,-122.188451,45.443299,-122.187471,45.4433,-122.189451,-122.187451,45.442299,45.444299
OR4195210,RICE HILL RV PARK,"155 Denley Rd, Sutherlin, Oregon, 97479",97479,Oregon,Region 10,Transient non-community system,50,,Douglas,5,27,3,-123.254268,43.385661,-123.254431,43.38567,-123.255268,-123.253268,43.384661,43.386661
OR4100224,WOODLAND MOBILE HOME PARK,"33125 SE White Oak Rd, Corvallis, Oregon, 97333",97333,Oregon,Region 10,Community water system,88,,Linn,10,7,6,-123.202842,44.542211,-123.200671,44.54264,-123.203842,-123.201842,44.541211,44.543211
OR4190476,LITTLE RIVER CHRISTIAN CAMP,"351 Christian Camp Ln, Glide, Oregon, 97443",97443,Oregon,Region 10,Transient non-community system,30,,Douglas,5,24,6,-122.929825,43.242965,-122.929825,43.242965,-122.939825,-122.919825,43.232965,43.252965
OR4194777,GALES CREEK SHELL & GROCERY,"2801 3rd St, Tillamook, Oregon, 97141",97141,Oregon,Region 10,Transient non-community system,600,,Washington,3,12,4,-123.833361,45.456002,-123.833361,45.45553,-123.834361,-123.832361,45.455002,45.457002
OR4101258,MAYFAIR MOORAGE INC,"15500 NW Ferry Rd, Portland, Oregon, 97231",97231,Oregon,Region 10,Community water system,28,,Multnomah,6,30,6,-122.83734,45.654486,-122.836451,45.65342,-122.83834,-122.83634,45.653486,45.655486
OR4191532,ROGUE RIVER INN,"97526, Grants Pass, Oregon",97526,Oregon,Region 10,Transient non-community system,65,,Jackson,3,77,3,-123.369126,42.500582,-123.369126,42.500582,-123.775126,-122.963126,42.094582,42.906582
OR4100637,SALMON RIVER PARK WTR IMP DIST,"97011, Brightwood, Oregon",97011,Oregon,Region 10,Transient non-community system,40,,Clackamas,3,68,4,-122.025064,45.375043,-122.025064,45.375043,-122.166064,-121.884064,45.234043,45.516043
OR4101502,RED HILLS ESTATES,"381 NW Alder St, Dundee, Oregon, 97115",97115,Oregon,Region 10,Community water system,25,,Yamhill,5,65,3,-123.017138,45.285524,-123.017138,45.285524,-123.027138,-123.007138,45.275524,45.295524
OR4100988,TILLICUM PARK LLC,"34924 Seavey Loop Rd, Eugene, Oregon, 97405",97405,Oregon,Region 10,Community water system,34,,Lane,4,23,6,-123.001915,44.000612,-123.002151,44.00065,-123.002915,-123.000915,43.999612,44.001612
OR4194818,POWELL BUTTE CHRISTIAN CHURCH,"97753, Powell Butte, Oregon",97753,Oregon,Region 10,Transient non-community system,200,,Crook,4,17,3,-121.034637,44.166003,-121.034637,44.166003,-121.258637,-120.810637,43.942003,44.390003
OR4105157,ROCK OF AGES REST HOME,"15600 SW Rock of Ages Rd, Mcminnville, Oregon, 97128",97128,Oregon,Region 10,Community water system,97,,Yamhill,7,120,4,-123.273557,45.191762,-123.273557,45.191762,-123.283557,-123.263557,45.181762,45.201762
OR4194711,FOREST RIVER HARRISBURG,"30086 Federal Ln, Eugene, Oregon, 97402",97402,Oregon,Region 10,Non-Transient non-community system,120,,Linn,7,23,3,-123.163101,44.104161,-123.163101,44.10391,-123.164101,-123.162101,44.103161,44.105161
OR4100994,RIVERWOOD MHP LANE CO,"30086 Federal Ln, Eugene, Oregon, 97402",97402,Oregon,Region 10,Community water system,325,,Lane,7,16,6,-123.163101,44.104161,-123.163101,44.10391,-123.164101,-123.162101,44.103161,44.105161
OR4100304,ALDERWOOD WATER DEV CO,"30086 Federal Ln, Eugene, Oregon, 97402",97402,Oregon,Region 10,Community water system,35,,Lane,5,117,12,-123.163101,44.104161,-123.163101,44.10391,-123.164101,-123.162101,44.103161,44.105161
OR4195077,TWIN PINES RV & CG,"180 Suzanne Ct, Grants Pass, Oregon, 97526",97526,Oregon,Region 10,Transient non-community system,40,,Josephine,3,7,3,-123.374172,42.496263,-123.374641,42.49615,-123.375172,-123.373172,42.495263,42.497263
OR4100776,MEADOWLARK MOBILE MANOR,"4358 Essex St SE, Salem, Oregon, 97317",97317,Oregon,Region 10,Community water system,195,,Marion,5,46,4,-122.971544,44.903524,-122.971421,44.90344,-122.972544,-122.970544,44.902524,44.904524
OR4190609,VISITATION CHURCH AND SCHOOL,"4950 NW Marsh Rd, Forest Grove, Oregon, 97116",97116,Oregon,Region 10,Non-Transient non-community system,450,,Washington,7,9,4,-123.073401,45.556159,-123.073161,45.55616,-123.074401,-123.072401,45.555159,45.557159
OR4100302,SOUTH COAST WATER DIST INC,"620 SW 5th Ave, Portland, Oregon, 97204",97204,Oregon,Region 10,Community water system,200,,Lane,6,170,12,-122.677261,45.519242,-122.677001,45.51917,-122.678261,-122.676261,45.518242,45.520242
OR4194947,CITY LIMITS,"5800 OR-99W, Corvallis, Oregon, 97330",97330,Oregon,Region 10,Transient non-community system,100,,Benton,5,20,3,-123.241438,44.629127,-123.242001,44.62919,-123.242438,-123.240438,44.628127,44.630127
OR4194693,BEAR VALLEY SHOPPING CENTER,"1977 Highway 99 N, Ashland, Oregon, 97520",97520,Oregon,Region 10,Non-Transient non-community system,69,,Jackson,11,46,5,-122.738195,42.219414,-122.738801,42.21884,-122.739195,-122.737195,42.218414,42.220414
OR4100610,TIERRA DEL MAR WATER CO,"26600 Sandlake Rd, Cloverdale, Oregon, 97112",97112,Oregon,Region 10,Community water system,150,,Tillamook,5,106,10,-123.95272,45.263873,-123.953071,45.26408,-123.95372,-123.95172,45.262873,45.264873
OR4194388,CAMP CREEK COMMUNITY CHURCH,"37529 Upper Camp Creek Rd, Springfield, Oregon, 97478",97478,Oregon,Region 10,Transient non-community system,150,,Lane,3,40,4,-122.87799,44.071946,-122.878071,44.07204,-122.87899,-122.87699,44.070946,44.072946
OR4100615,HERITAGE IMPROVEMENT DISTRICT,"97801, Cayuse, Oregon",97801,Oregon,Region 10,Community water system,125,,Umatilla,6,108,6,-118.789478,45.670734,-118.789478,45.670734,-119.503478,-118.075478,44.956734,46.384734
OR4100619,STEWARTS ADDITION,"71065 SW Douglas Dr, Pendleton, Oregon, 97801",97801,Oregon,Region 10,Community water system,50,,Umatilla,3,17,5,-118.801301,45.605311,-118.801011,45.60532,-118.802301,-118.800301,45.604311,45.606311
OR4101325,MACLEAY CHRISTIAN RETREAT,"2887 74th Ave SE, Salem, Oregon, 97317",97317,Oregon,Region 10,Transient non-community system,150,,Marion,10,59,5,-122.9091,44.90025,-122.912461,44.90027,-122.9101,-122.9081,44.89925,44.90125
OR4100824,PALO MOBILE HOME PARK,"97307, Keizer, Oregon",97307,Oregon,Region 10,Community water system,40,,Marion,5,165,6,-123.025948,45.003841,-123.025948,45.003841,-123.030948,-123.020948,44.998841,45.008841
OR4101282,DRIFTERS MOBILE HOME PARK,"1360 Lexington Dr, Eagle Point, Oregon, 97524",97524,Oregon,Region 10,Community water system,80,,Jackson,4,39,5,-122.838193,42.506837,-122.838261,42.5071,-122.839193,-122.837193,42.505837,42.507837
OR4101534,DUPLEX VILLAGE EAST,"3859 Fisher Rd NE, Salem, Oregon, 97305",97305,Oregon,Region 10,Community water system,41,,Marion,3,8,1,-122.988522,44.974951,-122.988522,44.974951,-122.998522,-122.978522,44.964951,44.984951
OR4101397,DUPLEX VILLAGE WATER SYSTEM,"3859 Fisher Rd NE, Salem, Oregon, 97305",97305,Oregon,Region 10,Community water system,165,,Marion,7,104,5,-122.988522,44.974951,-122.988522,44.974951,-122.998522,-122.978522,44.964951,44.984951
OR4100782,SUNNYVIEW MOBILE HOME PARK,"3859 Fisher Rd NE, Salem, Oregon, 97305",97305,Oregon,Region 10,Community water system,100,,Marion,10,94,5,-122.988522,44.974951,-122.988522,44.974951,-122.998522,-122.978522,44.964951,44.984951
OR4193666,UPPER MCKENZIE RURAL COOP INC,"1535 Ranchwood Dr, Eugene, Oregon, 97401",97401,Oregon,Region 10,Transient non-community system,13,,Lane,5,41,4,-123.098936,44.079913,-123.098621,44.07997,-123.099936,-123.097936,44.078913,44.080913
OR4195079,GRACE BAPTIST CHURCH,"97537, Rogue River, Oregon",97537,Oregon,Region 10,Transient non-community system,95,,Jackson,3,21,3,-123.166129,42.437093,-123.166129,42.437093,-123.488129,-122.844129,42.115093,42.759093
OR4194391,MACS STORE,"12450 Highway 39, Klamath Falls, Oregon, 97603",97603,Oregon,Region 10,Transient non-community system,30,,Klamath,3,46,4,-121.698497,42.11267,-121.698851,42.11268,-121.699497,-121.697497,42.11167,42.11367
OR4101224,USFS DETROIT RANGER STATION,"97360, Mill City, Oregon",97360,Oregon,Region 10,Non-Transient non-community system,50,,Marion,6,32,2,-122.480818,44.749054,-122.480818,44.749054,-122.570818,-122.390818,44.659054,44.839054
OR4100542,"MORO, CITY OF","97039, Moro, Oregon",97039,Oregon,Region 10,Community water system,350,,Sherman,9,169,6,-120.734042,45.48372,-120.734042,45.48372,-121.110042,-120.358042,45.10772,45.85972
OR4194293,RICHIS PLACE,"14749 SE Juniper Canyon Rd, Prineville, Oregon, 97754",97754,Oregon,Region 10,Transient non-community system,25,,Crook,5,17,3,-120.724109,44.169865,-120.724691,44.16983,-120.725109,-120.723109,44.168865,44.170865
OR4100920,"VENETA, CITY OF","97487, Veneta, Oregon",97487,Oregon,Region 10,Community water system,4755,,Lane,18,24,5,-123.362236,44.045674,-123.362236,44.045674,-123.619236,-123.105236,43.788674,44.302674
OR4194933,GRANTS PASS COMMUNITY CHURCH,"3191 Russell Rd, Grants Pass, Oregon, 97526",97526,Oregon,Region 10,Transient non-community system,60,,Josephine,5,16,3,-123.406103,42.5552,-123.404711,42.5552,-123.407103,-123.405103,42.5542,42.5562
OR4100774,GLEN OAKS PARK LLC,"2243 Banyonwood Ave NW, Salem, Oregon, 97304",97304,Oregon,Region 10,Community water system,165,,Marion,5,67,4,-123.078991,44.974622,-123.078991,44.974622,-123.088991,-123.068991,44.964622,44.984622
OR4191712,SEVEN OAK MIDDLE SCHOOL,"485 S 5th St, Lebanon, Oregon, 97355",97355,Oregon,Region 10,Non-Transient non-community system,670,,Linn,5,12,3,-122.912681,44.54093,-122.911811,44.54093,-122.913681,-122.911681,44.53993,44.54193
OR4195202,WOLF CREEK LIBRARY,"200 NW C St, Grants Pass, Oregon, 97526",97526,Oregon,Region 10,Transient non-community system,30,,Josephine,5,1,4,-123.326851,42.442716,-123.326691,42.44299,-123.327851,-123.325851,42.441716,42.443716
OR4101177,STEEVES MOBILE CITY,"2615 SE Courtney Rd, Portland, Oregon, 97222",97222,Oregon,Region 10,Community water system,80,,Clackamas,3,69,6,-122.636371,45.422577,-122.636381,45.42272,-122.637371,-122.635371,45.421577,45.423577
OR4195102,MALLARD CREEK GOLF COURSE,"31966 Bellinger Scale Rd, Lebanon, Oregon, 97355",97355,Oregon,Region 10,Transient non-community system,100,,Linn,3,3,3,-122.795819,44.519276,-122.800691,44.51671,-122.796819,-122.794819,44.518276,44.520276
OR4100812,DELPHIAN SCHOOL,"20950 SW Rock Creek Rd, Sheridan, Oregon, 97378",97378,Oregon,Region 10,Non-Transient non-community system,350,,Yamhill,11,17,3,-123.428836,45.108023,-123.428891,45.10791,-123.429836,-123.427836,45.107023,45.109023
OR4194449,PRATTS LEABURG COUNTRY STORE,"42840 McKenzie Hwy, Walterville, Oregon, 97489",97489,Oregon,Region 10,Transient non-community system,250,,Lane,3,34,4,-122.677057,44.106791,-122.677057,44.106791,-122.687057,-122.667057,44.096791,44.116791
OR4100045,FALCON COVE BEACH WD,"79387 Ray Brown Rd, Arch Cape, Oregon, 97102",97102,Oregon,Region 10,Community water system,200,,Tillamook,9,79,7,-123.966221,45.79165,-123.964321,45.79168,-123.967221,-123.965221,45.79065,45.79265
OR4190379,DIAMOND LAKE JUNCTION CAFE,"94401 Highway 97 N, Chemult, Oregon, 97731",97731,Oregon,Region 10,Transient non-community system,100,,Klamath,3,33,5,-121.825023,43.080149,-121.823781,43.08014,-121.826023,-121.824023,43.079149,43.081149
OR4193713,MT VIEW ELEMENTARY SD 509J,"97330, Adair Village, Oregon",97330,Oregon,Region 10,Non-Transient non-community system,380,,Benton,7,6,4,-123.24733,44.599256,-123.24733,44.599256,-123.38433,-123.11033,44.462256,44.736256
OR4191671,DIXIE ELEMENTARY SD 509J,"97330, Adair Village, Oregon",97330,Oregon,Region 10,Non-Transient non-community system,110,,Linn,5,12,4,-123.24733,44.599256,-123.24733,44.599256,-123.38433,-123.11033,44.462256,44.736256
OR4100885,NORTHWOOD WATER DISTRICT INC,"7645 Sollie Smith Rd N, Tillamook, Oregon, 97141",97141,Oregon,Region 10,Community water system,70,,Tillamook,3,39,7,-123.78397,45.47993,-123.78397,45.47993,-123.79397,-123.77397,45.46993,45.48993
OR4100279,"ESTACADA, CITY OF","97023, Estacada, Oregon",97023,Oregon,Region 10,Community water system,3155,,Clackamas,5,177,12,-122.331595,45.289475,-122.331595,45.289475,-123.011595,-121.651595,44.609475,45.969475
OR4100078,"BARLOW, CITY OF","106 N Main St, Barlow, Oregon, 97013",97013,Oregon,Region 10,Community water system,140,,Clackamas,5,101,5,-122.721652,45.251894,-122.721652,45.251894,-122.731652,-122.711652,45.241894,45.261894
OR4191061,OPRD NORTH SANTIAM STATE PARK,"97342, Detroit, Oregon",97342,Oregon,Region 10,Transient non-community system,525,,Marion,4,26,3,-122.14897,44.734491,-122.14897,44.734491,-122.56497,-121.73297,44.318491,45.150491
OR4191059,OPRD DETROIT LAKE SP,"97342, Detroit, Oregon",97342,Oregon,Region 10,Transient non-community system,2600,,Marion,5,43,7,-122.14897,44.734491,-122.14897,44.734491,-122.56497,-121.73297,44.318491,45.150491
OR4192718,USFS SILTCOOS CAMPGROUND,"855 Highway 101 S, Reedsport, Oregon, 97467",97467,Oregon,Region 10,Transient non-community system,425,,Lane,5,11,4,-124.105531,43.703263,-124.106251,43.70369,-124.106531,-124.104531,43.702263,43.704263
OR4192722,USFS TYEE CG/BOAT SITE,"855 Highway 101 S, Reedsport, Oregon, 97467",97467,Oregon,Region 10,Transient non-community system,30,,Lane,5,19,3,-124.105531,43.703263,-124.106251,43.70369,-124.106531,-124.104531,43.702263,43.704263
OR4101324,WEST YAMHILL WATER COMPANY,"97148, Yamhill, Oregon",97148,Oregon,Region 10,Community water system,56,,Yamhill,3,45,6,-123.183149,45.342364,-123.183149,45.342364,-123.486149,-122.880149,45.039364,45.645364
OR4101511,OREGON CITY,"122 S Center St, Oregon City, Oregon, 97045",97045,Oregon,Region 10,Community water system,33940,,Clackamas,3,0,4,-122.611158,45.351517,-122.610471,45.35116,-122.612158,-122.610158,45.350517,45.352517
OR4105528,ODF/WL SANDY FISH HATCHERY,"39800 SE Fish Hatchery Rd, Sandy, Oregon, 97055",97055,Oregon,Region 10,Transient non-community system,25,,Clackamas,6,38,2,-122.249928,45.403868,-122.249928,45.403868,-122.259928,-122.239928,45.393868,45.413868
OR4194431,JLR,"97071, Woodburn, Oregon",97071,Oregon,Region 10,Non-Transient non-community system,200,,Marion,11,22,3,-122.859023,45.145663,-122.859023,45.145663,-123.037023,-122.681023,44.967663,45.323663
OR4190030,ARROWHEAD GOLF CLUB,"97042, Mulino, Oregon",97042,Oregon,Region 10,Transient non-community system,200,,Clackamas,5,24,3,-122.533141,45.212477,-122.533141,45.212477,-122.612141,-122.454141,45.133477,45.291477
OR4100124,FISHHAWK LAKE RESERVE AND COMMUNITY,"9997 Beach Dr, Clatskanie, Oregon, 97016",97016,Oregon,Region 10,Community water system,350,,Columbia,5,66,12,-123.359797,46.034541,-123.359797,46.034541,-123.369797,-123.349797,46.024541,46.044541
OR4194717,COLUMBIA RIVER PUD,"97051, St Helens, Oregon",97051,Oregon,Region 10,Non-Transient non-community system,45,,Columbia,5,61,4,-122.811273,45.861242,-122.811273,45.861242,-123.048273,-122.574273,45.624242,46.098242
OR4190784,BEND METRO PARKS-SHEVLIN PARK,"1675 SW Simpson Ave, Bend, Oregon, 97702",97702,Oregon,Region 10,Transient non-community system,300,,Deschutes,3,22,4,-121.337199,44.047307,-121.337199,44.047307,-121.347199,-121.327199,44.037307,44.057307
OR4100184,CHILOQUIN MUNICIPAL WATER DEPT,"97624, Chiloquin, Oregon",97624,Oregon,Region 10,Community water system,730,,Klamath,8,48,6,-121.864128,42.574969,-121.864128,42.574969,-122.678128,-121.050128,41.760969,43.388969
OR4101500,SHIELD CREST WATER ASSN,"9569 Arant Rd, Klamath Falls, Oregon, 97603",97603,Oregon,Region 10,Community water system,61,,Klamath,3,79,4,-121.671561,42.199433,-121.671561,42.199433,-121.681561,-121.661561,42.189433,42.209433
OR4105213,MT SHADOWS HOME OWNERS ASSOC,"3500 SE Guilford Ct, Milwaukie, Oregon, 97222",97222,Oregon,Region 10,Transient non-community system,50,,Hood River,9,12,2,-122.628206,45.434122,-122.628271,45.43398,-122.629206,-122.627206,45.433122,45.435122
OR4195080,TWIN LAKES RV PARK,"97709, Bend, Oregon",97709,Oregon,Region 10,Transient non-community system,55,,Deschutes,5,11,3,-121.311742,44.058151,-121.311742,44.058151,-121.316742,-121.306742,44.053151,44.063151
OR4191758,TWIN LAKES RESORT,"97709, Bend, Oregon",97709,Oregon,Region 10,Transient non-community system,150,,Deschutes,3,31,5,-121.311742,44.058151,-121.311742,44.058151,-121.316742,-121.306742,44.053151,44.063151
OR4195052,ROLLING HILLS CHURCH,"3550 SW Borland Rd, Tualatin, Oregon, 97062",97062,Oregon,Region 10,Non-Transient non-community system,50,,Clackamas,5,172,4,-122.710931,45.375232,-122.710961,45.37376,-122.711931,-122.709931,45.374232,45.376232
OR4190569,LIFE BIBLE CHURCH,"97446, Harrisburg, Oregon",97446,Oregon,Region 10,Non-Transient non-community system,30,,Linn,3,64,3,-123.165858,44.272186,-123.165858,44.272186,-123.427858,-122.903858,44.010186,44.534186
OR4100913,"UKIAH, CITY OF","97880, Ukiah, Oregon",97880,Oregon,Region 10,Community water system,235,,Umatilla,3,92,5,-118.931382,45.134429,-118.931382,45.134429,-119.344382,-118.518382,44.721429,45.547429
OR4100944,"WEST LINN, CITY OF","4100 Norfolk St, West Linn, Oregon, 97068",97068,Oregon,Region 10,Community water system,25002,,Clackamas,5,4,4,-122.629638,45.356779,-122.629991,45.35689,-122.630638,-122.628638,45.355779,45.357779
OR4195463,FAITH HOPE & CHARITY WINERY,"97760, Terrebonne, Oregon",97760,Oregon,Region 10,Transient non-community system,25,,Deschutes,3,1,2,-121.295645,44.436534,-121.295645,44.436534,-121.580645,-121.010645,44.151534,44.721534
OR4101386,STORLIE WATER COMPANY,"63019 Terry Dr, Bend, Oregon, 97701",97701,Oregon,Region 10,Community water system,50,,Deschutes,3,92,6,-121.160789,44.089753,-121.161201,44.09003,-121.161789,-121.159789,44.088753,44.090753
OR4190408,ALSTON PUB & GRUB,"97048, Rainier, Oregon",97048,Oregon,Region 10,Transient non-community system,25,,Columbia,5,31,3,-122.934252,46.087012,-122.934252,46.087012,-123.108252,-122.760252,45.913012,46.261012
OR4100704,RICKREALL WATER ASSOCIATION,"97371, Rickreall, Oregon",97371,Oregon,Region 10,Community water system,1650,,Polk,20,55,7,-123.228658,44.929099,-123.228658,44.929099,-123.374658,-123.082658,44.783099,45.075099
OR4191260,EOLA INN,"1265 Acacia Dr S, Salem, Oregon, 97302",97302,Oregon,Region 10,Transient non-community system,100,,Polk,4,46,3,-123.06452,44.910457,-123.064521,44.91065,-123.06552,-123.06352,44.909457,44.911457
OR4100055,"ASTORIA, CITY OF","550 30th St, Astoria, Oregon, 97103",97103,Oregon,Region 10,Community water system,9802,,Clatsop,9,25,10,-123.811676,46.191581,-123.811361,46.19171,-123.812676,-123.810676,46.190581,46.192581
OR4191851,PLEASANT HILL SCHOOLS,"36386 Highway 58, Pleasant Hill, Oregon, 97455",97455,Oregon,Region 10,Non-Transient non-community system,1200,,Lane,13,22,4,-122.91511,43.960273,-122.915731,43.95943,-122.91611,-122.91411,43.959273,43.961273
OR4100906,"TUALATIN, CITY OF","18880 SW Martinazzi Ave, Tualatin, Oregon, 97062",97062,Oregon,Region 10,Community water system,26879,,Washington,7,6,5,-122.758742,45.383506,-122.758221,45.38355,-122.759742,-122.757742,45.382506,45.384506
OR4100564,BAY HILLS WATER ASSOCIATION,"72 SE Yaquina View Dr, Newport, Oregon, 97365",97365,Oregon,Region 10,Community water system,45,,Lincoln,5,68,9,-124.009645,44.610572,-124.009645,44.610572,-124.019645,-123.999645,44.600572,44.620572
OR4195033,STAFFORD COUNTRY MONTESSORI,"4564 SW Borland Rd, Tualatin, Oregon, 97062",97062,Oregon,Region 10,Transient non-community system,27,,Clackamas,3,22,2,-122.72481,45.375312,-122.724821,45.37513,-122.72581,-122.72381,45.374312,45.376312
OR4195112,MASAMI FOODS INC,"5222 Tingley Ln, Klamath Falls, Oregon, 97603",97603,Oregon,Region 10,Non-Transient non-community system,140,,Klamath,6,86,4,-121.776632,42.179294,-121.777781,42.17947,-121.777632,-121.775632,42.178294,42.180294
OR4194901,ATHEY CREEK MIDDLE SCHOOL,"2755 SW Borland Rd, Tualatin, Oregon, 97062",97062,Oregon,Region 10,Non-Transient non-community system,565,,Clackamas,5,78,3,-122.704964,45.375211,-122.704964,45.375211,-122.714964,-122.694964,45.365211,45.385211
OR4193701,STAFFORD ELEMENTARY,"2755 SW Borland Rd, Tualatin, Oregon, 97062",97062,Oregon,Region 10,Non-Transient non-community system,600,,Clackamas,5,71,3,-122.704964,45.375211,-122.704964,45.375211,-122.714964,-122.694964,45.365211,45.385211
OR4194063,WEST LINN/WILSONVILLE,"2755 SW Borland Rd, Tualatin, Oregon, 97062",97062,Oregon,Region 10,Non-Transient non-community system,40,,Clackamas,5,83,3,-122.704964,45.375211,-122.704964,45.375211,-122.714964,-122.694964,45.365211,45.385211
OR4100483,LINCOLN CITY WATER DISTRICT,"97367, Rose Lodge, Oregon",97367,Oregon,Region 10,Community water system,20830,,Lincoln,12,55,10,-124.007781,44.985464,-124.007781,44.985464,-124.291781,-123.723781,44.701464,45.269464
OR4100954,"WILSONVILLE, CITY OF","29799 SW Town Center Loop E, Wilsonville, Oregon, 97070",97070,Oregon,Region 10,Community water system,22729,,Clackamas,26,26,6,-122.759498,45.304648,-122.759951,45.30471,-122.760498,-122.758498,45.303648,45.305648
OR4101119,ROYAL MOBILE ESTATES,"4652 Avens Ave NE, Salem, Oregon, 97301",97301,Oregon,Region 10,Community water system,160,,Marion,5,180,4,-122.967973,44.93073,-122.967973,44.93073,-122.977973,-122.957973,44.92073,44.94073
OR4193429,KIMBALL CREEK BEND RESORT,"97136 N Bank Rogue River Rd, Gold Beach, Oregon, 97444",97444,Oregon,Region 10,Transient non-community system,60,,Curry,5,23,4,-124.311676,42.487428,-124.311676,42.487428,-124.321676,-124.301676,42.477428,42.497428
OR4100350,HIGHLAND MOBILE HOME PARK,"97528, Grants Pass, Oregon",97528,Oregon,Region 10,Community water system,60,,Josephine,4,227,5,-123.326831,42.439921,-123.326831,42.439921,-123.331831,-123.321831,42.434921,42.444921
OR4100354,RIVER HAVEN MOBILE HOME ESTATES,"1241 Dowell Rd, Grants Pass, Oregon, 97527",97527,Oregon,Region 10,Community water system,140,,Josephine,7,16,5,-123.366907,42.425912,-123.366561,42.42613,-123.367907,-123.365907,42.424912,42.426912
OR4100348,REDWOOD MOBILE ESTATES LLC,"2395 Redwood Ave, Grants Pass, Oregon, 97527",97527,Oregon,Region 10,Community water system,250,,Josephine,4,9,5,-123.37432,42.422372,-123.374321,42.42227,-123.37532,-123.37332,42.421372,42.423372
OR4192152,CASCADE PACIFIC PULP LLC,"97348, Halsey, Oregon",97348,Oregon,Region 10,Non-Transient non-community system,800,,Linn,5,52,7,-123.108652,44.384907,-123.108652,44.384907,-123.244652,-122.972652,44.248907,44.520907
OR4192634,USFS CLOUD CAP/COOPER SPUR,"6780 Highway 35, Mount Hood Parkdale, Oregon, 97041",97041,Oregon,Region 10,Transient non-community system,55,,Hood River,3,17,3,-121.567999,45.53367,-121.569371,45.53369,-121.568999,-121.566999,45.53267,45.53467
OR4105579,BEACH LOOP RV PARK,"53887 Beach Loop Rd, Bandon, Oregon, 97411",97411,Oregon,Region 10,Transient non-community system,60,,Coos,5,30,3,-124.428916,43.068625,-124.428916,43.068625,-124.438916,-124.418916,43.058625,43.078625
OR4100276,"ELKTON, CITY OF","97436, Elkton, Oregon",97436,Oregon,Region 10,Community water system,197,,Douglas,5,24,10,-123.568691,43.636969,-123.568691,43.636969,-123.785691,-123.351691,43.419969,43.853969
OR4194077,AUCTION SALES CO,"97058, The Dalles, Oregon",97058,Oregon,Region 10,Transient non-community system,50,,Wasco,5,33,2,-121.18334,45.59619,-121.18334,45.59619,-121.54134,-120.82534,45.23819,45.95419
OR4194085,EVANS CREEK CAMP RETREAT,"36155 N Fork Rd SE, Lyons, Oregon, 97358",97358,Oregon,Region 10,Transient non-community system,50,,Marion,3,19,4,-122.36214,44.83574,-122.36214,44.83574,-122.37214,-122.35214,44.82574,44.84574
OR4194088,MANLEYS TAVERN,"97733, Crescent Lake, Oregon",97733,Oregon,Region 10,Transient non-community system,25,,Klamath,4,10,5,-121.930645,43.50615,-121.930645,43.50615,-122.252645,-121.608645,43.18415,43.82815
OR4100298,WOAHINK LAKE RV PARK,"83570 Highway 101, Florence, Oregon, 97439",97439,Oregon,Region 10,Transient non-community system,40,,Lane,3,20,5,-124.115424,43.903163,-124.117831,43.90315,-124.116424,-124.114424,43.902163,43.904163
OR4100047,ASHLAND WATER DEPARTMENT,"90 N Mountain Ave, Ashland, Oregon, 97520",97520,Oregon,Region 10,Community water system,20700,,Jackson,11,23,9,-122.699184,42.195429,-122.698651,42.19543,-122.700184,-122.698184,42.194429,42.196429
OR4195483,SAMS VALLEY COMMUNITY CHURCH,"4865 Highway 234, White City, Oregon, 97503",97503,Oregon,Region 10,Transient non-community system,75,,Jackson,3,3,2,-122.90095,42.504703,-122.900581,42.50421,-122.90195,-122.89995,42.503703,42.505703
OR4105864,FALL CREEK MARKET,"39074 Jasper Lowell Rd, Fall Creek, Oregon, 97438",97438,Oregon,Region 10,Transient non-community system,200,,Lane,5,11,3,-122.815956,43.959282,-122.815931,43.95901,-122.816956,-122.814956,43.958282,43.960282
OR4190636,BLM ELKHORN VALLEY REC SITE,"1717 Fabry Rd SE, Salem, Oregon, 97306",97306,Oregon,Region 10,Transient non-community system,60,,Marion,5,43,3,-123.022563,44.873617,-123.022563,44.873617,-123.032563,-123.012563,44.863617,44.883617
OR4190633,BLM FISHERMANS BEND REC SITE,"1717 Fabry Rd SE, Salem, Oregon, 97306",97306,Oregon,Region 10,Transient non-community system,200,,Marion,5,16,4,-123.022563,44.873617,-123.022563,44.873617,-123.032563,-123.012563,44.863617,44.883617
OR4100558,CHEHALEM VALLEY WATER ASSN,"316 W Columbia Dr, Newberg, Oregon, 97132",97132,Oregon,Region 10,Community water system,75,,Yamhill,3,16,5,-122.98105,45.312922,-122.981061,45.31239,-122.98205,-122.98005,45.311922,45.313922
OR4194371,BARTON COMMUNITY BAPTIST ANNEX,"25400 SE Highway 224, Boring, Oregon, 97009",97009,Oregon,Region 10,Transient non-community system,100,,Clackamas,3,17,5,-122.401637,45.387462,-122.401811,45.38727,-122.402637,-122.400637,45.386462,45.388462
OR4195184,NARROWS WATER COOPERATIVE,"25160 Wilson River Hwy, Tillamook, Oregon, 97141",97141,Oregon,Region 10,Transient non-community system,10,,Tillamook,6,56,2,-123.61387,45.495097,-123.613901,45.49535,-123.61487,-123.61287,45.494097,45.496097
OR4194512,MOUNTAIN MAN RV PARK,"28288 Redwood Hwy, Cave Junction, Oregon, 97523",97523,Oregon,Region 10,Transient non-community system,37,,Josephine,9,12,4,-123.664026,42.134768,-123.664261,42.13486,-123.665026,-123.663026,42.133768,42.135768
OR4194520,SWANSON GROUP LLC VENEER #2,"97442, Glendale, Oregon",97442,Oregon,Region 10,Non-Transient non-community system,50,,Douglas,4,76,4,-123.426651,42.736881,-123.426651,42.736881,-123.819651,-123.033651,42.343881,43.129881
OR4101453,LONG BUTTE WATER SYSTEM INC,"NE Irving Ave, Bend, Oregon, 97701",97701,Oregon,Region 10,Community water system,700,,Deschutes,4,16,5,-121.299815,44.058948,-121.299815,44.058948,-121.306815,-121.292815,44.051948,44.065948
OR4101460,SIGLER COVE MARINA,"32987 NW Bella Vista Dr, Scappoose, Oregon, 97056",97056,Oregon,Region 10,Community water system,150,,Multnomah,6,147,4,-122.888383,45.765514,-122.888383,45.765514,-122.898383,-122.878383,45.755514,45.775514
OR4101311,LAUREL RIDGE MHP,"32987 NW Bella Vista Dr, Scappoose, Oregon, 97056",97056,Oregon,Region 10,Community water system,70,,Columbia,6,280,6,-122.888383,45.765514,-122.888383,45.765514,-122.898383,-122.878383,45.755514,45.775514
OR4192024,LINCOLN CITY KOA,"5298 NE Park Ln, Otis, Oregon, 97368",97368,Oregon,Region 10,Transient non-community system,60,,Lincoln,8,9,4,-123.978919,44.993253,-123.978941,44.99279,-123.979919,-123.977919,44.992253,44.994253
OR4194697,R & D MARKET,"97731, Diamond Lake, Oregon",97731,Oregon,Region 10,Transient non-community system,50,,Klamath,3,51,4,-121.805484,43.135738,-121.805484,43.135738,-122.262484,-121.348484,42.678738,43.592738
OR4193594,OPRD MILO MCIVER STATE PARK,"24101 S Entrance Rd, Estacada, Oregon, 97023",97023,Oregon,Region 10,Transient non-community system,850,,Clackamas,5,23,4,-122.368178,45.291151,-122.362141,45.29454,-122.369178,-122.367178,45.290151,45.292151
OR4194521,SWANSON GROUP LLC PLYWOOD #3,"97442, Glendale, Oregon",97442,Oregon,Region 10,Non-Transient non-community system,150,,Douglas,3,86,4,-123.426651,42.736881,-123.426651,42.736881,-123.819651,-123.033651,42.343881,43.129881
OR4194531,WAYSIDE MARKET,"98604, Battle Ground, Washington",98604,Oregon,Region 10,Transient non-community system,250,,Umatilla,5,50,3,-122.541335,45.79233,-122.541335,45.79233,-122.732335,-122.350335,45.60133,45.98333
OR4195087,YODER STORE,"32441 S Kropf Rd, Canby, Oregon, 97013",97013,Oregon,Region 10,Transient non-community system,100,,Clackamas,3,5,3,-122.681359,45.138229,-122.681871,45.13823,-122.682359,-122.680359,45.137229,45.139229
OR4194534,SMYRNA UNITED CHURCH OF CHRIST,"32441 S Kropf Rd, Canby, Oregon, 97013",97013,Oregon,Region 10,Transient non-community system,105,,Clackamas,5,6,3,-122.681359,45.138229,-122.681871,45.13823,-122.682359,-122.680359,45.137229,45.139229
OR4194551,SILVER INN,"97305, Brooks, Oregon",97305,Oregon,Region 10,Transient non-community system,100,,Marion,3,7,3,-122.9833,44.960741,-122.9833,44.960741,-123.1423,-122.8243,44.801741,45.119741
OR4195132,"NARROWS, THE","33468 Sodhouse Ln, Princeton, Oregon, 97721",97721,Oregon,Region 10,Transient non-community system,40,,Harney,5,8,3,-118.95818,43.258182,-118.957491,43.25634,-118.95918,-118.95718,43.257182,43.259182
OR4100847,"SUTHERLIN, CITY OF","126 E Central Ave, Sutherlin, Oregon, 97479",97479,Oregon,Region 10,Community water system,8060,,Douglas,9,32,10,-123.312096,43.390302,-123.312021,43.39008,-123.313096,-123.311096,43.389302,43.391302
OR4100057,OLNEY-WALLUSKI WATER ASSN,"97103, Astoria, Oregon",97103,Oregon,Region 10,Community water system,530,,Clatsop,3,30,6,-123.83509,46.18609,-123.83509,46.18609,-124.23509,-123.43509,45.78609,46.58609
OR4105690,BANDON BY THE SEA RV,"49612 Highway 101, Bandon, Oregon, 97411",97411,Oregon,Region 10,Transient non-community system,60,,Coos,5,49,5,-124.415178,43.084389,-124.417581,43.08441,-124.416178,-124.414178,43.083389,43.085389
OR4100566,"NEWPORT, CITY OF","169 SW Coast Hwy, Newport, Oregon, 97365",97365,Oregon,Region 10,Community water system,10160,,Lincoln,8,39,12,-124.053848,44.634737,-124.053411,44.63439,-124.054848,-124.052848,44.633737,44.635737
OR4100627,WILDWOOD ANNEX WATER DISTRICT,"97067, Welches, Oregon",97067,Oregon,Region 10,Community water system,35,,Clackamas,5,111,5,-121.967655,45.343396,-121.967655,45.343396,-122.070655,-121.864655,45.240396,45.446396
OR4101243,"COVE, CITY OF","97824, Cove, Oregon",97824,Oregon,Region 10,Community water system,550,,Union,9,12,3,-117.807961,45.29962,-117.807961,45.29962,-118.349961,-117.265961,44.75762,45.84162
OR4193765,LAKE LABISH ELEMENTARY SD 24-J,"93705, Fresno, California",93705,Oregon,Region 10,Non-Transient non-community system,25,,Marion,3,125,3,-119.835327,36.781971,-119.835327,36.781971,-119.861327,-119.809327,36.755971,36.807971
OR4193764,VALLEY INQUIRY CHARTER SCHOOL,"2450 Lancaster Dr NE, Salem, Oregon, 97305",97305,Oregon,Region 10,Non-Transient non-community system,188,,Marion,5,78,3,-122.983571,44.95866,-122.982651,44.95867,-122.984571,-122.982571,44.95766,44.95966
OR4193763,FRUITLAND ELEMENTARY SD 24J,"2450 Lancaster Dr NE, Salem, Oregon, 97305",97305,Oregon,Region 10,Non-Transient non-community system,70,,Marion,5,121,3,-122.983571,44.95866,-122.982651,44.95867,-122.984571,-122.982571,44.95766,44.95966
OR4100826,"SISTERS, CITY OF","97759, Sisters, Oregon",97759,Oregon,Region 10,Community water system,2700,,Deschutes,17,113,6,-121.547282,44.290616,-121.547282,44.290616,-121.873282,-121.221282,43.964616,44.616616
OR4100936,SALMON VALLEY WATER COMPANY,"97067, Welches, Oregon",97067,Oregon,Region 10,Community water system,1500,,Clackamas,10,21,5,-121.967655,45.343396,-121.967655,45.343396,-122.070655,-121.864655,45.240396,45.446396
OR4100392,OLDS MOBILE PARK,"97032, Hubbard, Oregon",97032,Oregon,Region 10,Community water system,60,,Marion,6,66,5,-122.806139,45.183231,-122.806139,45.183231,-122.894139,-122.718139,45.095231,45.271231
OR4100723,RUFUS PUBLIC WORKS,"97050, Rufus, Oregon",97050,Oregon,Region 10,Community water system,270,,Sherman,9,14,5,-120.732202,45.694589,-120.732202,45.694589,-120.871202,-120.593202,45.555589,45.833589
OR4100491,"LOSTINE, CITY OF","97857, Lostine, Oregon",97857,Oregon,Region 10,Community water system,215,,Wallowa,14,94,5,-117.42411,45.503636,-117.42411,45.503636,-117.76211,-117.08611,45.165636,45.841636
OR4194280,KING SILVER RV PARK,"3703 Alsea Hwy, Waldport, Oregon, 97394",97394,Oregon,Region 10,Transient non-community system,30,,Lincoln,10,17,5,-124.007628,44.413116,-124.007481,44.41406,-124.008628,-124.006628,44.412116,44.414116
OR4195060,OREGON HORSE CENTER,"90751 Prairie Rd, Eugene, Oregon, 97402",97402,Oregon,Region 10,Transient non-community system,25,,Lane,3,28,3,-123.168812,44.126058,-123.168591,44.12606,-123.169812,-123.167812,44.125058,44.127058
OR4195063,BANDON COASTAL DUNES,"57744 Round Lake Dr, Bandon, Oregon, 97411",97411,Oregon,Region 10,Non-Transient non-community system,600,,Coos,7,92,4,-124.386769,43.187067,-124.386571,43.18728,-124.387769,-124.385769,43.186067,43.188067
OR4105884,CASCADE SPECIALTIES INC,"97818, Boardman, Oregon",97818,Oregon,Region 10,Non-Transient non-community system,35,,Morrow,5,136,4,-119.709772,45.830369,-119.709772,45.830369,-119.999772,-119.419772,45.540369,46.120369
OR4193957,PGE FARADAY DAM,"33831 SE Faraday Rd, Estacada, Oregon, 97023",97023,Oregon,Region 10,Non-Transient non-community system,35,,Clackamas,5,80,4,-122.317068,45.270365,-122.317731,45.26979,-122.318068,-122.316068,45.269365,45.271365
OR4106021,LODGES AT SALMON RIVER MEADOWS,"97028, Government Camp, Oregon",97028,Oregon,Region 10,Transient non-community system,40,,Clackamas,5,27,4,-121.756635,45.304184,-121.756635,45.304184,-121.947635,-121.565635,45.113184,45.495184
OR4194700,HORNINGS HIDEOUT,"21277 NW Brunswick Canyon Rd, North Plains, Oregon, 97133",97133,Oregon,Region 10,Transient non-community system,100,,Washington,8,22,3,-123.01259,45.673456,-123.013891,45.67364,-123.01359,-123.01159,45.672456,45.674456
OR4100507,MAPLETON WATER DISTRICT,"97453, Mapleton, Oregon",97453,Oregon,Region 10,Community water system,600,,Lane,5,151,11,-123.922192,44.044931,-123.922192,44.044931,-124.119192,-123.725192,43.847931,44.241931
OR4192721,USFS CARTER LAKE CG,"855 Highway 101 S, Reedsport, Oregon, 97467",97467,Oregon,Region 10,Transient non-community system,60,,Douglas,5,20,3,-124.105531,43.703263,-124.106251,43.70369,-124.106531,-124.104531,43.702263,43.704263
OR4191785,CAMP CLEAWOX,"4595 Mitchell Loop Rd, Florence, Oregon, 97439",97439,Oregon,Region 10,Transient non-community system,35,,Lane,8,2,4,-124.114098,43.937167,-124.116201,43.936,-124.115098,-124.113098,43.936167,43.938167
OR4191737,ELK LAKE RESORT,"97709, Bend, Oregon",97709,Oregon,Region 10,Transient non-community system,100,,Deschutes,6,101,4,-121.311742,44.058151,-121.311742,44.058151,-121.316742,-121.306742,44.053151,44.063151
OR4191881,VIDA CAFE,"49391 Eagle Rock Pl, Vida, Oregon, 97488",97488,Oregon,Region 10,Transient non-community system,90,,Lane,3,28,5,-122.427379,44.111777,-122.427331,44.11231,-122.428379,-122.426379,44.110777,44.112777
OR4193572,WANKERS CORNER SALOON & STORE,"2400 SW Borland Rd, West Linn, Oregon, 97068",97068,Oregon,Region 10,Transient non-community system,100,,Clackamas,5,20,4,-122.701695,45.374354,-122.702081,45.37405,-122.702695,-122.700695,45.373354,45.375354
OR4105101,FORT KLAMATH MUSEUM,"1451 Main St, Klamath Falls, Oregon, 97601",97601,Oregon,Region 10,Transient non-community system,50,,Klamath,3,37,3,-121.775007,42.228345,-121.775007,42.228345,-121.785007,-121.765007,42.218345,42.238345
OR4101169,BARNES BUTTE HOA,"2630 NE Tennessee Ln, Prineville, Oregon, 97754",97754,Oregon,Region 10,Community water system,146,,Crook,3,46,4,-120.842481,44.324317,-120.842261,44.32438,-120.843481,-120.841481,44.323317,44.325317
OR4193761,BETHEL ELEMENTARY SD 24J,"2450 Lancaster Dr NE, Salem, Oregon, 97305",97305,Oregon,Region 10,Non-Transient non-community system,160,,Marion,3,70,3,-122.983571,44.95866,-122.982651,44.95867,-122.984571,-122.982571,44.95766,44.95966
OR4190693,STAGE STOP STORE,"2185 Griffin Creek Rd, Medford, Oregon, 97501",97501,Oregon,Region 10,Transient non-community system,100,,Jackson,3,34,2,-122.906594,42.297449,-122.906291,42.29745,-122.907594,-122.905594,42.296449,42.298449
OR4190703,WILLIES BAR & GRILL,"14760 Highway 62, Eagle Point, Oregon, 97524",97524,Oregon,Region 10,Transient non-community system,50,,Jackson,5,22,5,-122.813306,42.521569,-122.812891,42.52164,-122.814306,-122.812306,42.520569,42.522569
OR4100958,"YONCALLA, CITY OF","97499, Yoncalla, Oregon",97499,Oregon,Region 10,Community water system,1095,,Douglas,9,232,10,-123.289577,43.598324,-123.289577,43.598324,-123.494577,-123.084577,43.393324,43.803324
OR4100246,"CRESWELL, CITY OF","97426, Creswell, Oregon",97426,Oregon,Region 10,Community water system,5075,,Lane,24,94,10,-123.024331,43.919766,-123.024331,43.919766,-123.177331,-122.871331,43.766766,44.072766
OR4194808,TRAIN MTN RAILROAD MUSEUM,"97624, Chiloquin, Oregon",97624,Oregon,Region 10,Transient non-community system,25,,Klamath,9,33,6,-121.864128,42.574969,-121.864128,42.574969,-122.678128,-121.050128,41.760969,43.388969
OR4190755,BLODGETT COUNTRY STORE,"97326, Blodgett, Oregon",97326,Oregon,Region 10,Transient non-community system,200,,Benton,3,17,3,-123.579182,44.6372,-123.579182,44.6372,-123.793182,-123.365182,44.4232,44.8512
OR4100338,GRAND RONDE COMMUNITY WTR ASSN,"97347, Grand Ronde, Oregon",97347,Oregon,Region 10,Community water system,2500,,Polk,7,35,7,-123.609155,45.061291,-123.609155,45.061291,-123.785155,-123.433155,44.885291,45.237291
OR4190670,PROSPECT VILLAGE,"97539, Shady Cove, Oregon",97539,Oregon,Region 10,Non-Transient non-community system,285,,Jackson,4,92,4,-122.809458,42.620735,-122.809458,42.620735,-122.864458,-122.754458,42.565735,42.675735
OR4194993,CARLTON PLANTS III,"14301 SE Wallace Rd, Dayton, Oregon, 97114",97114,Oregon,Region 10,Non-Transient non-community system,160,,Yamhill,3,46,3,-123.058852,45.156347,-123.057001,45.15629,-123.059852,-123.057852,45.155347,45.157347
OR4194885,CARLTON PLANTS II,"14301 SE Wallace Rd, Dayton, Oregon, 97114",97114,Oregon,Region 10,Non-Transient non-community system,35,,Yamhill,4,55,3,-123.058852,45.156347,-123.057001,45.15629,-123.059852,-123.057852,45.155347,45.157347
OR4101479,TWILIGHT VIEW ESTATES,"97534, Obrien, Oregon",97534,Oregon,Region 10,Community water system,50,,Josephine,6,18,5,-123.705721,42.064286,-123.705721,42.064286,-123.857721,-123.553721,41.912286,42.216286
OR4100158,DIETZ AIR PARK WATER SYSTEM,"25474 S Skylane Dr, Canby, Oregon, 97013",97013,Oregon,Region 10,Community water system,85,,Clackamas,8,4,4,-122.64959,45.252776,-122.64959,45.252776,-122.65959,-122.63959,45.242776,45.262776
OR4100020,REDWOOD WATER SERVICE INC,"35175 Cortez Pl SE, Albany, Oregon, 97322",97322,Oregon,Region 10,Community water system,125,,Linn,5,69,6,-123.015012,44.60329,-123.014611,44.60329,-123.016012,-123.014012,44.60229,44.60429
OR4101123,HALLS TRAILER COURT,"73477 Mytinger Ln, Pendleton, Oregon, 97801",97801,Oregon,Region 10,Community water system,60,,Umatilla,6,8,5,-118.745071,45.669963,-118.744411,45.67001,-118.746071,-118.744071,45.668963,45.670963
OR4100001,"ADAMS WATER DEPT, CITY OF","97810, Adams, Oregon",97810,Oregon,Region 10,Community water system,370,,Umatilla,7,17,6,-118.562291,45.767769,-118.562291,45.767769,-118.943291,-118.181291,45.386769,46.148769
OR4195235,ASPINWALLS NURSERY AND PRODUCE,"5152 Salem Dallas Hwy NW, Salem, Oregon, 97304",97304,Oregon,Region 10,Transient non-community system,100,,Polk,5,19,4,-123.135531,44.932362,-123.135621,44.93001,-123.136531,-123.134531,44.931362,44.933362
OR4195236,BELLINGER PRODUCE LLC,"29088 Bridge Rd, Hermiston, Oregon, 97838",97838,Oregon,Region 10,Transient non-community system,100,,Umatilla,5,35,4,-119.366728,45.835491,-119.366728,45.835491,-119.376728,-119.356728,45.825491,45.845491
OR4100443,KLAMATH FALLS WATER DEPT,"97601, Oretech, Oregon",97601,Oregon,Region 10,Community water system,40475,,Klamath,45,162,6,-121.785507,42.228914,-121.785507,42.228914,-122.357507,-121.213507,41.656914,42.800914
OR4101333,BEAVER CREEK RV PARK,"1200 Merlin Rd, Grants Pass, Oregon, 97526",97526,Oregon,Region 10,Transient non-community system,98,,Josephine,8,49,5,-123.405932,42.509826,-123.405291,42.51083,-123.406932,-123.404932,42.508826,42.510826
OR4101339,VALLEY VIEW WATER CO-OP,"97148, Yamhill, Oregon",97148,Oregon,Region 10,Community water system,99,,Yamhill,3,47,7,-123.183149,45.342364,-123.183149,45.342364,-123.486149,-122.880149,45.039364,45.645364
OR4101344,SUNDOWNER MOBILE HOME PARK,"61925 Stone Haven Ln, La Grande, Oregon, 97850",97850,Oregon,Region 10,Community water system,160,,Union,3,105,5,-118.072191,45.339377,-118.071641,45.33989,-118.073191,-118.071191,45.338377,45.340377
OR4194659,TRYSTING TREE GOLF COURSE,"34028 NE Electric Rd, Corvallis, Oregon, 97333",97333,Oregon,Region 10,Transient non-community system,150,,Linn,5,9,4,-123.24517,44.566564,-123.24517,44.566564,-123.25517,-123.23517,44.556564,44.576564
OR4100504,MALIN MUNICIPAL WATER,"97632, Malin, Oregon",97632,Oregon,Region 10,Community water system,815,,Klamath,11,87,5,-121.408127,42.01117,-121.408127,42.01117,-121.510127,-121.306127,41.90917,42.11317
OR4100546,"MOUNT VERNON, CITY OF","97865, Mount Vernon, Oregon",97865,Oregon,Region 10,Community water system,600,,Grant,15,91,4,-119.111703,44.417614,-119.111703,44.417614,-119.539703,-118.683703,43.989614,44.845614
OR4195024,OREGON GOLF COURSE,"25700 SW Petes Mountain Rd, West Linn, Oregon, 97068",97068,Oregon,Region 10,Non-Transient non-community system,35,,Clackamas,5,142,3,-122.677171,45.334235,-122.677171,45.334235,-122.687171,-122.667171,45.324235,45.344235
OR4195026,DIAMOND WOODS GC,"96040 Territorial Hwy, Monroe, Oregon, 97456",97456,Oregon,Region 10,Transient non-community system,75,,Lane,6,15,3,-123.295379,44.270825,-123.299501,44.27122,-123.296379,-123.294379,44.269825,44.271825
OR4195031,"HUMAN BEAN, THE","623 Rossanley Dr, Medford, Oregon, 97501",97501,Oregon,Region 10,Transient non-community system,200,,Jackson,5,12,2,-122.896906,42.34063,-122.896906,42.34063,-122.906906,-122.886906,42.33063,42.35063
OR4195186,VADIS CAMP,"33685 NW Vadis Rd, Cornelius, Oregon, 97113",97113,Oregon,Region 10,Transient non-community system,425,,Washington,3,9,3,-123.024055,45.599126,-123.023861,45.59959,-123.025055,-123.023055,45.598126,45.600126
OR4194128,SUTTLE LAKE UNITED METHOD CAMP,"Suttle Lake Rd, Sisters, Oregon, 97759",97759,Oregon,Region 10,Transient non-community system,50,,Jefferson,3,21,4,-121.736433,44.419738,-121.736433,44.419738,-121.756433,-121.716433,44.399738,44.439738
OR4194146,GREEN SPRINGS INN,"696 Siskiyou Blvd, Ashland, Oregon, 97520",97520,Oregon,Region 10,Transient non-community system,75,,Jackson,3,26,3,-122.704333,42.191603,-122.704551,42.19138,-122.705333,-122.703333,42.190603,42.192603
OR4194157,HAMLET QUICK-STOP,"38012 Highway 26, Seaside, Oregon, 97138",97138,Oregon,Region 10,Transient non-community system,30,,Clatsop,5,150,6,-123.759002,45.902242,-123.758951,45.90176,-123.760002,-123.758002,45.901242,45.903242
OR4100453,"LA GRANDE, CITY OF","800 X Ave, La Grande, Oregon, 97850",97850,Oregon,Region 10,Community water system,13245,,Union,25,34,5,-118.09848,45.335002,-118.098481,45.33447,-118.09948,-118.09748,45.334002,45.336002
OR4194230,DESCHUTES TRAILER PARK,"5533 NW Campbell St, Madras, Oregon, 97741",97741,Oregon,Region 10,Transient non-community system,25,,Jefferson,5,14,4,-121.219688,44.714997,-121.217711,44.71636,-121.220688,-121.218688,44.713997,44.715997
OR4100455,FLYING K TRAILER RANCH,"97850, Island City, Oregon",97850,Oregon,Region 10,Community water system,96,,Union,10,44,5,-118.099526,45.32398,-118.099526,45.32398,-118.697526,-117.501526,44.72598,45.92198
OR4100411,"JORDAN VALLEY, CITY OF","97910, South Mountain, Oregon",97910,Oregon,Region 10,Community water system,175,,Malheur,3,61,5,-117.055592,42.975881,-117.055592,42.975881,-118.228592,-115.882592,41.802881,44.148881
OR4100405,"JACKSONVILLE, CITY OF","97530, Applegate, Oregon",97530,Oregon,Region 10,Community water system,2850,,Jackson,3,7,5,-122.963125,42.315302,-122.963125,42.315302,-123.355125,-122.571125,41.923302,42.707302
OR4194866,TOWNSEND FARMS FAIRVIEW,"NE Townsend Way, Fairview, Oregon, 97024",97024,Oregon,Region 10,Non-Transient non-community system,250,,Multnomah,7,153,4,-122.428238,45.546653,-122.428238,45.546653,-122.434238,-122.422238,45.540653,45.552653
OR4100341,COUNTRY VILLAGE MOBILE ESTATES,"97528, Grants Pass, Oregon",97528,Oregon,Region 10,Community water system,80,,Josephine,5,229,5,-123.326831,42.439921,-123.326831,42.439921,-123.331831,-123.321831,42.434921,42.444921
OR4100018,SCRAVEL HILL WATER CO-OP,"38058 Scravel Hill Rd NE, Albany, Oregon, 97322",97322,Oregon,Region 10,Community water system,263,,Linn,6,70,6,-123.021987,44.681997,-123.022421,44.68204,-123.022987,-123.020987,44.680997,44.682997
OR4101419,EAGLE CREEK MOBILE ESTATES,"21666 SE Smokey Ln, Eagle Creek, Oregon, 97022",97022,Oregon,Region 10,Community water system,35,,Clackamas,5,23,6,-122.323181,45.366399,-122.323121,45.3669,-122.324181,-122.322181,45.365399,45.367399
OR4101423,PARADISE MOORAGE,"50350 Cowens Rd, Scappoose, Oregon, 97056",97056,Oregon,Region 10,Community water system,90,,Columbia,5,147,5,-122.862864,45.725933,-122.863251,45.726,-122.863864,-122.861864,45.724933,45.726933
OR4101428,LOWER SILETZ WATER SYSTEM,"1545 Siletz Hwy, Lincoln City, Oregon, 97367",97367,Oregon,Region 10,Community water system,165,,Lincoln,3,10,6,-123.981124,44.883339,-123.980231,44.88375,-123.982124,-123.980124,44.882339,44.884339
OR4191172,MADSEN SPRING WTR ASSOC,"97759, Sisters, Oregon",97759,Oregon,Region 10,Transient non-community system,40,,Jefferson,3,13,4,-121.547282,44.290616,-121.547282,44.290616,-121.873282,-121.221282,43.964616,44.616616
OR4101443,MEADOW CREEK SUBDIVISION,"1151 Willow Ln, Grants Pass, Oregon, 97527",97527,Oregon,Region 10,Community water system,60,,Josephine,3,73,4,-123.376503,42.427019,-123.376291,42.42702,-123.377503,-123.375503,42.426019,42.428019
OR4101191,HOLIDAY MOBILE HOME PARK,"3351 Rogue River Hwy, Grants Pass, Oregon, 97527",97527,Oregon,Region 10,Community water system,58,,Josephine,3,159,5,-123.27451,42.424722,-123.274491,42.42441,-123.27551,-123.27351,42.423722,42.425722
OR4100297,"FALLS CITY, CITY OF","299 Mill St, Falls City, Oregon, 97344",97344,Oregon,Region 10,Community water system,1000,,Polk,6,188,7,-123.433983,44.865532,-123.434021,44.86524,-123.434983,-123.432983,44.864532,44.866532
OR4191935,GOLDEN SPIKE MOTEL,"14850 NE Sandy Blvd, Portland, Oregon, 97230",97230,Oregon,Region 10,Transient non-community system,30,,Multnomah,3,10,4,-122.509565,45.552252,-122.509701,45.55192,-122.510565,-122.508565,45.551252,45.553252
OR4193641,COUNTRY CAMPGROUND,"660 Sugar Ave, Ontario, Oregon, 97914",97914,Oregon,Region 10,Transient non-community system,30,,Malheur,5,38,3,-117.040884,44.02497,-117.040884,44.02497,-117.050884,-117.030884,44.01497,44.03497
OR4100407,RYANS OUTPOST,"388 Ridgewood Dr, Jacksonville, Oregon, 97530",97530,Oregon,Region 10,Community water system,65,,Jackson,5,50,5,-123.062414,42.240646,-123.061911,42.24062,-123.063414,-123.061414,42.239646,42.241646
OR4193914,MANNING DAIRY QUEEN,"41414 NW Lodge Rd, Banks, Oregon, 97106",97106,Oregon,Region 10,Transient non-community system,120,,Washington,5,4,4,-123.099195,45.636169,-123.096301,45.63529,-123.100195,-123.098195,45.635169,45.637169
OR4193921,TRI-COUNTY INDUSTRIAL PARK #1,"11093 SW Industrial Way, Tualatin, Oregon, 97062",97062,Oregon,Region 10,Non-Transient non-community system,100,,Washington,3,65,4,-122.789571,45.367443,-122.789571,45.367443,-122.799571,-122.779571,45.357443,45.377443
OR4193922,TRI-COUNTY INDUSTRIAL PARK #2,"11093 SW Industrial Way, Tualatin, Oregon, 97062",97062,Oregon,Region 10,Non-Transient non-community system,45,,Washington,3,60,4,-122.789571,45.367443,-122.789571,45.367443,-122.799571,-122.779571,45.357443,45.377443
OR4193946,BRAVO BAKERY & CAFE,"97416, Camas Valley, Oregon",97416,Oregon,Region 10,Transient non-community system,72,,Douglas,5,25,3,-123.677411,43.028379,-123.677411,43.028379,-123.821411,-123.533411,42.884379,43.172379
OR4106172,MORROW RANCH CAMP,"79551 Morrow Rd, Tygh Valley, Oregon, 97063",97063,Oregon,Region 10,Transient non-community system,40,,Wasco,3,8,1,-121.308804,45.249044,-121.308731,45.2491,-121.309804,-121.307804,45.248044,45.250044
OR4193951,CAMP MORROW BIBLE CONFERENCE,"79551 Morrow Rd, Tygh Valley, Oregon, 97063",97063,Oregon,Region 10,Transient non-community system,140,,Wasco,3,16,4,-121.308804,45.249044,-121.308731,45.2491,-121.309804,-121.307804,45.248044,45.250044
OR4191259,CAMP TAPAWINGO,"97344, Falls City, Oregon",97344,Oregon,Region 10,Transient non-community system,150,,Polk,9,143,6,-123.435142,44.864717,-123.435142,44.864717,-123.726142,-123.144142,44.573717,45.155717
OR4193720,OREGON TRAIL SD -  KELSO ELEM,"97055, Sandy, Oregon",97055,Oregon,Region 10,Non-Transient non-community system,430,,Clackamas,5,12,3,-122.258401,45.391549,-122.258401,45.391549,-122.503401,-122.013401,45.146549,45.636549
OR4195320,MORNING GLORY FARMS,"19540 Highway 126, Walton, Oregon, 97490",97490,Oregon,Region 10,Transient non-community system,25,,Lane,5,17,3,-123.561875,44.034352,-123.561461,44.03326,-123.562875,-123.560875,44.033352,44.035352
OR4195536,TUM A LUM LUMBER,"408 Highway 35, Hood River, Oregon, 97031",97031,Oregon,Region 10,Transient non-community system,247,,Hood River,3,1,1,-121.503229,45.708346,-121.503661,45.7081,-121.504229,-121.502229,45.707346,45.709346
OR4191582,TACO DELITE,"6407 Table Rock Rd, Central Point, Oregon, 97502",97502,Oregon,Region 10,Transient non-community system,50,,Jackson,5,49,4,-122.885408,42.40947,-122.885601,42.40947,-122.886408,-122.884408,42.40847,42.41047
OR4101345,KOZY ACRES WATER SYSTEM,"97394, Waldport, Oregon",97394,Oregon,Region 10,Community water system,40,,Lincoln,7,16,5,-124.080004,44.441008,-124.080004,44.441008,-124.313004,-123.847004,44.208008,44.674008
OR4101350,RAINBOW ENDS WATER SYSTEM,"23800 SW Rainbow Ln, Hillsboro, Oregon, 97123",97123,Oregon,Region 10,Community water system,50,,Washington,5,78,5,-122.922067,45.417902,-122.922431,45.41722,-122.923067,-122.921067,45.416902,45.418902
OR4193608,"OACES II, THE","1151 Willow Ln, Grants Pass, Oregon, 97527",97527,Oregon,Region 10,Transient non-community system,60,,Josephine,3,5,3,-123.376503,42.427019,-123.376291,42.42702,-123.377503,-123.375503,42.426019,42.428019
OR4100800,STANLEY ACRES WATER ASSN,"2410 Boehm Acres Rd, Gearhart, Oregon, 97138",97138,Oregon,Region 10,Community water system,315,,Clatsop,3,20,8,-123.90632,46.010651,-123.906561,46.01066,-123.90732,-123.90532,46.009651,46.011651
OR4195217,PLEASANT VALLEY MARKET,"16880 SE Foster Rd, Gresham, Oregon, 97080",97080,Oregon,Region 10,Transient non-community system,50,,Multnomah,3,48,4,-122.488967,45.469034,-122.489171,45.4689,-122.489967,-122.487967,45.468034,45.470034
OR4100915,"UNION, CITY OF","97883, Union, Oregon",97883,Oregon,Region 10,Community water system,2150,,Union,6,17,5,-117.865082,45.211459,-117.865082,45.211459,-118.277082,-117.453082,44.799459,45.623459
OR4195218,OUT N ABOUT,"300 Page Creek Rd, Cave Junction, Oregon, 97523",97523,Oregon,Region 10,Transient non-community system,30,,Josephine,3,36,3,-123.624247,42.03235,-123.624247,42.03235,-123.634247,-123.614247,42.02235,42.04235
OR4190528,OREGON TRAIL SD - COTTRELL ELEM,"97055, Sandy, Oregon",97055,Oregon,Region 10,Non-Transient non-community system,300,,Clackamas,6,30,3,-122.258401,45.391549,-122.258401,45.391549,-122.503401,-122.013401,45.146549,45.636549
OR4194670,OREGON TRAIL SD - BORING MID SCH,"97055, Sandy, Oregon",97055,Oregon,Region 10,Non-Transient non-community system,400,,Clackamas,5,74,3,-122.258401,45.391549,-122.258401,45.391549,-122.503401,-122.013401,45.146549,45.636549
OR4194327,SELMET INC/REM PRODUCTS DIV,"97321, Albany, Oregon",97321,Oregon,Region 10,Non-Transient non-community system,430,,Linn,6,37,3,-123.108899,44.631122,-123.108899,44.631122,-123.249899,-122.967899,44.490122,44.772122
OR4101354,WILLOW ESTATES MOBILE HOME PK,"1151 Willow Ln, Grants Pass, Oregon, 97527",97527,Oregon,Region 10,Community water system,250,,Josephine,3,121,5,-123.376503,42.427019,-123.376291,42.42702,-123.377503,-123.375503,42.426019,42.428019
OR4101361,RAINBOW ROCK SERVICE ASSOCIATION,"17744 Highway 101 N, Brookings, Oregon, 97415",97415,Oregon,Region 10,Community water system,80,,Curry,5,14,8,-124.329126,42.08755,-124.329126,42.08755,-124.339126,-124.319126,42.07755,42.09755
OR4194853,PETRICH GENERAL STORE,"23915 SW Scholls Ferry Rd, Hillsboro, Oregon, 97123",97123,Oregon,Region 10,Transient non-community system,50,,Washington,5,32,4,-122.922219,45.408017,-122.922861,45.40801,-122.923219,-122.921219,45.407017,45.409017
OR4105314,ODOT HD WOODBURN PORT OF ENTRY,"97071, Woodburn, Oregon",97071,Oregon,Region 10,Transient non-community system,25,,Marion,5,55,3,-122.859023,45.145663,-122.859023,45.145663,-123.037023,-122.681023,44.967663,45.323663
OR4193510,GRANTS PASS GOLF CLUB/RESTAURT,"230 Espey Rd, Grants Pass, Oregon, 97527",97527,Oregon,Region 10,Transient non-community system,250,,Josephine,3,1,3,-123.34053,42.389837,-123.340091,42.39355,-123.34153,-123.33953,42.388837,42.390837
OR4193967,SHIRLEY MAYS,"US-20, Albany, Oregon, 97321",97321,Oregon,Region 10,Transient non-community system,150,,Linn,3,11,3,-123.149491,44.640553,-123.149491,44.640553,-123.193491,-123.105491,44.596553,44.684553
OR4191985,GOLDEN ENTERPRISES,"11105 SE Clair Ln, Dayton, Oregon, 97114",97114,Oregon,Region 10,Transient non-community system,500,,Yamhill,5,34,4,-123.124777,45.207826,-123.124601,45.20865,-123.125777,-123.123777,45.206826,45.208826
OR4195325,ARAGO COMMUNITY CHURCH,"54239 Arago-Fishtrap Rd, Myrtle Point, Oregon, 97458",97458,Oregon,Region 10,Transient non-community system,100,,Coos,7,48,3,-124.192103,43.102117,-124.192221,43.10275,-124.193103,-124.191103,43.101117,43.103117
OR4194626,APPLEGATE CHRISTIAN FELLOWSHIP,"97530, Applegate, Oregon",97530,Oregon,Region 10,Transient non-community system,600,,Jackson,7,12,4,-122.963125,42.315302,-122.963125,42.315302,-123.355125,-122.571125,41.923302,42.707302
OR4100171,"CARLTON, CITY OF","191 E Main St, Carlton, Oregon, 97111",97111,Oregon,Region 10,Community water system,2125,,Yamhill,5,122,10,-123.17588,45.294217,-123.175871,45.2945,-123.17688,-123.17488,45.293217,45.295217
OR4190889,ANNEX CHARTER SCHOOL,"402 Annex Rd, Ontario, Oregon, 97914",97914,Oregon,Region 10,Non-Transient non-community system,50,,Malheur,6,67,4,-116.98709,44.236197,-116.987081,44.23735,-116.98809,-116.98609,44.235197,44.237197
OR4190921,BAY AIRE MOBILE HOME PARK,"4600 Idaville Rd, Tillamook, Oregon, 97141",97141,Oregon,Region 10,Community water system,82,,Tillamook,6,71,5,-123.86805,45.505554,-123.868401,45.50575,-123.86905,-123.86705,45.504554,45.506554
OR4195520,RAINIER OR LDS CHURCH,"1038 W Henry St, Pasco, Washington, 99301",99301,Oregon,Region 10,Transient non-community system,150,,Columbia,5,3,1,-119.104572,46.237563,-119.104591,46.23729,-119.105572,-119.103572,46.236563,46.238563
OR4195523,NEIGHBORHOOD CHURCH,"21065 SW Stafford Rd, Tualatin, Oregon, 97062",97062,Oregon,Region 10,Transient non-community system,100,,Clackamas,3,2,1,-122.708409,45.366968,-122.710771,45.36944,-122.709409,-122.707409,45.365968,45.367968
OR4191951,REEDER BEACH RESORT,"26048 NW Reeder Rd, Portland, Oregon, 97231",97231,Oregon,Region 10,Transient non-community system,50,,Multnomah,5,17,4,-122.773963,45.710989,-122.773963,45.710989,-122.783963,-122.763963,45.700989,45.720989
OR4101510,WAPATO MOORAGE ASSOCIATION,"26048 NW Reeder Rd, Portland, Oregon, 97231",97231,Oregon,Region 10,Community water system,74,,Multnomah,4,8,4,-122.773963,45.710989,-122.773963,45.710989,-122.783963,-122.763963,45.700989,45.720989
OR4100779,SALEM MOBILE ESTATES/SHADY ACRES,"5552 Portland Rd NE, Salem, Oregon, 97305",97305,Oregon,Region 10,Community water system,150,,Marion,5,9,4,-122.976786,45.003627,-122.974121,45.00316,-122.977786,-122.975786,45.002627,45.004627
OR4195527,FOSTER LAKE MARKET,"5401 Highway 20, Sweet Home, Oregon, 97386",97386,Oregon,Region 10,Transient non-community system,250,,Linn,3,0,1,-122.671466,44.407482,-122.671361,44.40718,-122.672466,-122.670466,44.406482,44.408482
OR4195287,LINN CO PKS-RIVERBEND CG,"3010 Ferry St SW, Albany, Oregon, 97322",97322,Oregon,Region 10,Transient non-community system,425,,Linn,5,0,3,-123.101178,44.613068,-123.101681,44.61306,-123.102178,-123.100178,44.612068,44.614068
OR4191725,LINN CO PKS-WHITCOMB CREEK PK,"3010 Ferry St SW, Albany, Oregon, 97322",97322,Oregon,Region 10,Transient non-community system,30,,Linn,3,5,3,-123.101178,44.613068,-123.101681,44.61306,-123.102178,-123.100178,44.612068,44.614068
OR4191715,LINN CO PKS-SUNNYSIDE/LEWIS CRK,"3010 Ferry St SW, Albany, Oregon, 97322",97322,Oregon,Region 10,Transient non-community system,500,,Linn,5,6,4,-123.101178,44.613068,-123.101681,44.61306,-123.102178,-123.100178,44.612068,44.614068
OR4191708,LINN CO PKS-ROARING RIVER PARK,"3010 Ferry St SW, Albany, Oregon, 97322",97322,Oregon,Region 10,Transient non-community system,300,,Linn,3,12,4,-123.101178,44.613068,-123.101681,44.61306,-123.102178,-123.100178,44.612068,44.614068
OR4194247,USFS YUKWAH CG HP 2,"3010 Ferry St SW, Albany, Oregon, 97322",97322,Oregon,Region 10,Transient non-community system,43,,Linn,3,8,5,-123.101178,44.613068,-123.101681,44.61306,-123.102178,-123.100178,44.612068,44.614068
OR4192779,USFS HOUSE ROCK CG HP 1,"3010 Ferry St SW, Albany, Oregon, 97322",97322,Oregon,Region 10,Transient non-community system,43,,Linn,3,9,4,-123.101178,44.613068,-123.101681,44.61306,-123.102178,-123.100178,44.612068,44.614068
OR4192778,USFS LOST PRAIRIE CAMPGROUND-1,"3010 Ferry St SW, Albany, Oregon, 97322",97322,Oregon,Region 10,Transient non-community system,50,,Linn,3,6,4,-123.101178,44.613068,-123.101681,44.61306,-123.102178,-123.100178,44.612068,44.614068
OR4192776,USFS LONGBOW ORG CAMP,"3010 Ferry St SW, Albany, Oregon, 97322",97322,Oregon,Region 10,Transient non-community system,48,,Linn,6,19,4,-123.101178,44.613068,-123.101681,44.61306,-123.102178,-123.100178,44.612068,44.614068
OR4192775,USFS FERNVIEW CG HP,"3010 Ferry St SW, Albany, Oregon, 97322",97322,Oregon,Region 10,Transient non-community system,55,,Linn,4,5,3,-123.101178,44.613068,-123.101681,44.61306,-123.102178,-123.100178,44.612068,44.614068
OR4192816,USFS HOUSE ROCK CG HP 2,"3010 Ferry St SW, Albany, Oregon, 97322",97322,Oregon,Region 10,Transient non-community system,43,,Linn,3,6,5,-123.101178,44.613068,-123.101681,44.61306,-123.102178,-123.100178,44.612068,44.614068
OR4192781,USFS TROUT CREEK CG HP 2,"3010 Ferry St SW, Albany, Oregon, 97322",97322,Oregon,Region 10,Transient non-community system,43,,Linn,4,6,4,-123.101178,44.613068,-123.101681,44.61306,-123.102178,-123.100178,44.612068,44.614068
OR4194248,USFS YUKWAH CG HP 1,"3010 Ferry St SW, Albany, Oregon, 97322",97322,Oregon,Region 10,Transient non-community system,43,,Linn,3,2,5,-123.101178,44.613068,-123.101681,44.61306,-123.102178,-123.100178,44.612068,44.614068
OR4193978,LINN CO PKS-WATERLOO-SANTIAM ADDITION,"3010 Ferry St SW, Albany, Oregon, 97322",97322,Oregon,Region 10,Transient non-community system,1000,,Linn,6,7,4,-123.101178,44.613068,-123.101681,44.61306,-123.102178,-123.100178,44.612068,44.614068
OR4106090,MCCUDDYS,"250 NE Tomahawk Island Dr, Portland, Oregon, 97217",97217,Oregon,Region 10,Community water system,70,,Columbia,5,24,3,-122.662829,45.604439,-122.662829,45.604439,-122.672829,-122.652829,45.594439,45.614439
OR4100081,"BEAVERTON, CITY OF","97076, Beaverton, Oregon",97076,Oregon,Region 10,Community water system,70000,,Washington,11,17,5,-122.796041,45.48469,-122.796041,45.48469,-122.801041,-122.791041,45.47969,45.48969
OR4194734,YUVIS MARKET,"33750 Santiam Hwy, Lebanon, Oregon, 97355",97355,Oregon,Region 10,Transient non-community system,100,,Linn,5,48,4,-122.913777,44.566522,-122.914531,44.56645,-122.914777,-122.912777,44.565522,44.567522
OR4195081,JEROME PRAIRIE MARKET,"5229 Redwood Ave, Grants Pass, Oregon, 97527",97527,Oregon,Region 10,Transient non-community system,300,,Josephine,3,43,4,-123.430714,42.408324,-123.430351,42.40801,-123.431714,-123.429714,42.407324,42.409324
OR4101434,FOX HOLLOW ESTATES WATER CORP,"97301, Salem, Oregon",97301,Oregon,Region 10,Community water system,26,,Marion,6,319,5,-123.033662,44.942547,-123.033662,44.942547,-123.108662,-122.958662,44.867547,45.017547
OR4105089,WILLIAMS GRANGE #399,"97544, Williams, Oregon",97544,Oregon,Region 10,Transient non-community system,25,,Josephine,3,31,3,-123.27555,42.213021,-123.27555,42.213021,-123.48855,-123.06255,42.000021,42.426021
OR4101265,ARRAH WANNA WATER COMPANY,"97067, Welches, Oregon",97067,Oregon,Region 10,Transient non-community system,40,,Clackamas,9,133,4,-121.967655,45.343396,-121.967655,45.343396,-122.070655,-121.864655,45.240396,45.446396
OR4100337,ROCK CREEK WATER DISTRICT,"97347, Grand Ronde, Oregon",97347,Oregon,Region 10,Community water system,235,,Polk,5,184,10,-123.609155,45.061291,-123.609155,45.061291,-123.785155,-123.433155,44.885291,45.237291
OR4194039,ODELL LAKE RESORT,"97733, Crescent Lake, Oregon",97733,Oregon,Region 10,Transient non-community system,100,,Klamath,3,14,4,-121.930645,43.50615,-121.930645,43.50615,-122.252645,-121.608645,43.18415,43.82815
OR4195239,CROWFOOT MARKET,"135 Central Ave, Lebanon, Oregon, 97355",97355,Oregon,Region 10,Transient non-community system,80,,Linn,5,9,4,-122.890542,44.507408,-122.890061,44.5074,-122.891542,-122.889542,44.506408,44.508408
OR4101199,NEW SAMMYS BISTRO,"2210 S Pacific Hwy, Talent, Oregon, 97540",97540,Oregon,Region 10,Transient non-community system,45,,Jackson,6,17,3,-122.755155,42.229034,-122.755621,42.22859,-122.756155,-122.754155,42.228034,42.230034
OR4100002,"ADRIAN, CITY OF","97901, Adrian, Oregon",97901,Oregon,Region 10,Community water system,180,,Malheur,11,132,4,-117.036022,43.715136,-117.036022,43.715136,-117.447022,-116.625022,43.304136,44.126136
OR4101246,YOUNG LIFE,"1 Muddy Rd, Antelope, Oregon, 97001",97001,Oregon,Region 10,Community water system,482,,Wasco,11,27,7,-120.523261,44.823412,-120.523311,44.82288,-120.524261,-120.522261,44.822412,44.824412
OR4101308,TRAPPIST ABBEY,"9200 NE Abbey Rd, Carlton, Oregon, 97111",97111,Oregon,Region 10,Non-Transient non-community system,34,,Yamhill,12,31,4,-123.097402,45.283495,-123.091481,45.28339,-123.098402,-123.096402,45.282495,45.284495
OR4100517,COBBLESTONE MHP,"97502, Central Point, Oregon",97502,Oregon,Region 10,Community water system,90,,Jackson,7,49,6,-122.91444,42.376031,-122.91444,42.376031,-123.07144,-122.75744,42.219031,42.533031
OR4190618,BLM SPRING REC SITE,"100 Oregon St, Vale, Oregon, 97918",97918,Oregon,Region 10,Transient non-community system,25,,Baker,6,28,4,-117.23953,43.986697,-117.239491,43.98773,-117.24053,-117.23853,43.985697,43.987697
OR4195519,TUMALO LAKE LODGE,"97701, Bend, Oregon",97701,Oregon,Region 10,Transient non-community system,31,,Deschutes,3,8,2,-121.298827,44.065092,-121.298827,44.065092,-121.810827,-120.786827,43.553092,44.577092
OR4194345,NUTRIEN AG SOLUTIONS,"32092 Old Highway 34, Tangent, Oregon, 97389",97389,Oregon,Region 10,Non-Transient non-community system,35,,Linn,3,113,3,-123.1073,44.559072,-123.107291,44.55737,-123.1083,-123.1063,44.558072,44.560072
OR4191618,LAUREL COMMUNITY CHURCH,"14127 SW Campbell Rd, Hillsboro, Oregon, 97123",97123,Oregon,Region 10,Transient non-community system,110,,Washington,5,21,4,-122.991315,45.417987,-122.991315,45.417987,-123.001315,-122.981315,45.407987,45.427987
OR4101050,GNR WATER DISTRICT,"97055, Sandy, Oregon",97055,Oregon,Region 10,Community water system,60,,Clackamas,3,78,6,-122.258401,45.391549,-122.258401,45.391549,-122.503401,-122.013401,45.146549,45.636549
OR4100630,ALDER CREEK BARLOW WATER DIST,"97055, Sandy, Oregon",97055,Oregon,Region 10,Community water system,310,,Clackamas,3,19,6,-122.258401,45.391549,-122.258401,45.391549,-122.503401,-122.013401,45.146549,45.636549
OR4100629,SLEEPY HOLLOW WATER DISTRICT,"97055, Sandy, Oregon",97055,Oregon,Region 10,Community water system,135,,Clackamas,3,88,5,-122.258401,45.391549,-122.258401,45.391549,-122.503401,-122.013401,45.146549,45.636549
OR4100937,WELCHES WATER COMPANY,"97055, Sandy, Oregon",97055,Oregon,Region 10,Community water system,100,,Clackamas,8,96,6,-122.258401,45.391549,-122.258401,45.391549,-122.503401,-122.013401,45.146549,45.636549
OR4100266,CURRINSVILLE MOBILE HOME PARK,"97055, Sandy, Oregon",97055,Oregon,Region 10,Community water system,90,,Clackamas,6,122,4,-122.258401,45.391549,-122.258401,45.391549,-122.503401,-122.013401,45.146549,45.636549
OR4101476,ASPEN LAKES UTILITY CO LLC,"16900 Aspen Lakes Dr, Sisters, Oregon, 97759",97759,Oregon,Region 10,Community water system,150,,Deschutes,4,93,6,-121.485446,44.298124,-121.484041,44.29821,-121.486446,-121.484446,44.297124,44.299124
OR4105737,BERNDT CREEK WATER CORP,"15278 Creek View Ln, Vernonia, Oregon, 97064",97064,Oregon,Region 10,Community water system,28,,Columbia,5,93,9,-123.25263,45.883579,-123.252971,45.88358,-123.25363,-123.25163,45.882579,45.884579
OR4191215,SINGING SPRINGS LODGE & CAFE,"97406, Agness, Oregon",97406,Oregon,Region 10,Transient non-community system,100,,Curry,3,35,4,-124.058152,42.555465,-124.058152,42.555465,-124.400152,-123.716152,42.213465,42.897465
OR4191637,CRUISE IN COUNTRY DINER,"30487 SW Egger Rd, Hillsboro, Oregon, 97123",97123,Oregon,Region 10,Transient non-community system,200,,Washington,5,35,4,-122.99101,45.401827,-122.990971,45.40257,-122.99201,-122.99001,45.400827,45.402827
OR4191853,NOTI PUB,"97461, Noti, Oregon",97461,Oregon,Region 10,Transient non-community system,100,,Lane,5,10,4,-123.503675,44.23944,-123.503675,44.23944,-123.692675,-123.314675,44.05044,44.42844
OR4101248,YOUTH WITH A MISSION,"14603 S Macksburg Rd, Molalla, Oregon, 97038",97038,Oregon,Region 10,Non-Transient non-community system,100,,Marion,5,266,4,-122.562725,45.179034,-122.562591,45.17913,-122.563725,-122.561725,45.178034,45.180034
OR4195183,CENTRAL ELECTRICAL TRNG CTR,"33309 Highway 99E, Tangent, Oregon, 97389",97389,Oregon,Region 10,Transient non-community system,160,,Linn,3,2,3,-123.110002,44.55042,-123.109151,44.55042,-123.111002,-123.109002,44.54942,44.55142
OR4194522,KLAMATH SPORTSMAN PARK,"97601, Oretech, Oregon",97601,Oregon,Region 10,Transient non-community system,25,,Klamath,3,48,3,-121.785507,42.228914,-121.785507,42.228914,-122.357507,-121.213507,41.656914,42.800914
OR4194691,OREGON HARVESTING CAMP 1,"97123, Cornelius, Oregon",97123,Oregon,Region 10,Transient non-community system,100,,Washington,5,22,2,-122.96134,45.498209,-122.96134,45.498209,-123.09634,-122.82634,45.363209,45.633209
OR4100613,"PENDLETON, CITY OF","500 SW Dorion Ave, Pendleton, Oregon, 97801",97801,Oregon,Region 10,Community water system,17310,,Umatilla,45,32,9,-118.791762,45.670133,-118.791471,45.66963,-118.792762,-118.790762,45.669133,45.671133
OR4100058,WILLOW DALE WATER DISTRICT,"36766 Christians Ln, Astoria, Oregon, 97103",97103,Oregon,Region 10,Community water system,300,,Clatsop,3,30,7,-123.795529,46.138294,-123.796701,46.13822,-123.796529,-123.794529,46.137294,46.139294
OR4193569,PAR 3 INVESTMENTS WS,"97013, Canby, Oregon",97013,Oregon,Region 10,Transient non-community system,74,,Clackamas,5,34,5,-122.694047,45.260055,-122.694047,45.260055,-122.839047,-122.549047,45.115055,45.405055
OR4195275,MONITOR INN,"97362, Mount Angel, Oregon",97362,Oregon,Region 10,Transient non-community system,40,,Marion,5,23,2,-122.798831,45.069854,-122.798831,45.069854,-122.911831,-122.685831,44.956854,45.182854
OR4195473,PIC NIC BASKET DELI,"97539, Shady Cove, Oregon",97539,Oregon,Region 10,Transient non-community system,50,,Jackson,3,19,2,-122.809458,42.620735,-122.809458,42.620735,-122.864458,-122.754458,42.565735,42.675735
OR4191240,SPACE AGE FUEL,"77522 Highway 207, Hermiston, Oregon, 97838",97838,Oregon,Region 10,Transient non-community system,950,,Umatilla,13,67,4,-119.321654,45.786678,-119.321654,45.786678,-119.331654,-119.311654,45.776678,45.796678
OR4100547,MULINO WATER DISTRICT,"97042, Mulino, Oregon",97042,Oregon,Region 10,Community water system,660,,Clackamas,9,18,5,-122.533141,45.212477,-122.533141,45.212477,-122.612141,-122.454141,45.133477,45.291477
OR4195415,CRACKER BARREL GROCERY,"15005 NW Sauvie Island Rd, Portland, Oregon, 97231",97231,Oregon,Region 10,Transient non-community system,150,,Multnomah,6,9,3,-122.816485,45.630847,-122.816661,45.63079,-122.817485,-122.815485,45.629847,45.631847
OR4193952,LAKESIDE WATER COMPANY,"34 N Mariposa Dr, Tygh Valley, Oregon, 97063",97063,Oregon,Region 10,Transient non-community system,200,,Wasco,5,13,3,-121.288202,45.249197,-121.288621,45.2489,-121.289202,-121.287202,45.248197,45.250197
OR4191720,"POINT RESTAURANT, THE","97386, Sweet Home, Oregon",97386,Oregon,Region 10,Transient non-community system,200,,Linn,3,8,4,-122.734408,44.395578,-122.734408,44.395578,-122.939408,-122.529408,44.190578,44.600578
OR4191211,PACIFIC HIGH SCHOOL SD 2J,"8th St, Port Orford, Oregon, 97465",97465,Oregon,Region 10,Non-Transient non-community system,150,,Curry,5,15,4,-124.498303,42.745066,-124.498303,42.745066,-124.502303,-124.494303,42.741066,42.749066
OR4194611,OREGON HARVESTING CAMP 2,"97123, Cornelius, Oregon",97123,Oregon,Region 10,Transient non-community system,100,,Washington,5,34,2,-122.96134,45.498209,-122.96134,45.498209,-123.09634,-122.82634,45.363209,45.633209
OR4194998,LAKEWOOD RV PARK,"2564 Merry Ln, White City, Oregon, 97503",97503,Oregon,Region 10,Transient non-community system,100,,Jackson,5,10,4,-122.845241,42.421902,-122.845291,42.42097,-122.846241,-122.844241,42.420902,42.422902
OR4191911,RIVERPARK RV RESORT,"2956 Rogue River Hwy, Grants Pass, Oregon, 97527",97527,Oregon,Region 10,Transient non-community system,100,,Josephine,6,31,3,-123.281891,42.424979,-123.281891,42.424979,-123.291891,-123.271891,42.414979,42.434979
OR4194417,DESCHUTES RIVERWOOD COUNTRY STORE,"19745 Baker Rd, Bend, Oregon, 97702",97702,Oregon,Region 10,Transient non-community system,900,,Deschutes,4,6,3,-121.336741,43.992733,-121.336931,43.99149,-121.337741,-121.335741,43.991733,43.993733
OR4192108,FIR POINT BIBLE CONFERENCE,"760 Fir Point Ln, Glendale, Oregon, 97442",97442,Oregon,Region 10,Transient non-community system,150,,Douglas,6,67,5,-123.407961,42.762906,-123.407071,42.76269,-123.408961,-123.406961,42.761906,42.763906
OR4192087,CAMP MERIWETHER BSA,"17500 Cape Lookout Rd, Cloverdale, Oregon, 97112",97112,Oregon,Region 10,Transient non-community system,25,,Tillamook,13,23,3,-123.942669,45.327554,-123.942669,45.327554,-123.952669,-123.932669,45.317554,45.337554
OR4191091,ODF GALES CREEK CAMPGROUND,"801 Gales Creek Rd, Forest Grove, Oregon, 97116",97116,Oregon,Region 10,Transient non-community system,25,,Washington,3,26,3,-123.133302,45.530647,-123.132361,45.53161,-123.134302,-123.132302,45.529647,45.531647
OR4191090,ODF ELK CREEK CG,"801 Gales Creek Rd, Forest Grove, Oregon, 97116",97116,Oregon,Region 10,Transient non-community system,41,,Tillamook,3,22,3,-123.133302,45.530647,-123.132361,45.53161,-123.134302,-123.132302,45.529647,45.531647
OR4191088,ODF BROWNS CAMP FORREST PARK,"801 Gales Creek Rd, Forest Grove, Oregon, 97116",97116,Oregon,Region 10,Transient non-community system,41,,Tillamook,3,20,3,-123.133302,45.530647,-123.132361,45.53161,-123.134302,-123.132302,45.529647,45.531647
OR4195321,ODF REEHERS CAMPGROUND,"801 Gales Creek Rd, Forest Grove, Oregon, 97116",97116,Oregon,Region 10,Transient non-community system,75,,Washington,3,4,3,-123.133302,45.530647,-123.132361,45.53161,-123.134302,-123.132302,45.529647,45.531647
OR4195291,SMITH BERRY BARN,"24500 SW Scholls Ferry Rd, Hillsboro, Oregon, 97123",97123,Oregon,Region 10,Transient non-community system,50,,Washington,5,53,3,-122.92924,45.400545,-122.92924,45.400545,-122.93924,-122.91924,45.390545,45.410545
OR4101209,SAUVIE ISLAND MOORAGE,"17717 NW Sauvie Island Rd, Portland, Oregon, 97231",97231,Oregon,Region 10,Community water system,96,,Multnomah,3,281,5,-122.829314,45.650393,-122.829314,45.650393,-122.839314,-122.819314,45.640393,45.660393
OR4195004,HART MOUNTAIN STORE,"28229 Hogback Rd, Plush, Oregon, 97637",97637,Oregon,Region 10,Transient non-community system,35,,Lake,3,20,4,-119.904234,42.412209,-119.903871,42.4122,-119.905234,-119.903234,42.411209,42.413209
OR4101183,ARK RV PARK,"22375 SE 442nd Ave, Sandy, Oregon, 97055",97055,Oregon,Region 10,Transient non-community system,30,,Clackamas,5,22,3,-122.209199,45.361011,-122.211061,45.36105,-122.210199,-122.208199,45.360011,45.362011
OR4100112,CIMMARRON CITY WATER SYSTEM,"97708, Bend, Oregon",97708,Oregon,Region 10,Community water system,450,,Deschutes,4,9,6,-121.300151,44.07282,-121.300151,44.07282,-121.305151,-121.295151,44.06782,44.07782
OR4101021,CIRCLE TREE MOBILE PARK/RANCH,"2172 Arnold Ave, Grants Pass, Oregon, 97527",97527,Oregon,Region 10,Community water system,57,,Josephine,5,86,5,-123.37023,42.411437,-123.370231,42.41151,-123.37123,-123.36923,42.410437,42.412437
OR4194405,OCONNORS IRISH PUB & DINER,"22121 Highway 140 E, Dairy, Oregon, 97625",97625,Oregon,Region 10,Transient non-community system,40,,Klamath,3,45,4,-121.521541,42.234805,-121.521701,42.23498,-121.522541,-121.520541,42.233805,42.235805
OR4194841,MT HOOD INN,"97028, Government Camp, Oregon",97028,Oregon,Region 10,Transient non-community system,50,,Clackamas,3,14,4,-121.756635,45.304184,-121.756635,45.304184,-121.947635,-121.565635,45.113184,45.495184
OR4190628,BLM WILDWOOD REC SITE,"97067, Welches, Oregon",97067,Oregon,Region 10,Transient non-community system,300,,Clackamas,5,29,4,-121.967655,45.343396,-121.967655,45.343396,-122.070655,-121.864655,45.240396,45.446396
OR4100232,COLORADO LAKE COOP,"34360 NE Colorado Lake Dr, Corvallis, Oregon, 97333",97333,Oregon,Region 10,Community water system,80,,Linn,5,19,6,-123.215095,44.574899,-123.215095,44.574899,-123.225095,-123.205095,44.564899,44.584899
OR4100506,NEAHKAHNIE WATER DISTRICT,"9155 Nehalem Rd, Nehalem, Oregon, 97131",97131,Oregon,Region 10,Community water system,600,,Tillamook,15,54,7,-123.93516,45.727352,-123.935271,45.72719,-123.93616,-123.93416,45.726352,45.728352
